Wind speed,Wind angle,Acoustic temperature windsensor,Temperature validity,Temperature_aht10,Relative humidity_aht10,Temperature_ms5611,Pressure_ms5611,Absolute_altitude_ms5611,timestamp_pix_attitude,Roll,Pitch,Yaw,Roll speed,Pitch speed,Yaw speed,timestamp_pix_loc_pos,x,y,z,vx,vy,vz,timestamp_pix_gps,pix_lat,pix_lon,pix_alt,pix_gps_vx,pix_gps_vy,pix_gps_vz,latitude,longitude,altitude_gps,relative_altitude_gps
0,0,0,,27.6449,96.808,27.62,99693,136.7662,62178,-0.0257,-0.0407,-3.114,0.0061,0.0274,0.0011,0,0,0,0,0,0,0,0,0,0,0,0,0,0,0,0,0,0
0,0,0,,27.6834,96.8349,27.64,99692,136.8506,62674,-0.0257,-0.0427,-3.1143,-0.0038,0.0176,-0.0054,0,0,0,0,0,0,0,0,0,0,0,0,0,0,0,0,0,0
0,0,0,,27.7065,96.8236,27.64,99685,137.4411,62674,-0.0257,-0.0427,-3.1143,-0.0038,0.0176,-0.0054,0,0,0,0,0,0,0,0,0,0,0,0,0,0,0,0,0,0
0,0,0,,27.7061,96.8205,27.64,99693,136.7662,62861,-0.0258,-0.0416,-3.1146,-0.005,0.0162,-0.0059,62806,-0.916,0.158,-0.1656,0.0016,-0.0214,0.0026,0,0,0,0,0,0,0,0,0,0,0
0.4,351,32.1,A,27.7239,96.8301,27.65,99692,136.8506,63047,-0.0259,-0.0421,-3.1159,-0.0059,0.0259,-0.001,62806,-0.916,0.158,-0.1656,0.0016,-0.0214,0.0026,0,0,0,0,0,0,0,0,0,0,0
0.4,351,32.1,A,27.7435,96.8545,27.65,99693,136.7662,63171,-0.0259,-0.0422,-3.1158,-0.0034,-0.0085,0.0006,62806,-0.916,0.158,-0.1656,0.0016,-0.0214,0.0026,0,0,0,0,0,0,0,0,0,0,0
0.2,3,32.1,A,27.7452,96.8388,27.65,99692,136.8506,63294,-0.0259,-0.0422,-3.1163,-0.0033,-0.0236,-0.0014,62806,-0.916,0.158,-0.1656,0.0016,-0.0214,0.0026,0,0,0,0,0,0,0,0,0,0,0
0.2,3,32.1,A,27.7582,96.8525,27.66,99694,136.6819,63419,-0.0258,-0.0415,-3.1164,0.0001,0.0228,-0.0017,62806,-0.916,0.158,-0.1656,0.0016,-0.0214,0.0026,0,0,0,0,0,0,0,0,0,0,0
0.3,352,32.1,A,27.762,96.8586,27.66,99688,137.188,63544,-0.0258,-0.0421,-3.1163,0.0003,0.002,-0.0033,62806,-0.916,0.158,-0.1656,0.0016,-0.0214,0.0026,0,0,0,0,0,0,0,0,0,0,0
0.3,352,32.1,A,27.7719,96.8481,27.66,99695,136.5975,63666,-0.0258,-0.0425,-3.1163,0.001,-0.0185,0.0029,62806,-0.916,0.158,-0.1656,0.0016,-0.0214,0.0026,0,0,0,0,0,0,0,0,0,0,0
0.2,4,0,A,27.7716,96.851,27.66,99695,136.5975,63666,-0.0258,-0.0425,-3.1163,0.001,-0.0185,0.0029,62806,-0.916,0.158,-0.1656,0.0016,-0.0214,0.0026,0,0,0,0,0,0,0,0,0,0,0
0.2,4,0,A,27.7514,96.8464,27.65,99693,136.7662,63854,-0.026,-0.042,-3.1158,0.0037,-0.0181,0.0016,63806,-0.9214,0.1381,-0.1683,-0.0043,-0.0104,0.0037,63806,130713407,796876369,81740,0,-1,0,0,0,0,168
0.3,2,0,A,27.7565,96.8391,27.65,99692,136.8506,64039,-0.0262,-0.0426,-3.1161,0.0031,-0.0079,0.0035,63806,-0.9214,0.1381,-0.1683,-0.0043,-0.0104,0.0037,63806,130713407,796876369,81740,0,-1,0,0,0,0,168
0.3,2,0,A,27.7657,96.852,27.66,99693,136.7662,64164,-0.0262,-0.0414,-3.116,0.0055,-0.0064,0.0016,63806,-0.9214,0.1381,-0.1683,-0.0043,-0.0104,0.0037,63806,130713407,796876369,81740,0,-1,0,0,0,0,168
0.2,349,32.1,A,27.7678,96.8411,27.66,99692,136.8506,64286,-0.0264,-0.0419,-3.116,0.0013,0.0126,-0.0031,63806,-0.9214,0.1381,-0.1683,-0.0043,-0.0104,0.0037,63806,130713407,796876369,81740,0,-1,0,0,0,0,168
0.2,349,32.1,A,27.7706,96.8472,27.66,99693,136.7662,64411,-0.0263,-0.0424,-3.116,-0.0017,0.002,0.002,63806,-0.9214,0.1381,-0.1683,-0.0043,-0.0104,0.0037,63806,130713407,796876369,81740,0,-1,0,0,0,0,168
0.2,349,32.1,A,27.774,96.8264,27.66,99691,136.9349,64534,-0.0263,-0.0418,-3.1163,0.0003,-0.0163,0.0011,63806,-0.9214,0.1381,-0.1683,-0.0043,-0.0104,0.0037,63806,130713407,796876369,81740,0,-1,0,0,0,0,168
0.2,349,32.1,A,27.7767,96.845,27.66,99692,136.8506,64659,-0.0265,-0.0418,-3.1169,-0.0036,0.0084,-0.0017,63806,-0.9214,0.1381,-0.1683,-0.0043,-0.0104,0.0037,63806,130713407,796876369,81740,0,-1,0,0,0,0,168
0.3,343,32.1,A,27.7723,96.8436,27.65,99685,137.4411,64784,-0.0266,-0.0419,-3.1169,-0.0074,0.0107,-0.0009,63806,-0.9214,0.1381,-0.1683,-0.0043,-0.0104,0.0037,63806,130713407,796876369,81740,0,-1,0,0,0,0,168
0.3,343,32.1,A,27.7468,96.8349,27.65,99689,137.1037,64906,-0.0265,-0.0421,-3.1174,-0.0046,-0.0173,-0.0008,63806,-0.9214,0.1381,-0.1683,-0.0043,-0.0104,0.0037,63806,130713407,796876369,81740,0,-1,0,0,0,0,168
0.3,343,32.1,A,27.7586,96.8041,27.65,99692,136.8506,65094,-0.0265,-0.042,-3.1176,-0.0039,-0.0076,0.0015,63806,-0.9214,0.1381,-0.1683,-0.0043,-0.0104,0.0037,63806,130713407,796876369,81740,0,-1,0,0,0,0,168
0.3,343,32.1,A,27.7706,96.8289,27.66,99688,137.188,65216,-0.0264,-0.0415,-3.1177,0.0011,-0.0072,-0.0006,63806,-0.9214,0.1381,-0.1683,-0.0043,-0.0104,0.0037,63806,130713407,796876369,81740,0,-1,0,0,0,0,168
0.3,335,0,A,27.7708,96.8368,27.65,99689,137.1037,65216,-0.0264,-0.0415,-3.1177,0.0011,-0.0072,-0.0006,63806,-0.9214,0.1381,-0.1683,-0.0043,-0.0104,0.0037,65306,130713407,796876369,81740,0,0,0,0,0,0,161
0.3,335,0,A,27.7777,96.8504,27.66,99692,136.8506,65464,-0.0262,-0.0421,-3.1182,-0.0004,-0.0005,0.0002,63806,-0.9214,0.1381,-0.1683,-0.0043,-0.0104,0.0037,65306,130713407,796876369,81740,0,0,0,0,0,0,161
0.2,342,0,A,27.7695,96.8233,27.66,99692,136.8506,65526,-0.0262,-0.0416,-3.1185,0.0023,0.0093,-0.0004,63806,-0.9214,0.1381,-0.1683,-0.0043,-0.0104,0.0037,65306,130713407,796876369,81740,0,0,0,0,0,0,161
0.2,342,0,A,27.7796,96.8353,27.66,99691,136.9349,65650,-0.0261,-0.0424,-3.1186,0.0007,0.0022,0.0002,63806,-0.9214,0.1381,-0.1683,-0.0043,-0.0104,0.0037,65306,130713407,796876369,81740,0,0,0,0,0,0,161
0.2,336,32.2,A,27.7773,96.8364,27.64,99687,137.2724,65774,-0.026,-0.042,-3.1186,0.0068,-0.0074,0.0016,63806,-0.9214,0.1381,-0.1683,-0.0043,-0.0104,0.0037,65306,130713407,796876369,81740,0,0,0,0,0,0,161
0.2,336,32.2,A,27.7494,96.8187,27.65,99690,137.0193,65899,-0.0261,-0.0418,-3.1187,0.0048,0.0033,-0.0012,63806,-0.9214,0.1381,-0.1683,-0.0043,-0.0104,0.0037,65306,130713407,796876369,81740,0,0,0,0,0,0,161
0.2,334,32.2,A,27.7582,96.8248,27.65,99693,136.7662,66084,-0.0261,-0.0417,-3.119,0.0034,0.0027,0.001,63806,-0.9214,0.1381,-0.1683,-0.0043,-0.0104,0.0037,65306,130713407,796876369,81740,0,0,0,0,0,0,161
0.2,334,32.2,A,27.7689,96.8139,27.65,99693,136.7662,66209,-0.0261,-0.0419,-3.1192,-0.003,0.0075,-0.0028,63806,-0.9214,0.1381,-0.1683,-0.0043,-0.0104,0.0037,65306,130713407,796876369,81740,0,0,0,0,0,0,161
0.2,334,32.2,A,27.7664,96.8234,27.64,99690,137.0193,66394,-0.0261,-0.0418,-3.1195,-0.0049,0.0096,-0.0003,63806,-0.9214,0.1381,-0.1683,-0.0043,-0.0104,0.0037,66306,130713405,796876369,81750,0,0,0,0,0,0,174
0.2,334,32.2,A,27.7737,96.8248,27.66,99691,136.9349,66456,-0.0261,-0.0417,-3.1196,-0.001,-0.006,-0.0002,63806,-0.9214,0.1381,-0.1683,-0.0043,-0.0104,0.0037,66306,130713405,796876369,81750,0,0,0,0,0,0,174
0.2,337,0,A,27.7676,96.7853,27.65,99688,137.188,66581,-0.0261,-0.0417,-3.1201,-0.0065,0.005,-0.0027,63806,-0.9214,0.1381,-0.1683,-0.0043,-0.0104,0.0037,66306,130713405,796876369,81750,0,0,0,0,0,0,174
0.2,337,0,A,27.7754,96.8119,27.66,99694,136.6819,66704,-0.026,-0.042,-3.1203,-0.006,0.0005,-0.001,63806,-0.9214,0.1381,-0.1683,-0.0043,-0.0104,0.0037,66306,130713405,796876369,81750,0,0,0,0,0,0,174
0.2,34,32.2,A,27.775,96.8136,27.65,99691,136.9349,66704,-0.026,-0.042,-3.1203,-0.006,0.0005,-0.001,63806,-0.9214,0.1381,-0.1683,-0.0043,-0.0104,0.0037,66306,130713405,796876369,81750,0,0,0,0,0,0,174
0.2,34,32.2,A,27.7491,96.8021,27.64,99694,136.6819,66954,-0.0262,-0.0416,-3.1211,-0.0018,0.0018,-0.0006,63806,-0.9214,0.1381,-0.1683,-0.0043,-0.0104,0.0037,66306,130713405,796876369,81750,0,0,0,0,0,0,174
0.2,34,32.2,A,27.758,96.7946,27.65,99692,136.8506,67138,-0.0263,-0.0415,-3.1213,0.0011,-0.0006,-0.0005,63806,-0.9214,0.1381,-0.1683,-0.0043,-0.0104,0.0037,66306,130713405,796876369,81750,0,0,0,0,0,0,174
0.2,34,32.2,A,27.766,96.8138,27.64,99691,136.9349,67138,-0.0263,-0.0415,-3.1213,0.0011,-0.0006,-0.0005,63806,-0.9214,0.1381,-0.1683,-0.0043,-0.0104,0.0037,66306,130713405,796876369,81750,0,0,0,0,0,0,174
0.2,326,32.2,A,27.7664,96.8189,27.64,99685,137.4411,67324,-0.0263,-0.0416,-3.1215,0.0039,-0.0009,0.0002,67306,-0.9512,0.1921,-0.1576,-0.0028,0.0219,0.0067,67306,130713405,796876373,81730,0,2,0,0,0,0,157
0.2,326,32.2,A,27.7708,96.8167,27.65,99692,136.8506,67511,-0.0264,-0.0416,-3.1217,0.0064,-0.0041,0.0005,67306,-0.9512,0.1921,-0.1576,-0.0028,0.0219,0.0067,67306,130713405,796876373,81730,0,2,0,0,0,0,157
0,0,32.2,A,27.7645,96.7919,27.65,99691,136.9349,67574,-0.0264,-0.0419,-3.1217,0.0042,-0.0008,0.0006,67306,-0.9512,0.1921,-0.1576,-0.0028,0.0219,0.0067,67306,130713405,796876373,81730,0,2,0,0,0,0,157
0,0,32.2,A,27.7719,96.8043,27.65,99685,137.4411,67759,-0.0265,-0.0418,-3.1214,0.0018,0.0035,0.0001,67306,-0.9512,0.1921,-0.1576,-0.0028,0.0219,0.0067,67306,130713405,796876373,81730,0,2,0,0,0,0,157
0,0,32.2,A,27.7716,96.7977,27.65,99691,136.9349,67821,-0.0266,-0.0416,-3.1214,0.0009,0.0043,0.0004,67806,-0.9598,0.2506,-0.162,-0.0062,0.0404,0.0085,67806,130713404,796876379,81740,0,4,0,0,0,0,162
0,0,32.2,A,27.743,96.7917,27.64,99696,136.5132,67944,-0.0266,-0.042,-3.1213,-0.0002,0.0034,-0.0011,67806,-0.9598,0.2506,-0.162,-0.0062,0.0404,0.0085,67806,130713404,796876379,81740,0,4,0,0,0,0,162
0,0,32.2,A,27.75,96.8029,27.64,99692,136.8506,68131,-0.0267,-0.0419,-3.1211,-0.004,0.0036,-0.0014,67806,-0.9598,0.2506,-0.162,-0.0062,0.0404,0.0085,67806,130713404,796876379,81740,0,4,0,0,0,0,162
0,0,32.2,A,27.7628,96.7974,27.63,99688,137.188,68254,-0.0267,-0.0421,-3.1211,-0.0017,-0.0059,0,67806,-0.9598,0.2506,-0.162,-0.0062,0.0404,0.0085,67806,130713404,796876379,81740,0,4,0,0,0,0,162
0.2,325,32.2,A,27.7607,96.7924,27.64,99692,136.8506,68441,-0.0267,-0.0421,-3.1212,-0.004,-0.0038,-0.0005,67806,-0.9598,0.2506,-0.162,-0.0062,0.0404,0.0085,67806,130713404,796876379,81740,0,4,0,0,0,0,162
0.2,325,32.2,A,27.7699,96.8016,27.65,99691,136.9349,68504,-0.0268,-0.0419,-3.1213,-0.0064,0.0029,-0.0024,67806,-0.9598,0.2506,-0.162,-0.0062,0.0404,0.0085,67806,130713404,796876379,81740,0,4,0,0,0,0,162
0.2,324,32,A,27.7653,96.7977,27.64,99693,136.7662,68626,-0.0268,-0.0421,-3.1211,-0.0032,-0.0017,-0.0006,67806,-0.9598,0.2506,-0.162,-0.0062,0.0404,0.0085,67806,130713404,796876379,81740,0,4,0,0,0,0,162
0.2,324,32,A,27.7708,96.7865,27.64,99691,136.9349,68751,-0.0268,-0.0419,-3.1208,-0.0015,-0.005,0.0005,67806,-0.9598,0.2506,-0.162,-0.0062,0.0404,0.0085,67806,130713404,796876379,81740,0,4,0,0,0,0,162
0.2,322,0,A,27.7699,96.793,27.63,99688,137.188,68814,-0.0267,-0.042,-3.1207,-0.0005,0.0006,-0.001,68806,-0.9848,0.3714,-0.1718,-0.0138,0.0637,0.0066,67806,130713404,796876379,81740,0,4,0,0,0,0,162
0.2,322,0,A,27.7433,96.7951,27.64,99694,136.6819,68999,-0.0266,-0.042,-3.1206,0.0015,0.0033,-0.0006,68806,-0.9848,0.3714,-0.1718,-0.0138,0.0637,0.0066,67806,130713404,796876379,81740,0,4,0,0,0,0,162
0.2,327,3,A,27.7504,96.7708,27.64,99689,137.1037,69184,-0.0265,-0.0419,-3.1209,0.0032,0.0043,-0.0002,68806,-0.9848,0.3714,-0.1718,-0.0138,0.0637,0.0066,67806,130713404,796876379,81740,0,4,0,0,0,0,162
0.2,327,3,A,27.7597,96.7758,27.64,99687,137.2724,69184,-0.0265,-0.0419,-3.1209,0.0032,0.0043,-0.0002,68806,-0.9848,0.3714,-0.1718,-0.0138,0.0637,0.0066,69306,130713402,796876394,81750,-1,6,0,0,0,0,177
0.2,319,0,A,27.7582,96.7957,27.64,99694,136.6819,69371,-0.0264,-0.0418,-3.1211,0.0036,0.0056,0.0004,68806,-0.9848,0.3714,-0.1718,-0.0138,0.0637,0.0066,69306,130713402,796876394,81750,-1,6,0,0,0,0,177
0.2,319,0,A,27.7649,96.7797,27.65,99691,136.9349,69556,-0.0263,-0.0417,-3.1211,0.0016,0.005,-0.0003,68806,-0.9848,0.3714,-0.1718,-0.0138,0.0637,0.0066,69306,130713402,796876394,81750,-1,6,0,0,0,0,177
317,0,0,A,27.7645,96.7723,27.64,99690,137.0193,69619,-0.0263,-0.0418,-3.121,0.0022,-0.0017,0.0005,68806,-0.9848,0.3714,-0.1718,-0.0138,0.0637,0.0066,69306,130713402,796876394,81750,-1,6,0,0,0,0,177
317,0,0,A,27.7695,96.8125,27.65,99694,136.6819,69744,-0.0262,-0.0417,-3.1206,-0.0014,0.0036,-0.0005,68806,-0.9848,0.3714,-0.1718,-0.0138,0.0637,0.0066,69306,130713402,796876394,81750,-1,6,0,0,0,0,177
0.2,303,32.2,A,27.7668,96.8085,27.64,99691,136.9349,69866,-0.0261,-0.0419,-3.1205,-0.0011,0.001,-0.0008,69806,-0.9896,0.4571,-0.1771,-0.0107,0.0621,0.0056,69806,130713402,796876398,81750,-1,6,0,0,0,0,177
0.2,303,32.2,A,27.7403,96.7933,27.64,99691,136.9349,69991,-0.0261,-0.0418,-3.1208,-0.0032,-0.0039,-0.0007,69806,-0.9896,0.4571,-0.1771,-0.0107,0.0621,0.0056,69806,130713402,796876398,81750,-1,6,0,0,0,0,177
0.2,308,32.2,A,27.7483,96.7801,27.64,99691,136.9349,70176,-0.026,-0.0419,-3.1211,-0.0045,-0.0051,-0.0009,69806,-0.9896,0.4571,-0.1771,-0.0107,0.0621,0.0056,69806,130713402,796876398,81750,-1,6,0,0,0,0,177
0.2,308,32.2,A,27.7582,96.7797,27.64,99689,137.1037,70301,-0.026,-0.0417,-3.121,-0.0045,-0.0009,-0.0011,69806,-0.9896,0.4571,-0.1771,-0.0107,0.0621,0.0056,69806,130713402,796876398,81750,-1,6,0,0,0,0,177
0.2,329,32.2,A,27.7586,96.7938,27.64,99695,136.5975,70424,-0.0259,-0.0417,-3.121,-0.0046,0.0017,-0.0015,69806,-0.9896,0.4571,-0.1771,-0.0107,0.0621,0.0056,69806,130713402,796876398,81750,-1,6,0,0,0,0,177
0.2,329,32.2,A,27.763,96.7876,27.65,99693,136.7662,70549,-0.0258,-0.0418,-3.1209,-0.0011,-0.0025,-0.0001,69806,-0.9896,0.4571,-0.1771,-0.0107,0.0621,0.0056,69806,130713402,796876398,81750,-1,6,0,0,0,0,177
0.2,30,32.2,A,27.7637,96.7768,27.65,99694,136.6819,70672,-0.0258,-0.0417,-3.1207,-0.0003,-0.002,0,69806,-0.9896,0.4571,-0.1771,-0.0107,0.0621,0.0056,69806,130713402,796876398,81750,-1,6,0,0,0,0,177
0.2,30,32.2,A,27.7689,96.802,27.64,99690,137.0193,70796,-0.0256,-0.0416,-3.1205,0.0021,0.0022,-0.0001,69806,-0.9896,0.4571,-0.1771,-0.0107,0.0621,0.0056,69806,130713402,796876398,81750,-1,6,0,0,0,0,177
0.2,30,32.2,A,27.7657,96.7873,27.64,99692,136.8506,70921,-0.0255,-0.0417,-3.1204,0.0034,0.002,0.0001,69806,-0.9896,0.4571,-0.1771,-0.0107,0.0621,0.0056,69806,130713402,796876398,81750,-1,6,0,0,0,0,177
0.2,30,32.2,A,27.7409,96.7933,27.63,99693,136.7662,71044,-0.0255,-0.0416,-3.1203,0.005,-0.0013,0.0015,69806,-0.9896,0.4571,-0.1771,-0.0107,0.0621,0.0056,69806,130713402,796876398,81750,-1,6,0,0,0,0,177
0.2,307,32.2,A,27.7521,96.7754,27.64,99684,137.5255,71044,-0.0255,-0.0416,-3.1203,0.005,-0.0013,0.0015,69806,-0.9896,0.4571,-0.1771,-0.0107,0.0621,0.0056,69806,130713402,796876398,81750,-1,6,0,0,0,0,177
0.2,307,32.2,A,27.7594,96.7837,27.63,99694,136.6819,71044,-0.0255,-0.0416,-3.1203,0.005,-0.0013,0.0015,69806,-0.9896,0.4571,-0.1771,-0.0107,0.0621,0.0056,71306,130713403,796876404,81760,0,3,0,0,0,0,184
0.2,307,32.2,A,27.7607,96.7873,27.64,99692,136.8506,71416,-0.0253,-0.0417,-3.1196,0.0021,-0.0008,0,69806,-0.9896,0.4571,-0.1771,-0.0107,0.0621,0.0056,71306,130713403,796876404,81760,0,3,0,0,0,0,184
0.2,307,32.2,A,27.7639,96.7974,27.64,99691,136.9349,71541,-0.0253,-0.0416,-3.1195,-0.0006,-0.0012,0.0006,69806,-0.9896,0.4571,-0.1771,-0.0107,0.0621,0.0056,71306,130713403,796876404,81760,0,3,0,0,0,0,184
0.2,301,32.2,A,27.7645,96.8036,27.64,99691,136.9349,71664,-0.0253,-0.0416,-3.1192,-0.0018,0.0025,-0.0003,69806,-0.9896,0.4571,-0.1771,-0.0107,0.0621,0.0056,71306,130713403,796876404,81760,0,3,0,0,0,0,184
0.2,301,32.2,A,27.7681,96.8061,27.63,99688,137.188,71789,-0.0253,-0.0417,-3.119,-0.0034,-0.0014,-0.0009,69806,-0.9896,0.4571,-0.1771,-0.0107,0.0621,0.0056,71306,130713403,796876404,81760,0,3,0,0,0,0,184
0.2,0,0,A,27.7645,96.7899,27.64,99693,136.7662,71914,-0.0254,-0.0417,-3.1191,-0.0046,-0.0039,-0.0006,69806,-0.9896,0.4571,-0.1771,-0.0107,0.0621,0.0056,71306,130713403,796876404,81760,0,3,0,0,0,0,184
0.2,0,0,A,27.7405,96.7897,27.63,99694,136.6819,72036,-0.0254,-0.0416,-3.1194,-0.0054,0.0001,-0.0009,69806,-0.9896,0.4571,-0.1771,-0.0107,0.0621,0.0056,71306,130713403,796876404,81760,0,3,0,0,0,0,184
0.2,317,32.2,A,27.7281,96.7664,27.63,99682,137.6942,72224,-0.0254,-0.0417,-3.1197,-0.0032,-0.0004,-0.0006,69806,-0.9896,0.4571,-0.1771,-0.0107,0.0621,0.0056,71306,130713403,796876404,81760,0,3,0,0,0,0,184
0.2,317,32.2,A,27.7468,96.7974,27.63,99693,136.7662,72409,-0.0253,-0.0417,-3.1202,-0.0012,-0.0009,-0.001,69806,-0.9896,0.4571,-0.1771,-0.0107,0.0621,0.0056,71306,130713403,796876404,81760,0,3,0,0,0,0,184
0.2,320,32.2,A,27.7466,96.7854,27.64,99693,136.7662,72534,-0.0252,-0.0417,-3.1206,0.002,0.0019,0.0001,69806,-0.9896,0.4571,-0.1771,-0.0107,0.0621,0.0056,71306,130713403,796876404,81760,0,3,0,0,0,0,184
0.2,320,32.2,A,27.7546,96.7813,27.64,99692,136.8506,72534,-0.0252,-0.0417,-3.1206,0.002,0.0019,0.0001,69806,-0.9896,0.4571,-0.1771,-0.0107,0.0621,0.0056,71306,130713403,796876404,81760,0,3,0,0,0,0,184
0.2,320,32.2,A,27.7576,96.8096,27.64,99693,136.7662,72781,-0.0252,-0.0416,-3.1203,0.0051,-0.0001,0.0006,69806,-0.9896,0.4571,-0.1771,-0.0107,0.0621,0.0056,71306,130713403,796876404,81760,0,3,0,0,0,0,184
0.2,320,32.2,A,27.7613,96.7876,27.64,99692,136.8506,72844,-0.0252,-0.0417,-3.1202,0.0037,0.0015,0.0006,72806,-0.9341,0.6189,-0.1667,0.0086,0.0351,0.0079,72806,130713406,796876413,81740,0,3,0,0,0,0,166
0.2,320,32.2,A,27.7594,96.7939,27.64,99694,136.6819,72966,-0.0252,-0.0416,-3.1202,0.0037,-0.0003,0.0002,72806,-0.9341,0.6189,-0.1667,0.0086,0.0351,0.0079,72806,130713406,796876413,81740,0,3,0,0,0,0,166
0.2,320,32.2,A,27.7374,96.7873,27.64,99693,136.7662,73154,-0.0253,-0.0416,-3.1204,0.0021,-0.0007,0.0006,72806,-0.9341,0.6189,-0.1667,0.0086,0.0351,0.0079,72806,130713406,796876413,81740,0,3,0,0,0,0,166
0.3,361,32.2,A,27.7451,96.8044,27.64,99689,137.1037,73276,-0.0253,-0.0415,-3.1205,0.0011,0.0012,-0.0001,72806,-0.9341,0.6189,-0.1667,0.0086,0.0351,0.0079,72806,130713406,796876413,81740,0,3,0,0,0,0,166
0.3,361,32.2,A,27.7569,96.803,27.64,99689,137.1037,73464,-0.0253,-0.0415,-3.121,-0.0025,-0.0015,-0.0012,72806,-0.9341,0.6189,-0.1667,0.0086,0.0351,0.0079,72806,130713406,796876413,81740,0,3,0,0,0,0,166
0.3,317,32,A,27.7508,96.7974,27.64,99689,137.1037,73524,-0.0253,-0.0417,-3.1212,-0.0027,-0.0021,-0.0007,72806,-0.9341,0.6189,-0.1667,0.0086,0.0351,0.0079,72806,130713406,796876413,81740,0,3,0,0,0,0,166
0.3,317,32,A,27.759,96.7951,27.64,99692,136.8506,73650,-0.0253,-0.0416,-3.1214,-0.0044,-0.0025,-0.0006,72806,-0.9341,0.6189,-0.1667,0.0086,0.0351,0.0079,72806,130713406,796876413,81740,0,3,0,0,0,0,166
0.2,324,32.2,A,27.759,96.8065,27.63,99690,137.0193,73774,-0.0253,-0.0417,-3.1213,-0.0044,-0.0005,-0.0007,72806,-0.9341,0.6189,-0.1667,0.0086,0.0351,0.0079,72806,130713406,796876413,81740,0,3,0,0,0,0,166
0.2,324,32.2,A,27.7653,96.7975,27.65,99695,136.5975,73896,-0.0252,-0.0418,-3.1213,-0.0043,-0.0013,-0.0016,72806,-0.9341,0.6189,-0.1667,0.0086,0.0351,0.0079,72806,130713406,796876413,81740,0,3,0,0,0,0,166
0.2,328,32.2,A,27.7637,96.7961,27.65,99689,137.1037,74021,-0.0252,-0.0417,-3.1214,-0.0025,-0.0026,-0.0004,72806,-0.9341,0.6189,-0.1667,0.0086,0.0351,0.0079,72806,130713406,796876413,81740,0,3,0,0,0,0,166
0.2,328,32.2,A,27.7374,96.7768,27.64,99688,137.188,74144,-0.0251,-0.0416,-3.1215,-0.0014,0,-0.0008,72806,-0.9341,0.6189,-0.1667,0.0086,0.0351,0.0079,72806,130713406,796876413,81740,0,3,0,0,0,0,166
301,0,0,A,27.7443,96.8015,27.63,99691,136.9349,74144,-0.0251,-0.0416,-3.1215,-0.0014,0,-0.0008,72806,-0.9341,0.6189,-0.1667,0.0086,0.0351,0.0079,74306,130713409,796876422,81720,1,3,1,0,0,0,145
301,0,0,A,27.7555,96.8014,27.65,99691,136.9349,74454,-0.0251,-0.0416,-3.1218,0.0026,0.0013,0,72806,-0.9341,0.6189,-0.1667,0.0086,0.0351,0.0079,74306,130713409,796876422,81720,1,3,1,0,0,0,145
0.3,310,32.2,A,27.7538,96.7915,27.64,99690,137.0193,74578,-0.025,-0.0416,-3.122,0.0048,0.0007,0.001,72806,-0.9341,0.6189,-0.1667,0.0086,0.0351,0.0079,74306,130713409,796876422,81720,1,3,1,0,0,0,145
0.3,310,32.2,A,27.7634,96.7934,27.65,99693,136.7662,74704,-0.025,-0.0416,-3.1221,0.0046,0.0009,0.0008,72806,-0.9341,0.6189,-0.1667,0.0086,0.0351,0.0079,74306,130713409,796876422,81720,1,3,1,0,0,0,145
0.2,321,32.2,A,27.7586,96.7935,27.65,99694,136.6819,74764,-0.025,-0.0416,-3.1222,0.0044,0.0014,0.0007,72806,-0.9341,0.6189,-0.1667,0.0086,0.0351,0.0079,74306,130713409,796876422,81720,1,3,1,0,0,0,145
0.2,321,32.2,A,27.7716,96.8074,27.65,99690,137.0193,74951,-0.025,-0.0416,-3.1228,0.0014,0.0014,-0.0006,72806,-0.9341,0.6189,-0.1667,0.0086,0.0351,0.0079,74306,130713409,796876422,81720,1,3,1,0,0,0,145
0.2,0,0,A,27.763,96.791,27.65,99690,137.0193,75013,-0.025,-0.0416,-3.123,0.0007,0.0016,-0.0003,72806,-0.9341,0.6189,-0.1667,0.0086,0.0351,0.0079,74306,130713409,796876422,81720,1,3,1,0,0,0,145
0.2,0,0,A,27.7416,96.7957,27.64,99688,137.188,75136,-0.0249,-0.0416,-3.1231,-0.0004,0.0012,-0.0002,72806,-0.9341,0.6189,-0.1667,0.0086,0.0351,0.0079,74306,130713409,796876422,81720,1,3,1,0,0,0,145
0.2,318,32.3,A,27.7451,96.7874,27.64,99689,137.1037,75324,-0.0249,-0.0416,-3.1233,-0.004,-0.0008,-0.0004,75306,-0.8662,0.7758,-0.1554,0.0172,0.0282,0.0113,75306,130713412,796876427,81730,1,2,1,0,0,0,155
0.2,318,32.3,A,27.7538,96.8134,27.65,99685,137.4411,75447,-0.0248,-0.0416,-3.1234,-0.0045,-0.0019,-0.0013,75306,-0.8662,0.7758,-0.1554,0.0172,0.0282,0.0113,75306,130713412,796876427,81730,1,2,1,0,0,0,155
0.2,318,32.3,A,27.7525,96.7915,27.65,99692,136.8506,75571,-0.0248,-0.0415,-3.1236,-0.0044,-0.0013,-0.0019,75306,-0.8662,0.7758,-0.1554,0.0172,0.0282,0.0113,75306,130713412,796876427,81730,1,2,1,0,0,0,155
0.2,318,32.3,A,27.7603,96.8053,27.65,99692,136.8506,75756,-0.0247,-0.0415,-3.1238,-0.003,-0.0023,-0.0009,75306,-0.8662,0.7758,-0.1554,0.0172,0.0282,0.0113,75306,130713412,796876427,81730,1,2,1,0,0,0,155
0.2,339,32.3,A,27.7563,96.7968,27.65,99682,137.6942,75756,-0.0247,-0.0415,-3.1238,-0.003,-0.0023,-0.0009,75306,-0.8662,0.7758,-0.1554,0.0172,0.0282,0.0113,75806,130713413,796876429,81740,1,2,0,0,0,0,167
0.2,339,32.3,A,27.7624,96.8036,27.65,99689,137.1037,75944,-0.0247,-0.0415,-3.1241,0,-0.0014,-0.0001,75306,-0.8662,0.7758,-0.1554,0.0172,0.0282,0.0113,75806,130713413,796876429,81740,1,2,0,0,0,0,167
0.2,331,32.3,A,27.7607,96.7988,27.65,99693,136.7662,76066,-0.0246,-0.0415,-3.1243,0.0007,0.0007,-0.0002,75306,-0.8662,0.7758,-0.1554,0.0172,0.0282,0.0113,75806,130713413,796876429,81740,1,2,0,0,0,0,167
0.2,331,32.3,A,27.7361,96.7833,27.64,99686,137.3567,76191,-0.0245,-0.0415,-3.1244,0.0025,0.0012,0.0004,75306,-0.8662,0.7758,-0.1554,0.0172,0.0282,0.0113,75806,130713413,796876429,81740,1,2,0,0,0,0,167
0.2,331,32.3,A,27.7479,96.8022,27.65,99690,137.0193,76316,-0.0245,-0.0416,-3.1244,0.0045,0.0006,0.0002,76306,-0.8327,0.8058,-0.1761,0.0202,0.0158,0.0065,75806,130713413,796876429,81740,1,2,0,0,0,0,167
0.2,331,32.3,A,27.7559,96.8116,27.65,99691,136.9349,76501,-0.0246,-0.0416,-3.1246,0.0047,0.0014,0.0004,76306,-0.8327,0.8058,-0.1761,0.0202,0.0158,0.0065,75806,130713413,796876429,81740,1,2,0,0,0,0,167
0.2,331,32.3,A,27.7548,96.8232,27.65,99693,136.7662,76501,-0.0246,-0.0416,-3.1246,0.0047,0.0014,0.0004,76306,-0.8327,0.8058,-0.1761,0.0202,0.0158,0.0065,75806,130713413,796876429,81740,1,2,0,0,0,0,167
0.2,331,32.3,A,27.7613,96.7987,27.66,99681,137.7785,76751,-0.0245,-0.0416,-3.1246,0.0013,0.0012,-0.0002,76306,-0.8327,0.8058,-0.1761,0.0202,0.0158,0.0065,75806,130713413,796876429,81740,1,2,0,0,0,0,167
0.2,331,32.3,A,27.7597,96.8124,27.65,99683,137.6098,76811,-0.0245,-0.0416,-3.1245,0.0012,-0.0003,-0.0001,76806,-0.8147,0.8188,-0.1854,0.0211,0.0117,0.0064,76806,130713416,796876431,81760,2,1,0,0,0,0,185
0.2,331,32.3,A,27.7628,96.8298,27.65,99690,137.0193,76996,-0.0245,-0.0416,-3.1245,-0.0017,-0.0009,-0.0007,76806,-0.8147,0.8188,-0.1854,0.0211,0.0117,0.0064,76806,130713416,796876431,81760,2,1,0,0,0,0,185
0.1,338,32.4,A,27.7334,96.8101,27.64,99693,136.7662,77059,-0.0245,-0.0416,-3.1246,-0.0026,-0.0009,-0.0012,76806,-0.8147,0.8188,-0.1854,0.0211,0.0117,0.0064,76806,130713416,796876431,81760,2,1,0,0,0,0,185
0.1,338,32.4,A,27.7504,96.7984,27.65,99694,136.6819,77244,-0.0245,-0.0416,-3.1245,-0.0048,0.0005,-0.0015,76806,-0.8147,0.8188,-0.1854,0.0211,0.0117,0.0064,76806,130713416,796876431,81760,2,1,0,0,0,0,185
0.1,338,32.4,A,27.7498,96.825,27.65,99694,136.6819,77369,-0.0245,-0.0416,-3.1246,-0.0047,-0.0025,-0.0013,76806,-0.8147,0.8188,-0.1854,0.0211,0.0117,0.0064,76806,130713416,796876431,81760,2,1,0,0,0,0,185
0.1,338,32.4,A,27.7594,96.8142,27.65,99693,136.7662,77494,-0.0245,-0.0417,-3.1248,-0.0043,-0.0014,-0.0011,76806,-0.8147,0.8188,-0.1854,0.0211,0.0117,0.0064,76806,130713416,796876431,81760,2,1,0,0,0,0,185
0.1,330,32.4,A,27.7628,96.8085,27.66,99692,136.8506,77616,-0.0245,-0.0417,-3.1246,-0.0024,-0.0004,-0.0006,76806,-0.8147,0.8188,-0.1854,0.0211,0.0117,0.0064,76806,130713416,796876431,81760,2,1,0,0,0,0,185
0.1,330,32.4,A,27.7643,96.8143,27.65,99691,136.9349,77741,-0.0245,-0.0417,-3.1243,0,-0.0007,-0.0005,76806,-0.8147,0.8188,-0.1854,0.0211,0.0117,0.0064,76806,130713416,796876431,81760,2,1,0,0,0,0,185
0,330,32.4,A,27.763,96.8201,27.65,99685,137.4411,77926,-0.0245,-0.0417,-3.1243,0.0024,0.0006,-0.0003,76806,-0.8147,0.8188,-0.1854,0.0211,0.0117,0.0064,77806,130713420,796876433,81770,2,0,0,0,0,0,193
0,330,32.4,A,27.7643,96.824,27.65,99687,137.2724,77989,-0.0245,-0.0417,-3.1243,0.0036,0.0014,-0.0002,76806,-0.8147,0.8188,-0.1854,0.0211,0.0117,0.0064,77806,130713420,796876433,81770,2,0,0,0,0,0,193
0,330,32.4,A,27.7361,96.8076,27.64,99693,136.7662,78113,-0.0245,-0.0417,-3.1244,0.0048,0.0014,0.0002,76806,-0.8147,0.8188,-0.1854,0.0211,0.0117,0.0064,77806,130713420,796876433,81770,2,0,0,0,0,0,193
0,330,32.4,A,27.7512,96.7923,27.64,99690,137.0193,78299,-0.0245,-0.0417,-3.1244,0.0045,0.0018,0,76806,-0.8147,0.8188,-0.1854,0.0211,0.0117,0.0064,77806,130713420,796876433,81770,2,0,0,0,0,0,193
0,330,32.4,A,27.7559,96.8088,27.65,99692,136.8506,78424,-0.0245,-0.0417,-3.1244,0.0033,0,0.0007,76806,-0.8147,0.8188,-0.1854,0.0211,0.0117,0.0064,77806,130713420,796876433,81770,2,0,0,0,0,0,193
0,330,32.4,A,27.7645,96.808,27.66,99692,136.8506,78547,-0.0245,-0.0417,-3.1246,0.0022,0.0007,0,76806,-0.8147,0.8188,-0.1854,0.0211,0.0117,0.0064,77806,130713420,796876433,81770,2,0,0,0,0,0,193
0.1,323,32.5,A,27.7624,96.8221,27.66,99692,136.8506,78671,-0.0245,-0.0417,-3.1244,-0.0007,0,-0.0001,76806,-0.8147,0.8188,-0.1854,0.0211,0.0117,0.0064,77806,130713420,796876433,81770,2,0,0,0,0,0,193
0.1,323,32.5,A,27.7657,96.7965,27.66,99694,136.6819,78671,-0.0245,-0.0417,-3.1244,-0.0007,0,-0.0001,76806,-0.8147,0.8188,-0.1854,0.0211,0.0117,0.0064,77806,130713420,796876433,81770,2,0,0,0,0,0,193
0.1,323,32.5,A,27.7645,96.8143,27.65,99692,136.8506,78856,-0.0245,-0.0417,-3.1242,-0.003,-0.0005,-0.0006,78806,-0.7382,0.8673,-0.1894,0.0229,-0.0004,0.0105,78806,130713423,796876435,81760,2,0,1,0,0,0,189
0.1,323,32.5,A,27.7649,96.8167,27.66,99691,136.9349,78981,-0.0246,-0.0417,-3.1243,-0.0044,-0.0007,-0.0008,78806,-0.7382,0.8673,-0.1894,0.0229,-0.0004,0.0105,78806,130713423,796876435,81760,2,0,1,0,0,0,189
0.1,316,32.6,A,27.7357,96.7983,27.65,99691,136.9349,79104,-0.0246,-0.0417,-3.1243,-0.005,-0.0014,-0.0011,78806,-0.7382,0.8673,-0.1894,0.0229,-0.0004,0.0105,78806,130713423,796876435,81760,2,0,1,0,0,0,189
0.1,316,32.6,A,27.7514,96.8053,27.65,99691,136.9349,79291,-0.0247,-0.0417,-3.1242,-0.0035,-0.0011,-0.0008,78806,-0.7382,0.8673,-0.1894,0.0229,-0.0004,0.0105,78806,130713423,796876435,81760,2,0,1,0,0,0,189
0,317,32.6,A,27.7514,96.8096,27.66,99693,136.7662,79414,-0.0247,-0.0417,-3.1244,-0.0033,-0.0014,-0.0013,78806,-0.7382,0.8673,-0.1894,0.0229,-0.0004,0.0105,78806,130713423,796876435,81760,2,0,1,0,0,0,189
0,317,32.6,A,27.7611,96.8237,27.66,99690,137.0193,79538,-0.0247,-0.0417,-3.1247,-0.0004,-0.0003,-0.0008,78806,-0.7382,0.8673,-0.1894,0.0229,-0.0004,0.0105,78806,130713423,796876435,81760,2,0,1,0,0,0,189
0,286,32.6,A,27.7599,96.836,27.66,99692,136.8506,79664,-0.0247,-0.0417,-3.1248,0.0023,0.001,-0.0001,78806,-0.7382,0.8673,-0.1894,0.0229,-0.0004,0.0105,78806,130713423,796876435,81760,2,0,1,0,0,0,189
0,286,32.6,A,27.7676,96.8254,27.66,99691,136.9349,79786,-0.0247,-0.0417,-3.1247,0.0034,0.0005,0.0009,78806,-0.7382,0.8673,-0.1894,0.0229,-0.0004,0.0105,78806,130713423,796876435,81760,2,0,1,0,0,0,189
0,265,32.6,A,27.7653,96.825,27.66,99695,136.5975,79911,-0.0247,-0.0417,-3.1248,0.0047,0.0011,0.0003,78806,-0.7382,0.8673,-0.1894,0.0229,-0.0004,0.0105,78806,130713423,796876435,81760,2,0,1,0,0,0,189
0,265,32.6,A,27.7678,96.793,27.66,99694,136.6819,80034,-0.0247,-0.0417,-3.1249,0.0051,0.0017,0.0005,78806,-0.7382,0.8673,-0.1894,0.0229,-0.0004,0.0105,78806,130713423,796876435,81760,2,0,1,0,0,0,189
0.1,279,32.6,A,27.7685,96.8324,27.66,99692,136.8506,80034,-0.0247,-0.0417,-3.1249,0.0051,0.0017,0.0005,78806,-0.7382,0.8673,-0.1894,0.0229,-0.0004,0.0105,78806,130713423,796876435,81760,2,0,1,0,0,0,189
0.1,279,32.6,A,27.7733,96.8344,27.66,99691,136.9349,80221,-0.0247,-0.0417,-3.1247,0.0028,0.002,0.0003,78806,-0.7382,0.8673,-0.1894,0.0229,-0.0004,0.0105,78806,130713423,796876435,81760,2,0,1,0,0,0,189
0.1,279,32.6,A,27.7729,96.8214,27.66,99692,136.8506,80344,-0.0248,-0.0418,-3.1244,0.0018,0.0008,0.0002,78806,-0.7382,0.8673,-0.1894,0.0229,-0.0004,0.0105,78806,130713423,796876435,81760,2,0,1,0,0,0,189
0.1,279,32.6,A,27.7725,96.8116,27.66,99691,136.9349,80531,-0.0249,-0.0418,-3.1243,-0.0012,-0.0005,-0.0003,78806,-0.7382,0.8673,-0.1894,0.0229,-0.0004,0.0105,78806,130713423,796876435,81760,2,0,1,0,0,0,189
0.1,279,32.6,A,27.7723,96.8175,27.66,99690,137.0193,80594,-0.0249,-0.0418,-3.1243,-0.003,0,-0.0012,78806,-0.7382,0.8673,-0.1894,0.0229,-0.0004,0.0105,78806,130713423,796876435,81760,2,0,1,0,0,0,189
0.1,279,32.6,A,27.7737,96.8193,27.66,99689,137.1037,80779,-0.025,-0.0418,-3.1241,-0.0047,-0.0008,-0.0006,78806,-0.7382,0.8673,-0.1894,0.0229,-0.0004,0.0105,78806,130713423,796876435,81760,2,0,1,0,0,0,189
0.1,279,32.6,A,27.7689,96.8179,27.66,99690,137.0193,80841,-0.025,-0.0418,-3.124,-0.005,-0.0018,-0.0017,80806,-0.6634,0.9488,-0.172,0.0201,0.0135,0.0146,80806,130713430,796876443,81750,2,1,1,0,0,0,172
0.1,279,32.6,A,27.7737,96.8217,27.66,99692,136.8506,80964,-0.025,-0.0418,-3.124,-0.0048,-0.0013,-0.0019,80806,-0.6634,0.9488,-0.172,0.0201,0.0135,0.0146,80806,130713430,796876443,81750,2,1,1,0,0,0,172
0.2,316,32.4,A,27.7737,96.8259,27.66,99693,136.7662,81089,-0.025,-0.0418,-3.1241,-0.0042,-0.001,-0.001,80806,-0.6634,0.9488,-0.172,0.0201,0.0135,0.0146,80806,130713430,796876443,81750,2,1,1,0,0,0,172
0.2,316,32.4,A,27.7447,96.8263,27.64,99682,137.6942,81214,-0.025,-0.0418,-3.124,-0.001,-0.0011,-0.0009,80806,-0.6634,0.9488,-0.172,0.0201,0.0135,0.0146,80806,130713430,796876443,81750,2,1,1,0,0,0,172
0.2,321,0,A,27.7529,96.8124,27.65,99693,136.7662,81461,-0.0249,-0.0418,-3.1239,0.002,0,0.0001,80806,-0.6634,0.9488,-0.172,0.0201,0.0135,0.0146,80806,130713430,796876443,81750,2,1,1,0,0,0,172
0.2,321,0,A,27.7634,96.8354,27.66,99687,137.2724,81524,-0.0249,-0.0418,-3.1239,0.0028,0.0007,0.0002,80806,-0.6634,0.9488,-0.172,0.0201,0.0135,0.0146,80806,130713430,796876443,81750,2,1,1,0,0,0,172
0.3,306,32.4,A,27.759,96.8298,27.65,99691,136.9349,81646,-0.0248,-0.0418,-3.1237,0.0038,0.0005,0.0009,80806,-0.6634,0.9488,-0.172,0.0201,0.0135,0.0146,80806,130713430,796876443,81750,2,1,1,0,0,0,172
0.3,306,32.4,A,27.7706,96.8126,27.65,99684,137.5255,81771,-0.0248,-0.0419,-3.1233,0.0041,0.0017,0.0006,80806,-0.6634,0.9488,-0.172,0.0201,0.0135,0.0146,80806,130713430,796876443,81750,2,1,1,0,0,0,172
0.1,306,32.5,A,27.7658,96.8212,27.65,99694,136.6819,81894,-0.0248,-0.0419,-3.1228,0.0043,0.0012,-0.0001,80806,-0.6634,0.9488,-0.172,0.0201,0.0135,0.0146,80806,130713430,796876443,81750,2,1,1,0,0,0,172
0.1,306,32.5,A,27.7695,96.8131,27.66,99692,136.8506,82019,-0.0248,-0.0418,-3.1224,0.0027,0.0018,0.0007,80806,-0.6634,0.9488,-0.172,0.0201,0.0135,0.0146,80806,130713430,796876443,81750,2,1,1,0,0,0,172
0.1,306,32.5,A,27.7689,96.8095,27.66,99689,137.1037,82144,-0.0248,-0.0419,-3.1221,0.0001,0.001,-0.0001,80806,-0.6634,0.9488,-0.172,0.0201,0.0135,0.0146,80806,130713430,796876443,81750,2,1,1,0,0,0,172
0.1,319,32.5,A,27.7285,96.8107,27.64,99693,136.7662,82144,-0.0248,-0.0419,-3.1221,0.0001,0.001,-0.0001,80806,-0.6634,0.9488,-0.172,0.0201,0.0135,0.0146,80806,130713430,796876443,81750,2,1,1,0,0,0,172
0.1,319,32.5,A,27.7454,96.8277,27.65,99688,137.188,82454,-0.0249,-0.042,-3.1221,-0.0047,-0.0014,0,80806,-0.6634,0.9488,-0.172,0.0201,0.0135,0.0146,80806,130713430,796876443,81750,2,1,1,0,0,0,172
323,0,0,A,27.7514,96.8207,27.65,99693,136.7662,82576,-0.025,-0.0419,-3.1221,-0.0048,-0.0012,-0.0014,80806,-0.6634,0.9488,-0.172,0.0201,0.0135,0.0146,80806,130713430,796876443,81750,2,1,1,0,0,0,172
323,0,0,A,27.758,96.8085,27.65,99692,136.8506,82764,-0.025,-0.0419,-3.1223,-0.0042,-0.0012,-0.0016,80806,-0.6634,0.9488,-0.172,0.0201,0.0135,0.0146,80806,130713430,796876443,81750,2,1,1,0,0,0,172
0.1,332,32.5,A,27.762,96.8315,27.65,99684,137.5255,82886,-0.025,-0.0419,-3.1226,-0.0033,-0.0011,-0.0008,82806,-0.6159,0.9978,-0.181,0.0136,0.0048,0.0123,82806,130713434,796876448,81760,1,0,1,0,0,0,181
0.1,332,32.5,A,27.7613,96.8191,27.64,99691,136.9349,82949,-0.0249,-0.0418,-3.1227,-0.0021,-0.0006,-0.0004,82806,-0.6159,0.9978,-0.181,0.0136,0.0048,0.0123,82806,130713434,796876448,81760,1,0,1,0,0,0,181
0,346,32.5,A,27.7617,96.8253,27.65,99693,136.7662,83074,-0.0249,-0.0418,-3.1229,-0.0002,0.0001,-0.0005,82806,-0.6159,0.9978,-0.181,0.0136,0.0048,0.0123,82806,130713434,796876448,81760,1,0,1,0,0,0,181
0,346,32.5,A,27.7378,96.8246,27.64,99689,137.1037,83196,-0.0249,-0.0418,-3.1229,0.0015,-0.0001,-0.0002,82806,-0.6159,0.9978,-0.181,0.0136,0.0048,0.0123,82806,130713434,796876448,81760,1,0,1,0,0,0,181
355,0,0,A,27.7483,96.8471,27.65,99694,136.6819,83384,-0.0249,-0.0418,-3.1225,0.0036,0.0016,0.0003,82806,-0.6159,0.9978,-0.181,0.0136,0.0048,0.0123,82806,130713434,796876448,81760,1,0,1,0,0,0,181
355,0,0,A,27.758,96.843,27.66,99688,137.188,83506,-0.0249,-0.0418,-3.1224,0.0047,0.0011,0.0007,82806,-0.6159,0.9978,-0.181,0.0136,0.0048,0.0123,82806,130713434,796876448,81760,1,0,1,0,0,0,181
0,70,32.6,A,27.7599,96.8112,27.65,99690,137.0193,83631,-0.0249,-0.0418,-3.1222,0.0046,0.0018,0.0004,82806,-0.6159,0.9978,-0.181,0.0136,0.0048,0.0123,82806,130713434,796876448,81760,1,0,1,0,0,0,181
0,70,32.6,A,27.7634,96.827,27.65,99691,136.9349,83754,-0.0249,-0.0418,-3.1222,0.0037,0.0015,0.0009,82806,-0.6159,0.9978,-0.181,0.0136,0.0048,0.0123,82806,130713434,796876448,81760,1,0,1,0,0,0,181
0,70,32.6,A,27.7672,96.8265,27.66,99689,137.1037,83816,-0.025,-0.0418,-3.1222,0.0028,0.0013,0.0003,83806,-0.5891,1.029,-0.1558,0.0156,0.0091,0.0189,82806,130713434,796876448,81760,1,0,1,0,0,0,181
0,70,32.6,A,27.7754,96.8319,27.66,99692,136.8506,84004,-0.025,-0.0417,-3.1225,-0.0011,-0.0006,-0.0005,83806,-0.5891,1.029,-0.1558,0.0156,0.0091,0.0189,82806,130713434,796876448,81760,1,0,1,0,0,0,181
0,70,32.6,A,27.766,96.8338,27.65,99692,136.8506,84126,-0.0249,-0.0417,-3.1226,-0.0017,0.0002,-0.0004,83806,-0.5891,1.029,-0.1558,0.0156,0.0091,0.0189,82806,130713434,796876448,81760,1,0,1,0,0,0,181
0,70,32.6,A,27.742,96.8249,27.64,99686,137.3567,84126,-0.0249,-0.0417,-3.1226,-0.0017,0.0002,-0.0004,83806,-0.5891,1.029,-0.1558,0.0156,0.0091,0.0189,82806,130713434,796876448,81760,1,0,1,0,0,0,181
0,70,32.6,A,27.7498,96.8139,27.65,99692,136.8506,84374,-0.0249,-0.0417,-3.1226,-0.0045,-0.0014,-0.0005,83806,-0.5891,1.029,-0.1558,0.0156,0.0091,0.0189,82806,130713434,796876448,81760,1,0,1,0,0,0,181
0,70,32.6,A,27.7628,96.838,27.65,99689,137.1037,84561,-0.0249,-0.0417,-3.1227,-0.0043,-0.0017,-0.001,83806,-0.5891,1.029,-0.1558,0.0156,0.0091,0.0189,82806,130713434,796876448,81760,1,0,1,0,0,0,181
267,0,0,A,27.7613,96.8119,27.65,99692,136.8506,84624,-0.0249,-0.0417,-3.1227,-0.0041,-0.0006,-0.0006,83806,-0.5891,1.029,-0.1558,0.0156,0.0091,0.0189,82806,130713434,796876448,81760,1,0,1,0,0,0,181
267,0,0,A,27.7695,96.8292,27.65,99690,137.0193,84751,-0.0249,-0.0417,-3.1226,-0.0001,0.0001,-0.0006,84806,-0.5649,1.0393,-0.1462,0.0182,0.0021,0.021,82806,130713434,796876448,81760,1,0,1,0,0,0,181
0.2,225,32.7,A,27.7645,96.8139,27.65,99693,136.7662,84871,-0.0249,-0.0417,-3.1222,0,-0.0001,0.0001,84806,-0.5649,1.0393,-0.1462,0.0182,0.0021,0.021,82806,130713434,796876448,81760,1,0,1,0,0,0,181
0.2,225,32.7,A,27.7708,96.8196,27.64,99696,136.5132,84994,-0.0249,-0.0418,-3.1218,0.0018,-0.0004,-0.0003,84806,-0.5649,1.0393,-0.1462,0.0182,0.0021,0.021,82806,130713434,796876448,81760,1,0,1,0,0,0,181
203,0,0,A,27.7649,96.8313,27.65,99691,136.9349,85119,-0.0249,-0.0418,-3.1213,0.0033,0.0007,0.0003,84806,-0.5649,1.0393,-0.1462,0.0182,0.0021,0.021,82806,130713434,796876448,81760,1,0,1,0,0,0,181
203,0,0,A,27.7439,96.8082,27.63,99689,137.1037,85244,-0.0249,-0.0419,-3.121,0.0044,0.0012,0.0002,84806,-0.5649,1.0393,-0.1462,0.0182,0.0021,0.021,82806,130713434,796876448,81760,1,0,1,0,0,0,181
0.2,0,32.6,A,27.7514,96.8204,27.65,99690,137.0193,85429,-0.0249,-0.0419,-3.1212,0.0042,0.0014,0.0007,84806,-0.5649,1.0393,-0.1462,0.0182,0.0021,0.021,82806,130713434,796876448,81760,1,0,1,0,0,0,181
0.2,0,32.6,A,27.7643,96.8352,27.66,99692,136.8506,85554,-0.0249,-0.0419,-3.1214,0.0026,0.0006,0.0002,84806,-0.5649,1.0393,-0.1462,0.0182,0.0021,0.021,82806,130713434,796876448,81760,1,0,1,0,0,0,181
0.2,53,32,A,27.7594,96.8243,27.65,99692,136.8506,85676,-0.0249,-0.0419,-3.1214,0.0014,0.0009,0.0001,84806,-0.5649,1.0393,-0.1462,0.0182,0.0021,0.021,82806,130713434,796876448,81760,1,0,1,0,0,0,181
0.2,53,32,A,27.7685,96.831,27.65,99687,137.2724,85676,-0.0249,-0.0419,-3.1214,0.0014,0.0009,0.0001,84806,-0.5649,1.0393,-0.1462,0.0182,0.0021,0.021,82806,130713434,796876448,81760,1,0,1,0,0,0,181
0.2,53,32,A,27.7681,96.8429,27.65,99695,136.5975,85864,-0.0249,-0.042,-3.1212,-0.0023,-0.0005,-0.0002,85806,-0.57,1.0523,-0.1482,0.0063,0.0009,0.0206,82806,130713434,796876448,81760,1,0,1,0,0,0,181
0.2,53,32,A,27.7699,96.8288,27.66,99693,136.7662,86050,-0.0249,-0.0421,-3.1213,-0.0038,-0.0012,-0.001,85806,-0.57,1.0523,-0.1482,0.0063,0.0009,0.0206,82806,130713434,796876448,81760,1,0,1,0,0,0,181
0.2,53,32,A,27.7624,96.824,27.66,99693,136.7662,86174,-0.025,-0.0421,-3.1214,-0.0055,-0.0017,-0.0011,85806,-0.57,1.0523,-0.1482,0.0063,0.0009,0.0206,82806,130713434,796876448,81760,1,0,1,0,0,0,181
0.2,53,32,A,27.7409,96.8262,27.65,99693,136.7662,86234,-0.025,-0.0421,-3.1214,-0.0047,-0.0011,-0.0011,85806,-0.57,1.0523,-0.1482,0.0063,0.0009,0.0206,82806,130713434,796876448,81760,1,0,1,0,0,0,181
0.2,234,32.5,A,27.7504,96.8216,27.65,99690,137.0193,86421,-0.0251,-0.0421,-3.1215,-0.003,-0.0013,-0.0009,85806,-0.57,1.0523,-0.1482,0.0063,0.0009,0.0206,82806,130713434,796876448,81760,1,0,1,0,0,0,181
0.2,234,32.5,A,27.7586,96.8459,27.66,99690,137.0193,86544,-0.0251,-0.0421,-3.1215,-0.0026,-0.0004,-0.0002,85806,-0.57,1.0523,-0.1482,0.0063,0.0009,0.0206,82806,130713434,796876448,81760,1,0,1,0,0,0,181
0.2,234,32.5,A,27.7582,96.8397,27.65,99692,136.8506,86669,-0.0251,-0.0421,-3.1215,0.0006,0.0003,0.0003,85806,-0.57,1.0523,-0.1482,0.0063,0.0009,0.0206,82806,130713434,796876448,81760,1,0,1,0,0,0,181
0.2,234,32.5,A,27.7702,96.8386,27.64,99689,137.1037,86854,-0.0251,-0.042,-3.1216,0.002,0.001,0.0006,85806,-0.57,1.0523,-0.1482,0.0063,0.0009,0.0206,82806,130713434,796876448,81760,1,0,1,0,0,0,181
0.2,249,32.5,A,27.7653,96.8087,27.66,99693,136.7662,86916,-0.0251,-0.0419,-3.1217,0.0037,0.0008,0.0004,85806,-0.57,1.0523,-0.1482,0.0063,0.0009,0.0206,82806,130713434,796876448,81760,1,0,1,0,0,0,181
0.2,249,32.5,A,27.7716,96.844,27.66,99692,136.8506,87041,-0.0251,-0.0419,-3.1219,0.0047,0.0009,0.001,85806,-0.57,1.0523,-0.1482,0.0063,0.0009,0.0206,82806,130713434,796876448,81760,1,0,1,0,0,0,181
0.2,233,32.4,A,27.7664,96.8511,27.66,99691,136.9349,87166,-0.025,-0.0419,-3.1221,0.0044,0.0013,0.0001,85806,-0.57,1.0523,-0.1482,0.0063,0.0009,0.0206,82806,130713434,796876448,81760,1,0,1,0,0,0,181
0.2,233,32.4,A,27.7452,96.8085,27.64,99691,136.9349,87289,-0.0251,-0.0419,-3.1223,0.0034,0.0013,-0.0003,85806,-0.57,1.0523,-0.1482,0.0063,0.0009,0.0206,82806,130713434,796876448,81760,1,0,1,0,0,0,181
32.4,0,32.4,A,27.7529,96.8333,27.65,99686,137.3567,87474,-0.025,-0.0419,-3.1225,0.0013,0.0009,-0.0003,85806,-0.57,1.0523,-0.1482,0.0063,0.0009,0.0206,82806,130713434,796876448,81760,1,0,1,0,0,0,181
32.4,0,32.4,A,27.7624,96.8422,27.65,99691,136.9349,87474,-0.025,-0.0419,-3.1225,0.0013,0.0009,-0.0003,85806,-0.57,1.0523,-0.1482,0.0063,0.0009,0.0206,82806,130713434,796876448,81760,1,0,1,0,0,0,181
32.4,0,32.4,A,27.7607,96.8219,27.65,99687,137.2724,87724,-0.025,-0.0419,-3.1224,-0.0029,-0.0008,-0.0007,85806,-0.57,1.0523,-0.1482,0.0063,0.0009,0.0206,82806,130713434,796876448,81760,1,0,1,0,0,0,181
32.4,0,32.4,A,27.766,96.8307,27.65,99685,137.4411,87724,-0.025,-0.0419,-3.1224,-0.0029,-0.0008,-0.0007,85806,-0.57,1.0523,-0.1482,0.0063,0.0009,0.0206,82806,130713434,796876448,81760,1,0,1,0,0,0,181
0.3,198,32.3,A,27.7634,96.8281,27.66,99691,136.9349,87971,-0.0251,-0.042,-3.1221,-0.004,-0.0015,-0.0014,85806,-0.57,1.0523,-0.1482,0.0063,0.0009,0.0206,82806,130713434,796876448,81760,1,0,1,0,0,0,181
0.3,198,32.3,A,27.7681,96.818,27.65,99689,137.1037,88094,-0.0251,-0.042,-3.1221,-0.0042,-0.0011,-0.0006,85806,-0.57,1.0523,-0.1482,0.0063,0.0009,0.0206,82806,130713434,796876448,81760,1,0,1,0,0,0,181
0.3,198,32.3,A,27.7649,96.8315,27.66,99691,136.9349,88156,-0.0251,-0.042,-3.1221,-0.0042,-0.001,-0.0001,85806,-0.57,1.0523,-0.1482,0.0063,0.0009,0.0206,82806,130713434,796876448,81760,1,0,1,0,0,0,181
0.3,198,32.3,A,27.7405,96.8288,27.64,99690,137.0193,88281,-0.0251,-0.042,-3.1222,-0.0031,-0.0012,-0.0004,85806,-0.57,1.0523,-0.1482,0.0063,0.0009,0.0206,82806,130713434,796876448,81760,1,0,1,0,0,0,181
0.4,256,32.3,A,27.7508,96.8367,27.64,99690,137.0193,88466,-0.0251,-0.0419,-3.1224,0.0002,-0.0002,0.0001,85806,-0.57,1.0523,-0.1482,0.0063,0.0009,0.0206,82806,130713434,796876448,81760,1,0,1,0,0,0,181
0.4,256,32.3,A,27.759,96.8338,27.65,99692,136.8506,88591,-0.0251,-0.0419,-3.1225,0.0028,0.0002,0.0008,85806,-0.57,1.0523,-0.1482,0.0063,0.0009,0.0206,82806,130713434,796876448,81760,1,0,1,0,0,0,181
0.3,22,32.3,A,27.759,96.84,27.66,99689,137.1037,88716,-0.0251,-0.0419,-3.1226,0.0047,0.0012,0.0008,85806,-0.57,1.0523,-0.1482,0.0063,0.0009,0.0206,82806,130713434,796876448,81760,1,0,1,0,0,0,181
0.3,22,32.3,A,27.7664,96.8381,27.66,99691,136.9349,88838,-0.0252,-0.0419,-3.1226,0.0044,0.0017,0.0015,88806,-0.5863,1.0961,-0.1026,-0.0023,0.0036,0.0247,88806,130713438,796876457,81680,0,0,2,0,0,0,102
0.4,238,32.2,A,27.7597,96.8144,27.66,99692,136.8506,88964,-0.0252,-0.0419,-3.1225,0.0042,0.001,0.001,88806,-0.5863,1.0961,-0.1026,-0.0023,0.0036,0.0247,88806,130713438,796876457,81680,0,0,2,0,0,0,102
0.4,238,32.2,A,27.766,96.8496,27.66,99694,136.6819,89086,-0.0252,-0.0419,-3.1226,0.0031,0.001,-0.0005,88806,-0.5863,1.0961,-0.1026,-0.0023,0.0036,0.0247,88806,130713438,796876457,81680,0,0,2,0,0,0,102
0.4,246,32.1,A,27.766,96.8522,27.65,99693,136.7662,89211,-0.0253,-0.0419,-3.1225,0.0011,0.001,-0.0004,88806,-0.5863,1.0961,-0.1026,-0.0023,0.0036,0.0247,88806,130713438,796876457,81680,0,0,2,0,0,0,102
0.4,246,32.1,A,27.7443,96.8497,27.65,99690,137.0193,89211,-0.0253,-0.0419,-3.1225,0.0011,0.001,-0.0004,88806,-0.5863,1.0961,-0.1026,-0.0023,0.0036,0.0247,89306,130713437,796876458,81680,0,0,1,0,0,0,109
0.4,246,32.1,A,27.7512,96.8361,27.65,99692,136.8506,89521,-0.0254,-0.042,-3.1226,-0.0035,-0.0013,-0.0005,88806,-0.5863,1.0961,-0.1026,-0.0023,0.0036,0.0247,89306,130713437,796876458,81680,0,0,1,0,0,0,109
0.4,246,32.1,A,27.7594,96.8613,27.66,99692,136.8506,89521,-0.0254,-0.042,-3.1226,-0.0035,-0.0013,-0.0005,88806,-0.5863,1.0961,-0.1026,-0.0023,0.0036,0.0247,89306,130713437,796876458,81680,0,0,1,0,0,0,109
0.5,235,32.2,A,27.7599,96.8645,27.64,99691,136.9349,89769,-0.0254,-0.0421,-3.1224,-0.005,-0.0014,-0.0016,88806,-0.5863,1.0961,-0.1026,-0.0023,0.0036,0.0247,89306,130713437,796876458,81680,0,0,1,0,0,0,109
0.5,235,32.2,A,27.7664,96.8518,27.66,99691,136.9349,89831,-0.0254,-0.0421,-3.1224,-0.0047,-0.001,-0.0009,89806,-0.6122,1.1278,-0.1276,-0.0142,0.0096,0.0133,89306,130713437,796876458,81680,0,0,1,0,0,0,109
0.5,235,32.2,A,27.7624,96.8444,27.65,99693,136.7662,90016,-0.0254,-0.0421,-3.1225,-0.0033,-0.0017,-0.0011,89806,-0.6122,1.1278,-0.1276,-0.0142,0.0096,0.0133,89306,130713437,796876458,81680,0,0,1,0,0,0,109
0.5,235,32.2,A,27.7689,96.8635,27.66,99692,136.8506,90078,-0.0254,-0.0421,-3.1225,-0.0021,-0.0002,-0.0004,89806,-0.6122,1.1278,-0.1276,-0.0142,0.0096,0.0133,89306,130713437,796876458,81680,0,0,1,0,0,0,109
0.5,235,32.2,A,27.7685,96.8567,27.65,99686,137.3567,90204,-0.0254,-0.0421,-3.1223,0.001,-0.0008,-0.0007,89806,-0.6122,1.1278,-0.1276,-0.0142,0.0096,0.0133,89306,130713437,796876458,81680,0,0,1,0,0,0,109
0.5,235,32.2,A,27.7443,96.8565,27.65,99693,136.7662,90326,-0.0254,-0.0421,-3.1221,0.0015,0.0001,0.0004,90306,-0.6262,1.1426,-0.1427,-0.0172,0.0116,0.0086,90306,130713434,796876461,81720,-1,1,0,0,0,0,142
0.7,256,32.1,A,27.7472,96.8426,27.65,99688,137.188,90513,-0.0254,-0.042,-3.1219,0.0041,0.0015,0.0009,90306,-0.6262,1.1426,-0.1427,-0.0172,0.0116,0.0086,90306,130713434,796876461,81720,-1,1,0,0,0,0,142
0.7,256,32.1,A,27.7607,96.8553,27.65,99694,136.6819,90636,-0.0254,-0.042,-3.1217,0.0045,0.0015,0.0007,90306,-0.6262,1.1426,-0.1427,-0.0172,0.0116,0.0086,90306,130713434,796876461,81720,-1,1,0,0,0,0,142
0.7,267,32,A,27.7617,96.8553,27.64,99689,137.1037,90761,-0.0254,-0.042,-3.1214,0.004,0.0014,0.0007,90306,-0.6262,1.1426,-0.1427,-0.0172,0.0116,0.0086,90306,130713434,796876461,81720,-1,1,0,0,0,0,142
0.7,267,32,A,27.7708,96.8655,27.66,99689,137.1037,90884,-0.0254,-0.0419,-3.1211,0.0031,0.0015,0.0011,90306,-0.6262,1.1426,-0.1427,-0.0172,0.0116,0.0086,90306,130713434,796876461,81720,-1,1,0,0,0,0,142
0,254,32,A,27.7657,96.8413,27.66,99691,136.9349,91009,-0.0254,-0.0419,-3.121,0.001,-0.0001,-0.0007,90306,-0.6262,1.1426,-0.1427,-0.0172,0.0116,0.0086,90306,130713434,796876461,81720,-1,1,0,0,0,0,142
0,254,32,A,27.7695,96.8714,27.66,99689,137.1037,91134,-0.0254,-0.0419,-3.1209,-0.0009,-0.0002,-0.0003,90306,-0.6262,1.1426,-0.1427,-0.0172,0.0116,0.0086,90306,130713434,796876461,81720,-1,1,0,0,0,0,142
0.8,242,31.9,A,27.7672,96.84,27.65,99689,137.1037,91134,-0.0254,-0.0419,-3.1209,-0.0009,-0.0002,-0.0003,91306,-0.6493,1.1765,-0.1767,-0.0196,0.0158,0.0002,90306,130713434,796876461,81720,-1,1,0,0,0,0,142
0.8,242,31.9,A,27.7426,96.8419,27.65,99690,137.0193,91381,-0.0256,-0.042,-3.1206,-0.0046,-0.0018,-0.0009,91306,-0.6493,1.1765,-0.1767,-0.0196,0.0158,0.0002,90306,130713434,796876461,81720,-1,1,0,0,0,0,142
0.8,260,31.9,A,27.7498,96.8483,27.65,99696,136.5132,91566,-0.0256,-0.042,-3.1204,-0.0051,-0.0013,-0.0003,91306,-0.6493,1.1765,-0.1767,-0.0196,0.0158,0.0002,90306,130713434,796876461,81720,-1,1,0,0,0,0,142
0.8,260,31.9,A,27.7637,96.8416,27.66,99692,136.8506,91691,-0.0257,-0.0419,-3.1202,-0.004,-0.0009,-0.0007,91306,-0.6493,1.1765,-0.1767,-0.0196,0.0158,0.0002,90306,130713434,796876461,81720,-1,1,0,0,0,0,142
0.8,260,31.9,A,27.7617,96.8506,27.66,99690,137.0193,91691,-0.0257,-0.0419,-3.1202,-0.004,-0.0009,-0.0007,91306,-0.6493,1.1765,-0.1767,-0.0196,0.0158,0.0002,90306,130713434,796876461,81720,-1,1,0,0,0,0,142
0.8,260,31.9,A,27.7723,96.865,27.66,99691,136.9349,91938,-0.0256,-0.0419,-3.1204,-0.0012,-0.0006,-0.0001,91306,-0.6493,1.1765,-0.1767,-0.0196,0.0158,0.0002,90306,130713434,796876461,81720,-1,1,0,0,0,0,142
0.7,255,31.9,A,27.7685,96.8547,27.66,99693,136.7662,92064,-0.0256,-0.0419,-3.1205,0.0025,0.0005,0.0004,91306,-0.6493,1.1765,-0.1767,-0.0196,0.0158,0.0002,90306,130713434,796876461,81720,-1,1,0,0,0,0,142
0.7,255,31.9,A,27.7737,96.8571,27.66,99693,136.7662,92186,-0.0255,-0.0418,-3.1205,0.0027,0.0004,-0.0008,91306,-0.6493,1.1765,-0.1767,-0.0196,0.0158,0.0002,90306,130713434,796876461,81720,-1,1,0,0,0,0,142
0.8,260,31.9,A,27.7695,96.8491,27.66,99686,137.3567,92251,-0.0255,-0.0418,-3.1205,0.0042,0.0008,0.0005,91306,-0.6493,1.1765,-0.1767,-0.0196,0.0158,0.0002,90306,130713434,796876461,81720,-1,1,0,0,0,0,142
0.7,259,31.9,A,27.7298,96.8483,27.64,99694,136.6819,92374,-0.0254,-0.0417,-3.1206,0.0053,0.0012,0.0008,91306,-0.6493,1.1765,-0.1767,-0.0196,0.0158,0.0002,90306,130713434,796876461,81720,-1,1,0,0,0,0,142
0.7,259,31.9,A,27.7494,96.8522,27.65,99690,137.0193,92684,-0.0253,-0.0416,-3.1209,0.0019,0.0008,0.0002,91306,-0.6493,1.1765,-0.1767,-0.0196,0.0158,0.0002,90306,130713434,796876461,81720,-1,1,0,0,0,0,142
0.8,262,32,A,27.7548,96.8505,27.65,99688,137.188,92744,-0.0253,-0.0415,-3.1209,0.0023,0.0007,0.0001,91306,-0.6493,1.1765,-0.1767,-0.0196,0.0158,0.0002,90306,130713434,796876461,81720,-1,1,0,0,0,0,142
0.8,262,32,A,27.7657,96.8653,27.65,99691,136.9349,92806,-0.0252,-0.0415,-3.121,0.0016,0.0007,-0.0003,92806,-0.6479,1.2005,-0.1706,-0.0043,0.0072,0.0065,90306,130713434,796876461,81720,-1,1,0,0,0,0,142
0.8,275,32,A,27.7637,96.8401,27.66,99692,136.8506,92994,-0.0251,-0.0414,-3.1211,-0.0026,-0.0005,0,92806,-0.6479,1.2005,-0.1706,-0.0043,0.0072,0.0065,90306,130713434,796876461,81720,-1,1,0,0,0,0,142
0.8,275,32,A,27.7702,96.844,27.65,99692,136.8506,93116,-0.0251,-0.0413,-3.1212,-0.0036,-0.0008,-0.0005,92806,-0.6479,1.2005,-0.1706,-0.0043,0.0072,0.0065,90306,130713434,796876461,81720,-1,1,0,0,0,0,142
0.8,275,32,A,27.7708,96.8479,27.66,99687,137.2724,93116,-0.0251,-0.0413,-3.1212,-0.0036,-0.0008,-0.0005,92806,-0.6479,1.2005,-0.1706,-0.0043,0.0072,0.0065,90306,130713434,796876461,81720,-1,1,0,0,0,0,142
0.8,275,32,A,27.7733,96.8448,27.64,99691,136.9349,93116,-0.0251,-0.0413,-3.1212,-0.0036,-0.0008,-0.0005,92806,-0.6479,1.2005,-0.1706,-0.0043,0.0072,0.0065,93306,130713432,796876465,81730,0,0,0,0,0,0,158
0.6,256,32,A,27.7422,96.8392,27.65,99691,136.9349,93488,-0.0251,-0.0413,-3.1211,-0.004,-0.0012,-0.0009,92806,-0.6479,1.2005,-0.1706,-0.0043,0.0072,0.0065,93306,130713432,796876465,81730,0,0,0,0,0,0,158
0.6,256,32,A,27.7607,96.862,27.65,99693,136.7662,93674,-0.0251,-0.0413,-3.121,-0.0016,-0.0002,-0.0005,92806,-0.6479,1.2005,-0.1706,-0.0043,0.0072,0.0065,93306,130713432,796876465,81730,0,0,0,0,0,0,158
0.7,274,32,A,27.7597,96.8411,27.65,99674,138.3691,93674,-0.0251,-0.0413,-3.121,-0.0016,-0.0002,-0.0005,92806,-0.6479,1.2005,-0.1706,-0.0043,0.0072,0.0065,93306,130713432,796876465,81730,0,0,0,0,0,0,158
0.7,274,32,A,27.7681,96.8423,27.66,99688,137.188,93861,-0.0251,-0.0413,-3.1207,0.0016,0.0001,0,93806,-0.6314,1.1813,-0.1565,0.0045,-0.0037,0.0087,93806,130713433,796876465,81730,0,0,0,0,0,0,156
1,270,32,A,27.7624,96.8552,27.65,99690,137.0193,93984,-0.0251,-0.0412,-3.1206,0.0027,0.0009,0.0005,93806,-0.6314,1.1813,-0.1565,0.0045,-0.0037,0.0087,93806,130713433,796876465,81730,0,0,0,0,0,0,156
1,270,32,A,27.7716,96.8437,27.66,99693,136.7662,94171,-0.025,-0.0411,-3.1205,0.0047,0.0015,0.0005,93806,-0.6314,1.1813,-0.1565,0.0045,-0.0037,0.0087,93806,130713433,796876465,81730,0,0,0,0,0,0,156
1,270,32,A,27.7716,96.8666,27.65,99684,137.5255,94234,-0.025,-0.0411,-3.1204,0.0045,0.0018,0.0011,93806,-0.6314,1.1813,-0.1565,0.0045,-0.0037,0.0087,93806,130713433,796876465,81730,0,0,0,0,0,0,156
1,270,32,A,27.7784,96.8702,27.66,99691,136.9349,94356,-0.0249,-0.041,-3.1204,0.0042,0.0023,0.0002,94306,-0.6191,1.1727,-0.153,0.0111,-0.0082,0.0095,94306,130713434,796876465,81730,1,0,0,0,0,0,153
0.8,260,32,A,27.7451,96.8642,27.65,99690,137.0193,94481,-0.025,-0.041,-3.1204,0.0019,0.0004,0.0001,94306,-0.6191,1.1727,-0.153,0.0111,-0.0082,0.0095,94306,130713434,796876465,81730,1,0,0,0,0,0,153
0.8,260,32,A,27.7617,96.8544,27.65,99693,136.7662,94666,-0.025,-0.0409,-3.1203,-0.0005,0.0004,-0.0006,94306,-0.6191,1.1727,-0.153,0.0111,-0.0082,0.0095,94306,130713434,796876465,81730,1,0,0,0,0,0,153
0.8,260,32,A,27.7628,96.8453,27.65,99692,136.8506,94791,-0.0251,-0.0409,-3.1203,-0.0025,-0.001,-0.0012,94306,-0.6191,1.1727,-0.153,0.0111,-0.0082,0.0095,94306,130713434,796876465,81730,1,0,0,0,0,0,153
0.8,260,32,A,27.7754,96.8654,27.66,99691,136.9349,94916,-0.0252,-0.0409,-3.1203,-0.0042,-0.0013,-0.0008,94306,-0.6191,1.1727,-0.153,0.0111,-0.0082,0.0095,94306,130713434,796876465,81730,1,0,0,0,0,0,153
0.6,255,31.9,A,27.7678,96.8425,27.66,99692,136.8506,95038,-0.0252,-0.0409,-3.1204,-0.0049,-0.0011,-0.0008,94306,-0.6191,1.1727,-0.153,0.0111,-0.0082,0.0095,94306,130713434,796876465,81730,1,0,0,0,0,0,153
0.6,255,31.9,A,27.7771,96.8476,27.66,99691,136.9349,95164,-0.0252,-0.0409,-3.1205,-0.0038,-0.0015,-0.0012,94306,-0.6191,1.1727,-0.153,0.0111,-0.0082,0.0095,94306,130713434,796876465,81730,1,0,0,0,0,0,153
0.9,267,31.9,A,27.7729,96.8536,27.64,99692,136.8506,95164,-0.0252,-0.0409,-3.1205,-0.0038,-0.0015,-0.0012,94306,-0.6191,1.1727,-0.153,0.0111,-0.0082,0.0095,94306,130713434,796876465,81730,1,0,0,0,0,0,153
0.9,267,31.9,A,27.7512,96.8452,27.65,99688,137.188,95411,-0.0251,-0.041,-3.1208,-0.0013,-0.0006,-0.0002,94306,-0.6191,1.1727,-0.153,0.0111,-0.0082,0.0095,94306,130713434,796876465,81730,1,0,0,0,0,0,153
0.8,264,31.9,A,27.7624,96.8596,27.65,99689,137.1037,95411,-0.0251,-0.041,-3.1208,-0.0013,-0.0006,-0.0002,94306,-0.6191,1.1727,-0.153,0.0111,-0.0082,0.0095,94306,130713434,796876465,81730,1,0,0,0,0,0,153
0.8,264,31.9,A,27.7719,96.865,27.66,99694,136.6819,95721,-0.025,-0.0409,-3.1209,0.0033,0.0011,0.0006,94306,-0.6191,1.1727,-0.153,0.0111,-0.0082,0.0095,94306,130713434,796876465,81730,1,0,0,0,0,0,153
0.8,264,31.9,A,27.7691,96.8542,27.65,99692,136.8506,95721,-0.025,-0.0409,-3.1209,0.0033,0.0011,0.0006,94306,-0.6191,1.1727,-0.153,0.0111,-0.0082,0.0095,94306,130713434,796876465,81730,1,0,0,0,0,0,153
0.8,264,31.9,A,27.7763,96.8345,27.66,99691,136.9349,95969,-0.0249,-0.0409,-3.1208,0.0049,0.002,0.0001,94306,-0.6191,1.1727,-0.153,0.0111,-0.0082,0.0095,94306,130713434,796876465,81730,1,0,0,0,0,0,153
0.5,277,0,A,27.7746,96.8472,27.66,99692,136.8506,96031,-0.0249,-0.0409,-3.1209,0.0048,0.0021,0.0008,94306,-0.6191,1.1727,-0.153,0.0111,-0.0082,0.0095,94306,130713434,796876465,81730,1,0,0,0,0,0,153
0.5,277,0,A,27.7803,96.8426,27.66,99692,136.8506,96154,-0.0249,-0.041,-3.121,0.0042,0.0015,0.0005,94306,-0.6191,1.1727,-0.153,0.0111,-0.0082,0.0095,94306,130713434,796876465,81730,1,0,0,0,0,0,153
0.9,265,0,A,27.7758,96.8258,27.65,99690,137.0193,96278,-0.0249,-0.041,-3.1212,0.0025,0.001,-0.0007,94306,-0.6191,1.1727,-0.153,0.0111,-0.0082,0.0095,94306,130713434,796876465,81730,1,0,0,0,0,0,153
0.9,265,0,A,27.7552,96.8356,27.65,99690,137.0193,96404,-0.0249,-0.041,-3.1213,-0.0004,-0.0001,-0.0005,94306,-0.6191,1.1727,-0.153,0.0111,-0.0082,0.0095,94306,130713434,796876465,81730,1,0,0,0,0,0,153
0.8,260,31.8,A,27.7613,96.8382,27.65,99690,137.0193,96589,-0.0249,-0.0411,-3.1214,-0.0029,-0.001,-0.0003,94306,-0.6191,1.1727,-0.153,0.0111,-0.0082,0.0095,94306,130713434,796876465,81730,1,0,0,0,0,0,153
0.8,260,31.8,A,27.7708,96.8527,27.66,99690,137.0193,96714,-0.0249,-0.0411,-3.1213,-0.0044,-0.0013,-0.0005,94306,-0.6191,1.1727,-0.153,0.0111,-0.0082,0.0095,94306,130713434,796876465,81730,1,0,0,0,0,0,153
0.9,265,31.8,A,27.7685,96.8442,27.64,99691,136.9349,96714,-0.0249,-0.0411,-3.1213,-0.0044,-0.0013,-0.0005,94306,-0.6191,1.1727,-0.153,0.0111,-0.0082,0.0095,96806,130713438,796876463,81730,1,-1,1,0,0,0,157
0.9,265,31.8,A,27.779,96.8412,27.66,99695,136.5975,96961,-0.025,-0.0412,-3.1213,-0.0044,-0.0018,-0.0007,94306,-0.6191,1.1727,-0.153,0.0111,-0.0082,0.0095,96806,130713438,796876463,81730,1,-1,1,0,0,0,157
0.9,249,31.8,A,27.774,96.8485,27.65,99693,136.7662,97084,-0.025,-0.0412,-3.1214,-0.0032,-0.0018,-0.0013,94306,-0.6191,1.1727,-0.153,0.0111,-0.0082,0.0095,96806,130713438,796876463,81730,1,-1,1,0,0,0,157
0.9,249,31.8,A,27.7792,96.8446,27.66,99692,136.8506,97209,-0.025,-0.0412,-3.1214,-0.0019,-0.0003,0.0001,94306,-0.6191,1.1727,-0.153,0.0111,-0.0082,0.0095,96806,130713438,796876463,81730,1,-1,1,0,0,0,157
0.9,249,31.8,A,27.78,96.8473,27.64,99686,137.3567,97209,-0.025,-0.0412,-3.1214,-0.0019,-0.0003,0.0001,94306,-0.6191,1.1727,-0.153,0.0111,-0.0082,0.0095,97306,130713438,796876463,81740,1,0,1,0,0,0,163
0.9,249,31.8,A,27.7576,96.8452,27.65,99694,136.6819,97457,-0.025,-0.0413,-3.1217,0.003,-0.0002,-0.0003,94306,-0.6191,1.1727,-0.153,0.0111,-0.0082,0.0095,97306,130713438,796876463,81740,1,0,1,0,0,0,163
0.7,261,31.8,A,27.7676,96.8312,27.65,99689,137.1037,97457,-0.025,-0.0413,-3.1217,0.003,-0.0002,-0.0003,94306,-0.6191,1.1727,-0.153,0.0111,-0.0082,0.0095,97306,130713438,796876463,81740,1,0,1,0,0,0,163
0.7,261,31.8,A,27.776,96.8312,27.65,99694,136.6819,97766,-0.025,-0.0413,-3.1221,0.0048,0.0013,0.0004,94306,-0.6191,1.1727,-0.153,0.0111,-0.0082,0.0095,97306,130713438,796876463,81740,1,0,1,0,0,0,163
0.7,253,0,A,27.7716,96.8438,27.65,99690,137.0193,97829,-0.025,-0.0413,-3.1221,0.0044,0.001,0.0007,97806,-0.5611,1.1563,-0.1609,0.0183,-0.008,0.0136,97806,130713439,796876463,81740,1,0,1,0,0,0,160
0.7,253,0,A,27.7781,96.8325,27.65,99690,137.0193,98014,-0.025,-0.0413,-3.1224,0.0036,0.0011,-0.0005,97806,-0.5611,1.1563,-0.1609,0.0183,-0.008,0.0136,97806,130713439,796876463,81740,1,0,1,0,0,0,160
0.7,253,0,A,27.776,96.8328,27.65,99687,137.2724,98076,-0.025,-0.0413,-3.1225,0.002,0.001,0.0003,97806,-0.5611,1.1563,-0.1609,0.0183,-0.008,0.0136,97806,130713439,796876463,81740,1,0,1,0,0,0,160
0.7,253,0,A,27.7849,96.8342,27.66,99687,137.2724,98201,-0.025,-0.0414,-3.1228,-0.0005,0.0008,0.0005,97806,-0.5611,1.1563,-0.1609,0.0183,-0.008,0.0136,97806,130713439,796876463,81740,1,0,1,0,0,0,160
0.7,253,0,A,27.7866,96.8362,27.65,99690,137.0193,98324,-0.025,-0.0414,-3.123,-0.0021,-0.0003,-0.0006,98306,-0.5546,1.154,-0.1511,0.0184,-0.0091,0.015,98306,130713440,796876463,81730,1,0,1,0,0,0,151
0.7,253,0,A,27.7531,96.8118,27.63,99690,137.0193,98450,-0.025,-0.0413,-3.1232,-0.0039,-0.0007,-0.0008,98306,-0.5546,1.154,-0.1511,0.0184,-0.0091,0.015,98306,130713440,796876463,81730,1,0,1,0,0,0,151
0.7,252,0,A,27.7639,96.8254,27.65,99691,136.9349,98696,-0.0249,-0.0414,-3.1232,-0.0049,-0.0022,-0.001,98306,-0.5546,1.154,-0.1511,0.0184,-0.0091,0.015,98306,130713440,796876463,81730,1,0,1,0,0,0,151
0.7,252,0,A,27.7702,96.8247,27.63,99694,136.6819,98759,-0.0249,-0.0414,-3.1232,-0.0042,-0.0012,-0.0008,98306,-0.5546,1.154,-0.1511,0.0184,-0.0091,0.015,98306,130713440,796876463,81730,1,0,1,0,0,0,151
0,265,31.9,,27.7725,96.8241,27.64,99691,136.9349,98884,-0.0249,-0.0415,-3.1233,-0.0031,-0.0005,-0.0006,98306,-0.5546,1.154,-0.1511,0.0184,-0.0091,0.015,98306,130713440,796876463,81730,1,0,1,0,0,0,151
0,265,31.9,,27.7809,96.8315,27.65,99689,137.1037,99006,-0.0249,-0.0415,-3.1235,-0.0009,-0.0008,-0.001,98306,-0.5546,1.154,-0.1511,0.0184,-0.0091,0.015,98306,130713440,796876463,81730,1,0,1,0,0,0,151
0,265,31.9,,27.7767,96.8109,27.65,99692,136.8506,99131,-0.0249,-0.0415,-3.1236,0.0014,0.0008,-0.0008,98306,-0.5546,1.154,-0.1511,0.0184,-0.0091,0.015,98306,130713440,796876463,81730,1,0,1,0,0,0,151
0,265,31.9,,27.7822,96.7963,27.64,99687,137.2724,99131,-0.0249,-0.0415,-3.1236,0.0014,0.0008,-0.0008,98306,-0.5546,1.154,-0.1511,0.0184,-0.0091,0.015,98306,130713440,796876463,81730,1,0,1,0,0,0,151
0,265,31.9,,27.7792,96.8213,27.64,99690,137.0193,99316,-0.0249,-0.0415,-3.1234,0.0031,0.0011,0.0011,99306,-0.5552,1.1349,-0.1329,0.0094,-0.0148,0.0164,98306,130713440,796876463,81730,1,0,1,0,0,0,151
0,265,31.9,,27.7559,96.7972,27.64,99690,137.0193,99504,-0.0249,-0.0416,-3.1235,0.0043,0.0015,0.0009,99306,-0.5552,1.1349,-0.1329,0.0094,-0.0148,0.0164,98306,130713440,796876463,81730,1,0,1,0,0,0,151
0,265,31.9,,27.7657,96.8085,27.63,99692,136.8506,99688,-0.0249,-0.0416,-3.1235,0.0037,0.0017,0,99306,-0.5552,1.1349,-0.1329,0.0094,-0.0148,0.0164,98306,130713440,796876463,81730,1,0,1,0,0,0,151
0,265,31.9,,27.7758,96.8061,27.63,99691,136.9349,99688,-0.0249,-0.0416,-3.1235,0.0037,0.0017,0,99306,-0.5552,1.1349,-0.1329,0.0094,-0.0148,0.0164,98306,130713440,796876463,81730,1,0,1,0,0,0,151
0.4,259,0,A,27.7746,96.8184,27.64,99695,136.5975,99874,-0.025,-0.0416,-3.1233,0.002,0.0006,-0.0003,99306,-0.5552,1.1349,-0.1329,0.0094,-0.0148,0.0164,98306,130713440,796876463,81730,1,0,1,0,0,0,151
0.4,259,0,A,27.7822,96.8039,27.65,99691,136.9349,99874,-0.025,-0.0416,-3.1233,0.002,0.0006,-0.0003,99306,-0.5552,1.1349,-0.1329,0.0094,-0.0148,0.0164,98306,130713440,796876463,81730,1,0,1,0,0,0,151
0.4,259,0,A,27.7821,96.8052,27.65,99689,137.1037,100124,-0.025,-0.0417,-3.1232,-0.003,-0.0009,-0.0005,99306,-0.5552,1.1349,-0.1329,0.0094,-0.0148,0.0164,98306,130713440,796876463,81730,1,0,1,0,0,0,151
0.4,259,0,A,27.7863,96.7975,27.65,99688,137.188,100309,-0.0251,-0.0418,-3.123,-0.0049,-0.0015,-0.0006,100306,-0.5696,1.1281,-0.1444,-0.002,-0.0123,0.013,98306,130713440,796876463,81730,1,0,1,0,0,0,151
0.4,273,32,C,27.7822,96.7889,27.65,99691,136.9349,100371,-0.0252,-0.0418,-3.123,-0.0054,-0.0014,-0.0012,100306,-0.5696,1.1281,-0.1444,-0.002,-0.0123,0.013,98306,130713440,796876463,81730,1,0,1,0,0,0,151
0.4,273,32,C,27.7569,96.7958,27.63,99693,136.7662,100494,-0.0252,-0.0418,-3.123,-0.005,-0.0008,-0.0011,100306,-0.5696,1.1281,-0.1444,-0.002,-0.0123,0.013,98306,130713440,796876463,81730,1,0,1,0,0,0,151
0.2,264,32,A,27.7657,96.7748,27.63,99691,136.9349,100681,-0.0252,-0.0418,-3.1228,-0.0024,-0.0008,-0.0003,100306,-0.5696,1.1281,-0.1444,-0.002,-0.0123,0.013,98306,130713440,796876463,81730,1,0,1,0,0,0,151
