Timestamp,Wind speed,Wind angle,Acoustic temperature windsensor,Temperature validity,Temperature_aht10,Relative humidity_aht10,Temperature_ms5611,Pressure_ms5611,Absolute_altitude_ms5611,Roll,Pitch,Yaw,Roll speed,Pitch speed,Yaw speed,x,y,z,vx,vy,vz,pix_lat,pix_lon,pix_alt,pix_gps_vx,pix_gps_vy,pix_gps_vz,latitude,longitude,altitude_gps,Pixel_0,Pixel_1,Pixel_2,Pixel_3,Pixel_4,Pixel_5,Pixel_6,Pixel_7,Pixel_8,Pixel_9,Pixel_10,Pixel_11,Pixel_12,Pixel_13,Pixel_14,Pixel_15,Pixel_16,Pixel_17,Pixel_18,Pixel_19,Pixel_20,Pixel_21,Pixel_22,Pixel_23,Pixel_24,Pixel_25,Pixel_26,Pixel_27,Pixel_28,Pixel_29,Pixel_30,Pixel_31,Pixel_32,Pixel_33,Pixel_34,Pixel_35,Pixel_36,Pixel_37,Pixel_38,Pixel_39,Pixel_40,Pixel_41,Pixel_42,Pixel_43,Pixel_44,Pixel_45,Pixel_46,Pixel_47,Pixel_48,Pixel_49,Pixel_50,Pixel_51,Pixel_52,Pixel_53,Pixel_54,Pixel_55,Pixel_56,Pixel_57,Pixel_58,Pixel_59,Pixel_60,Pixel_61,Pixel_62,Pixel_63,Pixel_64,Pixel_65,Pixel_66,Pixel_67,Pixel_68,Pixel_69,Pixel_70,Pixel_71,Pixel_72,Pixel_73,Pixel_74,Pixel_75,Pixel_76,Pixel_77,Pixel_78,Pixel_79,Pixel_80,Pixel_81,Pixel_82,Pixel_83,Pixel_84,Pixel_85,Pixel_86,Pixel_87,Pixel_88,Pixel_89,Pixel_90,Pixel_91,Pixel_92,Pixel_93,Pixel_94,Pixel_95,Pixel_96,Pixel_97,Pixel_98,Pixel_99,Pixel_100,Pixel_101,Pixel_102,Pixel_103,Pixel_104,Pixel_105,Pixel_106,Pixel_107,Pixel_108,Pixel_109,Pixel_110,Pixel_111,Pixel_112,Pixel_113,Pixel_114,Pixel_115,Pixel_116,Pixel_117,Pixel_118,Pixel_119,Pixel_120,Pixel_121,Pixel_122,Pixel_123,Pixel_124,Pixel_125,Pixel_126,Pixel_127,Pixel_128,Pixel_129,Pixel_130,Pixel_131,Pixel_132,Pixel_133,Pixel_134,Pixel_135,Pixel_136,Pixel_137,Pixel_138,Pixel_139,Pixel_140,Pixel_141,Pixel_142,Pixel_143,Pixel_144,Pixel_145,Pixel_146,Pixel_147,Pixel_148,Pixel_149,Pixel_150,Pixel_151,Pixel_152,Pixel_153,Pixel_154,Pixel_155,Pixel_156,Pixel_157,Pixel_158,Pixel_159,Pixel_160,Pixel_161,Pixel_162,Pixel_163,Pixel_164,Pixel_165,Pixel_166,Pixel_167,Pixel_168,Pixel_169,Pixel_170,Pixel_171,Pixel_172,Pixel_173,Pixel_174,Pixel_175,Pixel_176,Pixel_177,Pixel_178,Pixel_179,Pixel_180,Pixel_181,Pixel_182,Pixel_183,Pixel_184,Pixel_185,Pixel_186,Pixel_187,Pixel_188,Pixel_189,Pixel_190,Pixel_191,Pixel_192,Pixel_193,Pixel_194,Pixel_195,Pixel_196,Pixel_197,Pixel_198,Pixel_199,Pixel_200,Pixel_201,Pixel_202,Pixel_203,Pixel_204,Pixel_205,Pixel_206,Pixel_207,Pixel_208,Pixel_209,Pixel_210,Pixel_211,Pixel_212,Pixel_213,Pixel_214,Pixel_215,Pixel_216,Pixel_217,Pixel_218,Pixel_219,Pixel_220,Pixel_221,Pixel_222,Pixel_223,Pixel_224,Pixel_225,Pixel_226,Pixel_227,Pixel_228,Pixel_229,Pixel_230,Pixel_231,Pixel_232,Pixel_233,Pixel_234,Pixel_235,Pixel_236,Pixel_237,Pixel_238,Pixel_239,Pixel_240,Pixel_241,Pixel_242,Pixel_243,Pixel_244,Pixel_245,Pixel_246,Pixel_247,Pixel_248,Pixel_249,Pixel_250,Pixel_251,Pixel_252,Pixel_253,Pixel_254,Pixel_255,Pixel_256,Pixel_257,Pixel_258,Pixel_259,Pixel_260,Pixel_261,Pixel_262,Pixel_263,Pixel_264,Pixel_265,Pixel_266,Pixel_267,Pixel_268,Pixel_269,Pixel_270,Pixel_271,Pixel_272,Pixel_273,Pixel_274,Pixel_275,Pixel_276,Pixel_277,Pixel_278,Pixel_279,Pixel_280,Pixel_281,Pixel_282,Pixel_283,Pixel_284,Pixel_285,Pixel_286,Pixel_287,Pixel_288,Pixel_289,Pixel_290,Pixel_291,Pixel_292,Pixel_293,Pixel_294,Pixel_295,Pixel_296,Pixel_297,Pixel_298,Pixel_299,Pixel_300,Pixel_301,Pixel_302,Pixel_303,Pixel_304,Pixel_305,Pixel_306,Pixel_307,Pixel_308,Pixel_309,Pixel_310,Pixel_311,Pixel_312,Pixel_313,Pixel_314,Pixel_315,Pixel_316,Pixel_317,Pixel_318,Pixel_319,Pixel_320,Pixel_321,Pixel_322,Pixel_323,Pixel_324,Pixel_325,Pixel_326,Pixel_327,Pixel_328,Pixel_329,Pixel_330,Pixel_331,Pixel_332,Pixel_333,Pixel_334,Pixel_335,Pixel_336,Pixel_337,Pixel_338,Pixel_339,Pixel_340,Pixel_341,Pixel_342,Pixel_343,Pixel_344,Pixel_345,Pixel_346,Pixel_347,Pixel_348,Pixel_349,Pixel_350,Pixel_351,Pixel_352,Pixel_353,Pixel_354,Pixel_355,Pixel_356,Pixel_357,Pixel_358,Pixel_359,Pixel_360,Pixel_361,Pixel_362,Pixel_363,Pixel_364,Pixel_365,Pixel_366,Pixel_367,Pixel_368,Pixel_369,Pixel_370,Pixel_371,Pixel_372,Pixel_373,Pixel_374,Pixel_375,Pixel_376,Pixel_377,Pixel_378,Pixel_379,Pixel_380,Pixel_381,Pixel_382,Pixel_383,Pixel_384,Pixel_385,Pixel_386,Pixel_387,Pixel_388,Pixel_389,Pixel_390,Pixel_391,Pixel_392,Pixel_393,Pixel_394,Pixel_395,Pixel_396,Pixel_397,Pixel_398,Pixel_399,Pixel_400,Pixel_401,Pixel_402,Pixel_403,Pixel_404,Pixel_405,Pixel_406,Pixel_407,Pixel_408,Pixel_409,Pixel_410,Pixel_411,Pixel_412,Pixel_413,Pixel_414,Pixel_415,Pixel_416,Pixel_417,Pixel_418,Pixel_419,Pixel_420,Pixel_421,Pixel_422,Pixel_423,Pixel_424,Pixel_425,Pixel_426,Pixel_427,Pixel_428,Pixel_429,Pixel_430,Pixel_431,Pixel_432,Pixel_433,Pixel_434,Pixel_435,Pixel_436,Pixel_437,Pixel_438,Pixel_439,Pixel_440,Pixel_441,Pixel_442,Pixel_443,Pixel_444,Pixel_445,Pixel_446,Pixel_447,Pixel_448,Pixel_449,Pixel_450,Pixel_451,Pixel_452,Pixel_453,Pixel_454,Pixel_455,Pixel_456,Pixel_457,Pixel_458,Pixel_459,Pixel_460,Pixel_461,Pixel_462,Pixel_463,Pixel_464,Pixel_465,Pixel_466,Pixel_467,Pixel_468,Pixel_469,Pixel_470,Pixel_471,Pixel_472,Pixel_473,Pixel_474,Pixel_475,Pixel_476,Pixel_477,Pixel_478,Pixel_479,Pixel_480,Pixel_481,Pixel_482,Pixel_483,Pixel_484,Pixel_485,Pixel_486,Pixel_487,Pixel_488,Pixel_489,Pixel_490,Pixel_491,Pixel_492,Pixel_493,Pixel_494,Pixel_495,Pixel_496,Pixel_497,Pixel_498,Pixel_499,Pixel_500,Pixel_501,Pixel_502,Pixel_503,Pixel_504,Pixel_505,Pixel_506,Pixel_507,Pixel_508,Pixel_509,Pixel_510,Pixel_511,Pixel_512,Pixel_513,Pixel_514,Pixel_515,Pixel_516,Pixel_517,Pixel_518,Pixel_519,Pixel_520,Pixel_521,Pixel_522,Pixel_523,Pixel_524,Pixel_525,Pixel_526,Pixel_527,Pixel_528,Pixel_529,Pixel_530,Pixel_531,Pixel_532,Pixel_533,Pixel_534,Pixel_535,Pixel_536,Pixel_537,Pixel_538,Pixel_539,Pixel_540,Pixel_541,Pixel_542,Pixel_543,Pixel_544,Pixel_545,Pixel_546,Pixel_547,Pixel_548,Pixel_549,Pixel_550,Pixel_551,Pixel_552,Pixel_553,Pixel_554,Pixel_555,Pixel_556,Pixel_557,Pixel_558,Pixel_559,Pixel_560,Pixel_561,Pixel_562,Pixel_563,Pixel_564,Pixel_565,Pixel_566,Pixel_567,Pixel_568,Pixel_569,Pixel_570,Pixel_571,Pixel_572,Pixel_573,Pixel_574,Pixel_575,Pixel_576,Pixel_577,Pixel_578,Pixel_579,Pixel_580,Pixel_581,Pixel_582,Pixel_583,Pixel_584,Pixel_585,Pixel_586,Pixel_587,Pixel_588,Pixel_589,Pixel_590,Pixel_591,Pixel_592,Pixel_593,Pixel_594,Pixel_595,Pixel_596,Pixel_597,Pixel_598,Pixel_599,Pixel_600,Pixel_601,Pixel_602,Pixel_603,Pixel_604,Pixel_605,Pixel_606,Pixel_607,Pixel_608,Pixel_609,Pixel_610,Pixel_611,Pixel_612,Pixel_613,Pixel_614,Pixel_615,Pixel_616,Pixel_617,Pixel_618,Pixel_619,Pixel_620,Pixel_621,Pixel_622,Pixel_623,Pixel_624,Pixel_625,Pixel_626,Pixel_627,Pixel_628,Pixel_629,Pixel_630,Pixel_631,Pixel_632,Pixel_633,Pixel_634,Pixel_635,Pixel_636,Pixel_637,Pixel_638,Pixel_639,Pixel_640,Pixel_641,Pixel_642,Pixel_643,Pixel_644,Pixel_645,Pixel_646,Pixel_647,Pixel_648,Pixel_649,Pixel_650,Pixel_651,Pixel_652,Pixel_653,Pixel_654,Pixel_655,Pixel_656,Pixel_657,Pixel_658,Pixel_659,Pixel_660,Pixel_661,Pixel_662,Pixel_663,Pixel_664,Pixel_665,Pixel_666,Pixel_667,Pixel_668,Pixel_669,Pixel_670,Pixel_671,Pixel_672,Pixel_673,Pixel_674,Pixel_675,Pixel_676,Pixel_677,Pixel_678,Pixel_679,Pixel_680,Pixel_681,Pixel_682,Pixel_683,Pixel_684,Pixel_685,Pixel_686,Pixel_687,Pixel_688,Pixel_689,Pixel_690,Pixel_691,Pixel_692,Pixel_693,Pixel_694,Pixel_695,Pixel_696,Pixel_697,Pixel_698,Pixel_699,Pixel_700,Pixel_701,Pixel_702,Pixel_703,Pixel_704,Pixel_705,Pixel_706,Pixel_707,Pixel_708,Pixel_709,Pixel_710,Pixel_711,Pixel_712,Pixel_713,Pixel_714,Pixel_715,Pixel_716,Pixel_717,Pixel_718,Pixel_719,Pixel_720,Pixel_721,Pixel_722,Pixel_723,Pixel_724,Pixel_725,Pixel_726,Pixel_727,Pixel_728,Pixel_729,Pixel_730,Pixel_731,Pixel_732,Pixel_733,Pixel_734,Pixel_735,Pixel_736,Pixel_737,Pixel_738,Pixel_739,Pixel_740,Pixel_741,Pixel_742,Pixel_743,Pixel_744,Pixel_745,Pixel_746,Pixel_747,Pixel_748,Pixel_749,Pixel_750,Pixel_751,Pixel_752,Pixel_753,Pixel_754,Pixel_755,Pixel_756,Pixel_757,Pixel_758,Pixel_759,Pixel_760,Pixel_761,Pixel_762,Pixel_763,Pixel_764,Pixel_765,Pixel_766,Pixel_767,
22:6:8:8:48:54:498,0.0000,0.0000,0.0000,,31.4707,67.5937,31.1300,100498,69.0802,0.0000,0.0000,0.0000,0.0000,0.0000,0.0000,0.0000,0.0000,0.0000,0.0000,0.0000,0.0000,0,0,0,0,0,0,0.0000000,0.0000000,0.0000000,
22:6:8:8:48:54:601,0.0000,0.0000,0.0000,,31.5184,67.5948,31.1500,100495,69.3316,0.0000,0.0000,0.0000,0.0000,0.0000,0.0000,0.0000,0.0000,0.0000,0.0000,0.0000,0.0000,0,0,0,0,0,0,0.0000000,0.0000000,0.0000000,
22:6:8:8:48:54:720,0.0000,0.0000,0.0000,,31.5462,67.6317,31.1600,100499,68.9964,0.0000,0.0000,0.0000,0.0000,0.0000,0.0000,0.0000,0.0000,0.0000,0.0000,0.0000,0.0000,0,0,0,0,0,0,0.0000000,0.0000000,0.0000000,
22:6:8:8:48:54:823,0.0000,0.0000,0.0000,,31.5739,67.6297,31.1700,100496,69.2478,0.0000,0.0000,0.0000,0.0000,0.0000,0.0000,0.0000,0.0000,0.0000,0.0000,0.0000,0.0000,0,0,0,0,0,0,0.0000000,0.0000000,0.0000000,
22:6:8:8:48:54:938,0.0000,0.0000,0.0000,,31.5847,67.6373,31.1700,100497,69.1640,0.0000,0.0000,0.0000,0.0000,0.0000,0.0000,0.0000,0.0000,0.0000,0.0000,0.0000,0.0000,0,0,0,0,0,0,0.0000000,0.0000000,0.0000000,
22:6:8:8:48:55:44,0.0000,0.0000,0.0000,,31.6013,67.6342,31.1800,100499,68.9964,0.0000,0.0000,0.0000,0.0000,0.0000,0.0000,0.0000,0.0000,0.0000,0.0000,0.0000,0.0000,0,0,0,0,0,0,0.0000000,0.0000000,0.0000000,
22:6:8:8:48:55:159,0.0000,0.0000,0.0000,,31.6130,67.6657,31.1800,100497,69.1640,0.0000,0.0000,0.0000,0.0000,0.0000,0.0000,0.0000,0.0000,0.0000,0.0000,0.0000,0.0000,0,0,0,0,0,0,0.0000000,0.0000000,0.0000000,
22:6:8:8:48:55:265,0.0000,0.0000,0.0000,,31.6233,67.6808,31.1800,100499,68.9964,0.0000,0.0000,0.0000,0.0000,0.0000,0.0000,0.0000,0.0000,0.0000,0.0000,0.0000,0.0000,0,0,0,0,0,0,0.0000000,0.0000000,0.0000000,
22:6:8:8:48:55:380,0.0000,0.0000,0.0000,,31.6267,67.6662,31.1800,100502,68.7450,0.0000,0.0000,0.0000,0.0000,0.0000,0.0000,0.0000,0.0000,0.0000,0.0000,0.0000,0.0000,0,0,0,0,0,0,0.0000000,0.0000000,0.0000000,
22:6:8:8:48:55:483,0.0000,0.0000,0.0000,,31.6395,67.6679,31.1900,100499,68.9964,0.0000,0.0000,0.0000,0.0000,0.0000,0.0000,0.0000,0.0000,0.0000,0.0000,0.0000,0.0000,0,0,0,0,0,0,0.0000000,0.0000000,0.0000000,
22:6:8:8:48:55:602,0.0000,0.0000,0.0000,,31.6378,67.6841,31.1900,100498,69.0802,0.0000,0.0000,0.0000,0.0000,0.0000,0.0000,0.0000,0.0000,0.0000,0.0000,0.0000,0.0000,0,0,0,0,0,0,0.0000000,0.0000000,0.0000000,529.6102,29.0968,535.6193,29.4591,537.6519,29.1864,540.0604,29.9331,541.3918,30.0128,541.9023,29.9119,541.1643,29.7434,543.9255,30.3362,541.9612,29.6078,541.7385,30.1472,540.8137,29.7702,539.7491,30.0981,537.6769,29.6081,536.0056,29.5234,530.9561,29.2268,528.0830,29.4722,29.2861,535.8174,29.6956,538.0268,29.6436,539.7384,29.9091,541.2693,29.7638,541.9182,30.1930,542.7661,30.0258,541.1718,30.0822,541.5160,29.8487,542.1704,29.6940,541.6452,30.0053,538.8286,29.6261,537.5776,29.7379,535.3979,29.6584,532.9326,29.5243,529.4171,29.4371,523.5078,531.5010,29.5295,537.4470,29.4245,537.8663,29.7417,542.8536,29.6968,542.5523,30.1353,544.3936,30.0187,542.3998,29.6585,542.5280,30.0613,543.3925,29.7425,542.9752,29.8879,541.7288,29.7011,539.8760,29.8628,539.4108,29.9712,535.9730,29.7224,533.3647,29.8788,530.7088,29.8398,29.4159,536.9134,29.3746,539.7396,29.5227,541.5319,29.7892,542.5381,29.8677,543.1608,29.9254,543.8093,29.7892,543.9610,30.1713,542.3253,30.0926,541.8295,30.3047,541.6927,30.1265,540.3391,30.1107,539.3936,29.6305,537.3170,29.9777,535.1483,29.8543,532.0787,29.5658,526.1188,534.4961,29.4708,538.4323,29.7564,540.0975,29.8624,542.3073,29.9284,543.5988,30.1794,543.9339,30.0372,543.8760,30.0706,544.3708,30.1042,543.4185,30.2783,544.1457,29.7772,542.8869,29.7481,541.0610,29.7137,539.6629,29.6844,537.2993,30.0648,534.6094,29.5274,532.2350,29.9275,29.5364,536.4834,29.4317,540.5306,29.6050,542.0458,29.7308,543.2865,30.0739,543.9189,30.3310,543.0989,30.1828,542.9390,30.2330,543.1414,30.1533,542.7324,30.0382,542.2358,30.1512,541.0469,30.0138,540.3741,30.0946,538.3474,29.8663,536.2576,30.0177,533.1831,29.6332,527.6709,534.7535,29.4979,539.5342,30.1940,540.0986,29.7762,543.3002,30.3441,542.9747,29.7369,544.4591,30.1229,543.6029,29.9663,544.9026,30.2799,544.8000,30.1248,544.3351,30.4763,543.1013,29.8124,541.4091,30.3110,540.4233,29.9023,538.4493,29.9028,536.8453,29.4419,532.0324,29.7605,29.4637,538.5862,29.6343,539.5775,29.8737,542.5491,29.9763,542.3213,29.8505,542.6981,29.9121,543.4169,29.7481,543.3261,29.7796,543.4325,30.2155,542.7531,30.1053,542.5071,30.2375,541.7120,30.3648,540.7096,29.6976,538.6592,29.9791,537.3304,29.6764,534.2537,29.9586,529.0507,535.0415,29.9405,539.8309,30.0661,540.4173,29.8052,542.0084,30.0581,542.9271,30.0614,544.8144,30.2918,543.8829,30.0096,545.1064,30.5047,544.5256,30.1638,543.4100,29.8681,542.0356,29.7246,541.7192,30.2126,540.3383,29.8306,539.0185,30.0909,535.2475,29.8513,534.5770,29.6368,29.3054,536.9349,29.6611,539.4673,29.8292,541.0760,30.2068,542.2761,30.2258,542.6938,30.1123,543.2513,30.2694,543.0377,30.1505,543.2711,29.9744,542.6703,29.9398,542.4080,30.4216,541.3940,30.1129,540.4910,29.8699,539.1152,29.8086,537.4556,30.1087,534.6709,29.5999,530.0261,534.7794,29.5558,539.9380,29.9427,541.1317,29.2620,541.8127,30.2150,543.6192,29.7971,544.1178,30.4905,544.3588,30.1576,543.0602,30.1737,543.5818,30.2099,543.1397,30.3816,542.1474,29.8736,541.5787,29.8325,540.2502,30.1904,538.4846,30.1731,536.5840,30.1002,534.0696,29.6593,29.5794,536.5703,29.7351,539.4526,30.0118,540.8074,30.0652,541.7136,30.2359,542.0864,29.9777,542.7573,29.9676,542.9203,30.3452,543.0338,29.8327,542.4541,30.1650,542.2919,29.9560,541.3289,29.9417,540.5609,29.9043,538.6194,30.2349,537.0546,29.9800,534.6559,29.8858,529.5205,531.9366,29.1660,537.1567,29.9198,539.8019,30.0265,540.9310,29.7508,542.0795,29.9574,542.2936,30.4791,542.7897,29.8777,542.7775,30.0408,543.5375,30.1040,542.4151,30.0891,542.2534,29.9230,541.0592,29.8784,539.7147,30.0454,538.1841,29.9866,536.4231,29.9688,532.2086,29.8908,29.8392,535.2736,29.7811,538.5013,29.8278,540.0286,30.1001,541.2648,29.9599,541.4399,30.4813,542.2955,30.0305,542.2453,30.2150,542.2596,30.1713,541.8852,30.3395,541.4330,30.1571,540.8317,30.1475,539.6114,30.2437,538.1557,29.9203,536.7679,29.8347,534.0663,29.9381,529.1458,532.2026,29.6707,535.7567,29.9428,537.9002,29.8847,539.8099,30.0902,539.8881,30.1725,541.2615,30.0734,541.4731,30.0465,541.9357,30.0627,542.9937,30.2276,541.4558,30.4249,541.6295,29.8003,540.2256,30.2309,538.6609,30.0158,537.0425,30.1842,534.9121,29.7775,533.1055,29.8825,29.4793,533.9702,29.6433,536.8591,29.9183,538.5585,30.1463,539.8124,29.9743,540.4452,30.2092,541.2667,30.2283,541.4097,30.2474,541.0731,30.2190,540.8175,30.3707,540.5793,30.1704,539.7142,30.3465,538.8345,30.1161,537.3228,30.1216,534.2173,30.0431,533.3804,29.9446,527.9483,530.0184,29.7810,532.2953,29.9564,536.7202,30.0405,537.9438,29.9916,540.0239,30.3239,541.1502,30.3645,541.2061,30.2036,541.5433,30.2456,540.5870,29.9016,540.2202,30.2768,539.1846,30.2433,538.7239,29.8932,536.8603,29.8367,535.1551,29.9904,531.8311,29.5444,530.5322,29.6954,29.2702,532.5647,29.4694,535.3037,29.9199,537.1735,29.9950,538.4648,30.1776,538.9456,30.1882,539.3096,29.7703,540.0594,29.9657,539.6793,30.3230,539.5685,30.2259,539.5621,29.9123,538.3180,30.2010,537.5884,29.7998,534.0128,30.2952,533.9542,30.0320,531.6194,29.5597,526.3685,525.0543,29.6423,531.0523,29.9882,533.5229,29.8487,535.9640,30.1390,537.4024,30.0095,538.2330,30.2075,538.7819,29.7874,538.8720,30.5758,539.6689,30.0972,538.4504,30.5612,538.4964,29.9182,537.0076,30.0748,534.9548,29.8429,533.7767,30.1316,531.5539,29.6721,528.3420,30.0344,29.2495,529.4368,30.0309,532.6312,29.5990,534.8079,30.2267,536.2924,29.7403,536.9512,30.2426,538.1250,30.0750,538.3011,30.2377,538.1249,30.2317,537.6689,30.2402,537.3750,30.0569,536.8302,30.3841,535.9877,29.9494,532.2357,30.1539,530.4891,30.0195,529.4308,29.7607,521.6760,520.2872,29.8158,527.4155,30.5309,530.4492,29.8225,533.0729,30.4771,534.7331,29.8065,535.9622,30.3560,536.3274,29.9024,536.4945,30.5685,536.1155,30.2328,536.5496,30.5740,534.5308,29.8867,534.5956,30.0539,534.5367,30.1399,531.3019,30.3019,528.4139,29.8301,525.4106,30.0377,29.3393,526.0400,29.2496,529.4902,29.6513,529.8100,29.8280,533.7422,29.7205,534.5121,29.9544,535.5272,30.2860,535.6674,30.4233,535.9858,30.1928,534.0192,30.1218,535.3025,30.0540,534.3616,30.4089,533.2111,29.6590,529.6616,29.9325,529.4297,30.0228,526.3390,29.9279,518.1308,519.1721,29.7379,523.6103,30.3173,527.8462,29.9617,529.3965,30.0849,531.9601,30.1154,532.2926,30.6820,534.3646,30.0106,533.7071,30.0646,535.7209,29.6932,533.8152,30.7330,532.8523,30.1755,531.9166,30.5125,531.0161,30.1095,526.7015,30.2887,524.3342,29.7788,522.1978,29.7740,28.9775,518.0547,29.5492,520.2050,29.2065,522.8371,29.9335,524.7333,29.9285,526.4890,29.8065,529.3727,29.7756,528.3297,30.5433,530.7111,30.1178,530.7658,30.1993,530.2562,30.1450,529.2665,30.1190,525.7213,29.8294,525.3853,30.0252,522.4039,29.9079,519.9545,30.2718,509.7195,
22:6:8:8:48:55:766,0.0000,0.0000,0.0000,,31.6198,67.6822,31.1800,100496,69.2478,0.0000,0.0000,0.0000,0.0000,0.0000,0.0000,0.0000,0.0000,0.0000,0.0000,0.0000,0.0000,0,0,0,0,0,0,0.0000000,0.0000000,0.0000000,
22:6:8:8:48:55:881,0.0000,0.0000,0.0000,,31.6336,67.6865,31.1800,100496,69.2478,0.0000,0.0000,0.0000,0.0000,0.0000,0.0000,0.0000,0.0000,0.0000,0.0000,0.0000,0.0000,0,0,0,0,0,0,0.0000000,0.0000000,0.0000000,
22:6:8:8:48:55:987,0.0000,0.0000,0.0000,,31.6437,67.6739,31.1900,100497,69.1640,0.0000,0.0000,0.0000,0.0000,0.0000,0.0000,0.0000,0.0000,0.0000,0.0000,0.0000,0.0000,0,0,0,0,0,0,0.0000000,0.0000000,0.0000000,
22:6:8:8:48:56:102,0.0000,0.0000,0.0000,,31.6483,67.6880,31.1900,100497,69.1640,0.0000,0.0000,0.0000,0.0000,0.0000,0.0000,0.0000,0.0000,0.0000,0.0000,0.0000,0.0000,0,0,0,0,0,0,0.0000000,0.0000000,0.0000000,
22:6:8:8:48:56:208,0.0000,0.0000,0.0000,,31.6576,67.6787,31.2000,100499,68.9964,0.0000,0.0000,0.0000,0.0000,0.0000,0.0000,0.0000,0.0000,0.0000,0.0000,0.0000,0.0000,0,0,0,0,0,0,0.0000000,0.0000000,0.0000000,
22:6:8:8:48:56:323,0.0000,0.0000,0.0000,,31.6566,67.6929,31.2000,100499,68.9964,0.0000,0.0000,0.0000,0.0000,0.0000,0.0000,0.0000,0.0000,0.0000,0.0000,0.0000,0.0000,0,0,0,0,0,0,0.0000000,0.0000000,0.0000000,
22:6:8:8:48:56:426,0.0000,0.0000,0.0000,,31.6624,67.6848,31.2000,100495,69.3316,0.0000,0.0000,0.0000,0.0000,0.0000,0.0000,0.0000,0.0000,0.0000,0.0000,0.0000,0.0000,0,0,0,0,0,0,0.0000000,0.0000000,0.0000000,
22:6:8:8:48:56:545,0.0000,0.0000,0.0000,,31.6618,67.6778,31.2000,100499,68.9964,0.0000,0.0000,0.0000,0.0000,0.0000,0.0000,0.0000,0.0000,0.0000,0.0000,0.0000,0.0000,0,0,0,0,0,0,0.0000000,0.0000000,0.0000000,
22:6:8:8:48:56:648,0.0000,0.0000,0.0000,,31.6687,67.7050,31.2000,100498,69.0802,0.0000,0.0000,0.0000,0.0000,0.0000,0.0000,0.0000,0.0000,0.0000,0.0000,0.0000,0.0000,0,0,0,0,0,0,0.0000000,0.0000000,0.0000000,30.2459,30.4307,30.7454,30.2686,30.8549,30.3642,30.4438,31.0549,30.5040,30.3257,30.5218,30.5939,30.4057,30.4139,30.9135,30.8209,30.7731,30.4545,30.7374,30.4547,30.7387,31.0062,30.5361,30.8076,30.7213,30.3488,30.2113,30.7380,30.2319,30.2678,30.0892,29.8415,30.8773,29.8774,30.4970,30.5984,30.7930,30.5014,30.8232,30.7352,30.6399,30.6171,31.2342,30.6253,30.6866,30.5254,31.2607,30.5179,30.8538,30.6963,30.7261,30.8541,30.4954,30.9208,30.8755,30.6760,30.4471,30.4591,30.8323,30.6063,30.7475,30.3858,30.7540,30.1229,30.3543,30.5589,30.1496,30.8146,30.1239,30.6516,30.4728,30.7565,30.7662,30.7934,31.1021,30.8364,30.6707,30.4659,30.6480,30.8673,31.1411,30.7209,30.8103,30.8759,30.8234,30.8704,30.4533,30.8842,30.5951,30.8589,30.7567,31.0610,30.9487,30.4166,30.4181,30.1922,30.0020,30.4227,30.7757,30.6863,30.2350,30.3666,30.6649,30.8020,30.6986,30.4972,30.7410,30.6962,30.5824,30.7275,30.9679,31.1042,30.7244,30.4408,31.1052,30.7532,30.9318,30.7893,30.7667,30.7608,30.6680,30.5306,30.6893,30.4758,30.3910,30.0953,30.8080,30.4444,30.1805,30.0224,30.4422,30.4824,30.7120,30.5471,30.5784,30.7754,30.4390,30.8165,30.8184,31.0119,30.8439,30.6899,30.8359,31.0497,30.6826,30.7281,30.9960,30.7316,30.6736,30.5444,30.5115,30.8862,30.4876,30.7025,30.6052,30.9370,30.4099,30.6621,30.2547,30.4862,30.3126,30.7567,30.5861,30.3438,30.6723,30.6305,30.9170,30.6510,30.7093,30.5365,30.9514,30.9040,30.6320,30.6318,30.8420,30.7852,30.9293,30.8112,30.9835,30.6290,30.7736,30.8144,30.8154,30.5983,30.9159,30.6200,30.7355,30.7754,30.7227,30.3412,30.6151,30.5148,30.4775,30.4431,30.4984,30.7074,30.4315,30.7827,30.5967,30.8126,30.8631,30.5203,30.8391,30.8916,30.8822,30.7257,30.6959,30.7271,30.8578,30.8918,30.5433,30.7610,31.0552,31.0733,31.0312,30.9439,30.8866,30.8927,30.6759,30.7549,30.4358,31.1024,30.3605,30.7251,30.4274,30.7494,30.9182,30.6096,30.3580,30.5250,31.1411,30.9031,30.6276,30.8081,31.0105,30.7950,30.9874,30.9879,31.1729,30.7966,30.8141,30.6705,30.7064,30.9833,30.9980,30.9986,30.9907,30.8029,30.8234,31.1663,31.3395,30.4052,30.5519,30.5967,30.6915,30.5538,30.7289,30.6666,30.5436,30.9398,30.6837,30.6238,31.0035,31.0206,30.7256,30.8454,31.0154,31.0558,30.5805,30.7545,30.8660,30.9396,30.8987,30.6005,30.8808,31.0974,30.7744,30.7897,30.9000,30.9887,31.0524,30.7943,31.0245,30.7543,31.0577,30.3519,30.7547,30.7714,30.4477,30.4233,31.1024,31.0499,30.6461,30.7555,30.8374,31.1084,30.9918,30.9538,31.0318,31.1282,30.8632,30.8631,30.8981,31.0071,31.0199,30.8689,31.0211,30.8589,30.8603,30.7319,31.0432,31.0195,30.9983,30.8589,30.8145,30.9695,30.9649,30.7988,30.9201,30.2065,30.3542,30.4772,30.1755,30.9886,30.6618,30.7837,30.8552,31.0106,31.1877,30.7205,31.0369,31.0917,31.0484,30.9052,30.7837,31.2395,30.6266,30.9554,30.9188,30.9768,30.6228,30.9561,30.5724,30.9400,30.9093,30.9778,30.9045,30.9886,30.8799,30.7728,30.3982,30.5823,30.7055,30.4372,30.7971,31.0524,30.8234,30.7518,30.8569,31.1135,30.6824,31.0094,31.2110,30.9906,30.8689,31.1686,31.0813,30.8444,30.8727,30.8802,31.0649,30.7023,30.7073,31.0246,31.0398,30.6823,30.8543,30.8818,30.7000,30.8589,30.4645,30.6575,30.5985,30.8334,30.8180,30.4827,30.6308,30.7796,30.3158,31.0004,30.7085,31.2016,30.7511,30.8843,30.7545,30.7609,30.7966,30.7711,30.9513,30.9421,30.9357,31.1391,30.7857,31.3086,30.9399,31.1428,30.7665,31.1494,31.2486,30.8284,30.5502,30.8091,30.5474,30.4520,31.0516,30.6057,30.5673,30.4922,30.8363,30.7220,30.4799,30.8123,31.2279,30.9733,30.4065,30.5336,31.0807,30.8413,30.7721,31.0467,31.2536,31.0306,30.4489,30.9190,30.9288,31.1981,31.0614,30.9091,31.0744,31.0352,30.8598,31.0692,31.0840,31.0259,31.0290,30.8820,30.8386,30.8481,30.4157,30.7670,30.6707,30.8007,30.7366,30.8545,30.9142,30.7124,30.6179,31.2543,30.9521,30.9658,30.9805,30.9401,30.8191,31.2695,30.9416,31.1141,30.8008,31.0162,30.7893,30.8564,30.9282,31.1693,30.9366,30.8123,31.0885,31.1774,30.7531,30.6248,30.6287,30.8038,30.2122,30.7445,30.8827,30.9435,30.3902,30.6797,30.9372,31.1717,30.9102,30.8810,31.1217,30.9032,30.8144,30.7537,31.1365,31.0660,30.6524,30.9392,31.4285,30.9177,31.0790,30.7933,31.1240,30.8906,30.7402,30.8884,31.2876,30.9171,30.7053,30.7079,31.0497,31.0611,30.4274,30.7044,30.5276,30.8314,30.9069,31.2003,30.4237,31.1142,30.9439,30.7729,30.5971,31.4511,31.2830,30.9496,30.8173,31.3149,31.1204,30.9729,30.8098,31.0290,30.8356,31.0039,30.7895,30.8438,30.9820,30.6425,31.2897,31.1786,30.7850,30.9678,30.8641,30.8220,30.2185,30.5338,30.7280,30.7600,30.5759,30.8510,31.1357,30.8818,30.7900,30.8935,31.4494,31.0611,30.8353,30.7665,31.0162,31.0836,31.0769,30.9258,31.1397,31.0836,30.9851,31.1038,31.1504,31.2391,30.7531,30.9669,30.9507,31.0733,30.8902,30.5146,31.2772,31.0903,30.4660,30.9802,30.5051,31.0563,30.9640,30.6929,31.1247,31.2889,30.9840,30.9554,30.9812,31.3124,30.8370,31.0064,30.9760,31.1781,31.1366,30.8525,30.9887,31.1757,31.1335,30.8519,30.6196,30.8804,30.8159,31.1744,31.1301,31.3559,30.9295,30.3759,30.8675,30.9946,30.0178,30.7843,30.7413,30.8170,30.6272,30.6680,30.8701,31.2233,30.6906,31.1096,31.3451,31.0692,30.6821,30.9619,31.0072,31.4181,31.1472,30.9793,31.0084,31.2497,30.9977,30.4804,31.0142,31.0781,30.9287,30.9849,31.3554,30.7318,31.2799,30.6846,31.3186,31.1258,30.3396,30.9835,30.7387,31.0498,30.4637,30.8720,30.9781,31.3069,30.6693,30.4425,31.1611,31.1536,30.8789,31.0012,31.0049,31.1839,31.0065,30.8458,30.9868,31.3621,31.0175,31.1791,31.1585,31.3820,30.9697,30.9849,30.9445,31.1806,30.7636,30.5538,30.6472,31.2572,30.5532,30.7969,30.5870,30.6062,30.6948,30.9239,31.2051,31.0709,31.2118,31.1146,31.2577,31.0991,30.5735,31.3079,31.5358,31.4488,30.9812,30.8548,31.4070,31.2912,31.0229,31.1404,31.3976,31.2834,31.0122,30.6131,31.1899,31.0844,31.1258,30.6949,31.3437,30.9227,30.4773,30.7492,30.9211,30.8535,30.7513,31.0597,31.1618,31.3222,30.9980,30.7739,30.8245,31.1590,31.0035,30.9831,31.1813,31.2003,31.1427,31.0042,31.0118,31.5434,31.0100,31.1697,30.9769,31.3666,30.9828,30.7954,31.1848,31.5976,30.9763,30.5297,31.0968,31.2688,29.7891,30.4513,30.7480,30.5554,30.7245,31.2191,30.8207,30.8784,30.5932,31.2642,31.1820,31.1990,31.1137,31.2797,31.0124,31.2283,31.0973,31.0618,31.1858,31.0381,31.1378,31.0537,31.3322,31.4256,30.6967,31.0293,31.3323,31.2022,31.0600,30.5547,31.2924,31.2809,
22:6:8:8:48:56:823,0.0000,0.0000,0.0000,,31.6362,67.6817,31.1900,100501,68.8288,0.0000,0.0000,0.0000,0.0000,0.0000,0.0000,0.0000,0.0000,0.0000,0.0000,0.0000,0.0000,0,0,0,0,0,0,0.0000000,0.0000000,0.0000000,
22:6:8:8:48:56:926,0.0000,0.0000,0.0000,,31.6555,67.6836,31.2000,100495,69.3316,0.0000,0.0000,0.0000,0.0000,0.0000,0.0000,0.0000,0.0000,0.0000,0.0000,0.0000,0.0000,0,0,0,0,0,0,0.0000000,0.0000000,0.0000000,
22:6:8:8:48:57:41,0.0000,0.0000,0.0000,,31.6580,67.6996,31.2000,100500,68.9126,0.0000,0.0000,0.0000,0.0000,0.0000,0.0000,0.0000,0.0000,0.0000,0.0000,0.0000,0.0000,0,0,0,0,0,0,0.0000000,0.0000000,0.0000000,
22:6:8:8:48:57:147,0.0000,0.0000,0.0000,,31.6675,67.6888,31.2000,100498,69.0802,0.0000,0.0000,0.0000,0.0000,0.0000,0.0000,0.0000,0.0000,0.0000,0.0000,0.0000,0.0000,0,0,0,0,0,0,0.0000000,0.0000000,0.0000000,
22:6:8:8:48:57:262,0.0000,0.0000,0.0000,,31.6648,67.6928,31.2000,100495,69.3316,0.0000,0.0000,0.0000,0.0000,0.0000,0.0000,0.0000,0.0000,0.0000,0.0000,0.0000,0.0000,0,0,0,0,0,0,0.0000000,0.0000000,0.0000000,
22:6:8:8:48:57:368,0.0000,0.0000,0.0000,,31.6734,67.6591,31.2100,100497,69.1640,0.0000,0.0000,0.0000,0.0000,0.0000,0.0000,0.0000,0.0000,0.0000,0.0000,0.0000,0.0000,0,0,0,0,0,0,0.0000000,0.0000000,0.0000000,
22:6:8:8:48:57:483,0.0000,0.0000,0.0000,,31.6738,67.6623,31.2000,100498,69.0802,0.0000,0.0000,0.0000,0.0000,0.0000,0.0000,0.0000,0.0000,0.0000,0.0000,0.0000,0.0000,0,0,0,0,0,0,0.0000000,0.0000000,0.0000000,
22:6:8:8:48:57:586,0.0000,0.0000,0.0000,,31.6792,67.6536,31.2100,100496,69.2478,0.0000,0.0000,0.0000,0.0000,0.0000,0.0000,0.0000,0.0000,0.0000,0.0000,0.0000,0.0000,0,0,0,0,0,0,0.0000000,0.0000000,0.0000000,30.3032,30.7233,31.0321,30.5487,30.9106,30.6258,30.9018,30.9070,31.1315,30.7566,30.9527,31.0171,30.8247,31.0100,31.1465,31.0532,31.1844,30.6865,30.9768,31.2440,30.6079,30.6886,30.7830,31.4438,30.9741,30.8110,30.4813,30.7900,30.7344,30.3203,30.1467,30.6363,30.4429,30.4025,30.7743,31.1010,30.8452,30.9665,31.0717,30.9864,31.4382,30.4867,31.2857,30.8626,30.9167,30.5810,31.1369,30.9290,31.4304,30.9274,31.1392,31.0892,31.0927,30.7959,30.9270,31.1153,31.2733,30.7158,30.6750,30.8765,30.7999,30.6669,30.8063,30.6656,30.8776,31.0614,30.2055,30.6556,31.1697,30.8992,30.7189,30.8082,30.8210,30.8453,30.9815,31.0611,30.8946,30.8581,31.0449,31.2589,31.0257,31.1127,30.8651,31.0998,31.0506,31.0956,31.0478,31.1149,30.6504,31.1014,31.0102,30.7094,31.2117,30.8828,30.7019,30.7056,30.2849,30.9215,31.2504,30.3277,30.6774,30.8071,31.0910,31.2229,31.1019,30.7277,30.9650,31.0923,30.9670,30.9489,31.0197,30.9928,31.2805,30.9994,31.1567,30.9788,31.3224,30.6741,30.9954,30.9930,31.2641,30.7745,30.9366,30.7315,30.6489,30.5615,30.8601,30.2762,30.8961,30.7132,30.9095,30.9348,30.7673,30.9714,30.9935,31.1873,31.0094,30.8684,31.0404,31.0635,31.2250,31.0708,30.8904,31.1013,31.2285,30.9426,31.0505,31.1141,30.8950,30.9311,30.9084,31.1120,31.0693,30.9326,30.8502,30.8023,30.8584,30.7147,30.7452,30.7566,31.0132,30.8130,31.0479,30.9919,30.9121,30.6857,31.1447,31.0606,30.9309,30.7606,31.0029,31.2947,31.1679,31.1735,31.2159,31.1644,31.6280,31.0270,31.3621,30.8487,31.1558,30.8699,31.0360,30.9990,31.1413,30.8515,31.1583,31.0157,30.7752,30.5961,30.8809,30.5729,30.7444,30.9038,31.1412,31.1484,31.2115,31.0102,31.0016,31.2086,31.0815,31.0641,31.2195,30.9432,30.9368,30.9358,31.0697,30.9404,30.7535,31.2637,31.0783,31.1356,31.2682,30.9634,31.2542,30.9958,31.1086,30.9447,30.9095,30.8070,30.6799,30.7727,30.6234,30.7776,30.6887,30.6030,30.9701,30.4727,30.5896,30.9276,30.8469,31.2988,31.0042,31.0244,31.0623,31.0103,31.0395,31.0429,31.0668,30.8516,31.1804,31.0433,31.0752,31.0384,31.2083,30.8934,31.0425,31.0262,31.2071,31.2221,31.2155,30.8245,31.1638,30.8423,30.7436,31.0259,30.3760,30.9187,31.1686,30.9915,31.2556,30.8486,31.0583,31.2393,30.9414,31.2258,30.7503,30.9475,31.1062,30.9610,31.0778,31.1467,31.1070,30.8084,30.7753,31.1490,31.1429,31.1534,30.7923,31.3655,31.1075,30.8466,30.9031,30.9860,30.9299,30.5925,30.8109,31.0252,30.9046,30.6783,30.9666,31.1055,30.8708,30.6390,31.2258,30.9983,31.2035,30.8461,31.2420,31.3417,30.9154,30.9182,30.9498,31.3693,31.2246,30.9240,31.2316,31.2264,31.3806,31.2541,31.0949,31.2369,31.3827,31.0804,30.8665,31.0256,31.0173,30.6696,31.1703,30.4642,31.0113,30.9259,30.7972,31.4073,30.7168,30.6618,31.0778,30.8944,30.9208,31.0905,30.9324,31.1434,30.9477,31.1123,30.9925,30.9777,31.2901,31.1621,31.1294,31.0286,30.9901,31.0081,30.9535,30.9917,31.1286,31.0300,30.7886,31.2131,31.2948,31.0075,30.8506,30.6348,30.9572,30.6917,31.0359,30.7411,31.2172,31.1519,30.9088,31.1687,31.0547,31.0646,31.4203,31.0457,30.9211,31.0696,31.2855,31.0552,31.2279,31.2424,31.1166,31.0703,31.2265,31.0799,31.0915,31.0636,30.9068,30.7728,31.2622,31.2586,31.0538,30.8955,30.8465,31.0885,30.6734,30.5347,30.4997,30.8313,30.7230,31.3904,30.9315,31.2531,31.1259,31.2556,31.2870,31.1293,31.4638,31.1291,31.0060,31.1487,31.2943,31.3421,31.1512,31.5160,31.3056,31.0390,31.1432,31.0381,31.1396,31.0448,30.9524,31.2092,30.9581,31.2198,30.9140,31.2478,30.6201,31.1362,30.8883,30.9603,30.7074,30.6998,31.2797,31.0286,31.0984,31.0676,31.1325,31.2124,30.9778,30.9494,31.6084,31.0857,31.1078,31.1250,31.2898,31.2533,31.1136,30.9645,31.4457,31.5776,30.7487,31.2882,31.1361,31.0821,31.2586,31.1165,31.0843,31.1022,30.8751,31.0126,30.9124,31.0354,31.1375,31.0747,31.1357,30.9299,30.9972,31.3063,31.1644,31.1706,31.1883,31.2981,31.0268,31.0125,31.1492,31.1659,31.1682,31.3788,31.1573,31.3715,30.8202,31.0587,31.3229,31.0320,31.3178,31.0560,31.1657,30.6773,30.6852,31.4519,30.6687,30.6080,31.1197,30.8169,30.9610,31.0719,31.1554,31.2273,31.1239,30.4583,31.3306,30.9586,31.0199,30.9625,31.3407,31.2753,31.1644,31.1464,31.3251,31.1279,31.4429,31.0030,31.1762,31.2715,31.2887,30.7769,31.3398,30.9738,31.1145,31.1229,30.9067,30.9206,30.6884,30.7564,30.7732,31.2574,31.1385,31.2521,30.9889,31.4971,30.9991,31.1486,30.9769,31.1829,31.3379,31.1564,31.1817,31.3667,31.3316,31.1820,31.3396,31.2375,31.3618,31.2145,31.1736,31.2250,31.5324,31.0341,30.9920,31.4072,31.0234,30.8355,31.3182,31.2738,30.6810,30.7893,31.1562,31.1907,31.1568,30.9071,31.0187,31.1023,30.8424,30.9493,31.1774,31.1168,31.0437,31.2889,31.3753,31.2955,31.1292,31.1382,31.3489,31.1392,31.3514,31.1597,31.5308,30.9668,31.1349,31.1919,31.3558,31.1300,31.1253,31.1264,31.1317,30.9487,30.9470,30.8312,30.9511,31.1084,31.0203,31.2820,31.0077,31.3408,31.0396,30.8438,31.3616,31.5270,31.2102,31.2140,31.3537,31.3891,31.1918,31.3755,31.0441,31.5539,31.3512,31.2262,31.0133,31.2720,31.3817,31.0550,31.3648,31.4080,31.1739,30.8136,31.3337,31.2557,30.4981,30.4381,30.7935,31.0624,31.0392,31.0829,31.2675,31.1086,30.9075,31.3274,31.0715,31.2882,31.2144,31.0178,31.3808,31.3149,31.3569,31.0354,31.2209,31.6317,31.3746,31.1796,31.4026,31.1344,31.1512,31.3843,31.5863,31.1577,31.5207,30.9344,31.1674,30.9751,30.6125,31.2435,31.3935,31.4966,30.8851,30.9243,31.2121,31.5348,31.2339,31.1735,31.2169,31.3735,31.4164,31.0534,31.3893,31.3994,31.2268,31.0605,31.2090,31.5796,31.4083,31.2313,31.2146,31.6051,31.0257,31.2169,31.3748,31.0443,31.2082,31.0049,31.1328,31.0917,30.6066,30.8551,31.0415,31.2605,30.9306,31.1663,31.0789,31.3047,31.2644,31.0019,31.3101,31.4912,31.2736,31.2029,31.5877,31.5050,31.1988,31.0743,31.4593,31.1823,31.2435,31.3636,31.6221,31.1661,31.2394,31.0316,31.2425,31.5210,30.9837,30.9522,31.3963,31.6389,30.7605,31.2430,30.7668,31.3179,31.2015,31.3059,31.2188,31.3742,31.4110,31.5348,31.4127,31.5639,31.4006,31.0354,31.2375,31.4202,31.1985,31.2250,31.4103,31.5954,31.2391,31.2220,31.3954,31.6008,31.0395,30.8480,31.2422,31.4529,31.2371,30.7910,31.1550,31.3219,30.7533,30.9558,30.8012,31.2388,30.9755,30.8890,31.4431,31.6766,31.3621,31.1449,31.2346,31.6101,31.3387,31.3375,31.5814,31.1168,31.4900,31.1191,31.0663,31.4399,31.3634,31.2847,31.3848,31.3015,31.1191,31.0877,31.5812,31.4597,31.3176,30.8236,31.5687,31.3421,
22:6:8:8:48:57:763,0.0000,0.0000,0.0000,,31.6475,67.6346,31.2000,100498,69.0802,0.0000,0.0000,0.0000,0.0000,0.0000,0.0000,0.0000,0.0000,0.0000,0.0000,0.0000,0.0000,0,0,0,0,0,0,0.0000000,0.0000000,0.0000000,
22:6:8:8:48:57:866,0.0000,0.0000,0.0000,,31.6669,67.6351,31.2000,100496,69.2478,0.0000,0.0000,0.0000,0.0000,0.0000,0.0000,0.0000,0.0000,0.0000,0.0000,0.0000,0.0000,0,0,0,0,0,0,0.0000000,0.0000000,0.0000000,
22:6:8:8:48:57:985,0.0000,0.0000,0.0000,,31.6635,67.6325,31.2000,100498,69.0802,0.0000,0.0000,0.0000,0.0000,0.0000,0.0000,0.0000,0.0000,0.0000,0.0000,0.0000,0.0000,0,0,0,0,0,0,0.0000000,0.0000000,0.0000000,
22:6:8:8:48:58:88,0.0000,0.0000,0.0000,,31.6763,67.6095,31.2100,100496,69.2478,0.0000,0.0000,0.0000,0.0000,0.0000,0.0000,0.0000,0.0000,0.0000,0.0000,0.0000,0.0000,0,0,0,0,0,0,0.0000000,0.0000000,0.0000000,
22:6:8:8:48:58:203,0.0000,0.0000,0.0000,,31.6721,67.6026,31.2100,100499,68.9964,0.0000,0.0000,0.0000,0.0000,0.0000,0.0000,0.0000,0.0000,0.0000,0.0000,0.0000,0.0000,0,0,0,0,0,0,0.0000000,0.0000000,0.0000000,
22:6:8:8:48:58:309,0.0000,0.0000,0.0000,,31.6801,67.5987,31.2100,100496,69.2478,0.0000,0.0000,0.0000,0.0000,0.0000,0.0000,0.0000,0.0000,0.0000,0.0000,0.0000,0.0000,0,0,0,0,0,0,0.0000000,0.0000000,0.0000000,
22:6:8:8:48:58:424,0.0000,0.0000,0.0000,,31.6774,67.6015,31.2100,100493,69.4993,0.0000,0.0000,0.0000,0.0000,0.0000,0.0000,0.0000,0.0000,0.0000,0.0000,0.0000,0.0000,0,0,0,0,0,0,0.0000000,0.0000000,0.0000000,
22:6:8:8:48:58:530,0.0000,0.0000,0.0000,,31.6843,67.5811,31.2100,100497,69.1640,0.0000,0.0000,0.0000,0.0000,0.0000,0.0000,0.0000,0.0000,0.0000,0.0000,0.0000,0.0000,0,0,0,0,0,0,0.0000000,0.0000000,0.0000000,
22:6:8:8:48:58:645,0.0000,0.0000,0.0000,,31.6826,67.5880,31.2100,100497,69.1640,0.0000,0.0000,0.0000,0.0000,0.0000,0.0000,0.0000,0.0000,0.0000,0.0000,0.0000,0.0000,0,0,0,0,0,0,0.0000000,0.0000000,0.0000000,31.0783,30.7519,31.5169,31.2597,31.3517,30.6539,31.1275,31.1344,31.3466,31.1623,31.5390,31.2304,31.0313,31.2187,31.3496,31.4417,31.3873,31.0737,31.5530,31.2723,31.0045,31.2708,31.1900,31.2780,31.1959,31.0442,30.9326,30.8192,30.9815,30.3498,30.9008,30.9131,30.9598,30.8935,31.2539,30.9026,31.2818,30.7868,31.1010,31.4015,31.4669,31.0676,31.4973,31.2507,31.1231,31.1401,31.3409,31.3085,31.2842,31.4778,30.9877,31.1139,31.3023,31.1820,31.5151,31.1401,31.3023,31.1395,31.3315,30.9013,31.0480,30.9145,31.5471,31.4117,31.3670,30.6397,31.0973,30.8943,31.3916,31.1226,31.1252,31.3945,31.2024,31.0507,31.5307,31.2617,31.4252,31.2251,31.5810,31.2868,31.5599,31.3102,31.2323,31.1278,30.9035,31.1237,31.6095,31.1433,31.2284,30.9400,31.0353,31.3436,31.0301,30.9120,31.1793,30.7359,31.2312,30.9461,31.4909,31.1794,31.0951,31.0239,30.9329,31.0650,31.1304,31.2769,31.1658,31.4573,31.1612,31.1400,31.2159,31.5167,31.3088,31.0244,31.5224,31.3435,31.3509,31.2107,31.2009,31.3700,31.2927,30.9867,31.5500,31.3512,31.4968,30.7901,31.3348,30.9795,31.1400,31.1651,31.3445,31.1627,31.3650,31.3704,31.5564,31.2152,31.2059,31.0666,31.2325,31.5991,31.5757,31.0984,31.4059,31.2929,31.2537,31.1327,31.2399,31.1420,31.0865,30.9590,31.4441,31.3139,31.2695,30.9609,31.6289,31.2046,31.2742,30.9449,30.9865,31.4376,30.8271,31.2534,30.6672,31.2133,31.1280,31.2583,31.1736,31.2622,31.2977,30.9544,31.1966,31.4871,31.3570,31.3601,31.2445,31.1894,31.3333,31.2123,31.0639,31.3653,31.1842,31.3903,31.2334,31.3679,31.3429,31.0517,31.1876,31.2241,31.1893,31.2122,30.9108,31.2411,31.1895,30.7279,31.1661,31.3707,31.4171,31.0380,31.2012,31.0643,31.2701,31.0917,31.5694,31.2923,31.4399,31.1214,31.2541,31.1295,31.4117,31.1314,31.4223,31.3246,31.2933,30.9913,31.2793,31.3624,31.4670,30.9728,31.2899,31.3793,30.8928,31.1837,31.0597,31.0171,31.1345,31.0318,31.3837,31.0745,31.1548,31.2987,31.3943,31.4936,31.1945,31.2104,31.4138,31.1953,31.3840,31.5363,31.0953,31.3558,31.3654,31.0682,31.4198,31.3826,31.2367,31.0788,31.4047,31.2186,31.0703,31.2469,31.0686,31.2111,31.1929,31.0556,30.9759,31.2571,31.2175,31.1466,31.0039,31.0196,31.2807,30.8763,31.4230,31.6005,31.4481,31.2534,31.2541,31.7721,31.2879,31.1430,31.2600,31.4849,31.1321,30.9919,31.2800,31.3339,31.3247,31.1812,31.3045,31.2314,31.4666,31.3754,31.2812,31.1938,31.5053,30.9962,31.0368,31.0549,31.3372,30.9014,31.1833,31.3143,31.2433,31.0075,31.0866,31.3534,31.3914,31.1965,31.4288,31.5250,31.5651,31.4034,31.2889,31.7006,31.5574,31.1032,31.1015,31.5627,31.2532,31.4342,31.2843,31.4234,31.2455,31.2707,31.4216,31.2284,31.4101,31.2509,31.2001,30.8878,31.2361,31.1518,31.1981,31.0687,31.6020,31.0366,31.1029,31.2574,31.5878,31.5935,31.9076,31.4883,31.2827,31.4498,31.6316,31.4751,31.4670,31.3443,31.3101,31.2133,31.1712,31.3535,31.3037,31.3460,31.4816,31.3884,31.3269,31.0693,31.3198,30.8540,31.2702,31.0626,31.1855,31.3088,31.4381,31.4987,30.9047,31.0047,31.1041,31.1936,31.2429,31.2470,31.2914,31.7008,31.4123,31.2485,31.4665,31.2356,31.1047,31.1140,31.1453,31.5627,31.5651,31.2630,31.1204,31.2510,31.5901,31.2916,31.2914,31.6259,31.2615,31.1012,31.4608,31.3102,31.5010,30.9576,31.2706,31.2260,31.0987,31.4181,31.6258,31.2809,31.3106,31.1236,31.4708,31.3151,31.6415,31.1566,31.4893,31.4857,31.3194,31.3699,31.6408,31.3884,31.3307,31.3783,31.4891,31.3925,31.1648,31.4005,31.3230,31.4114,31.3367,31.0703,31.3270,31.2773,31.0503,31.1610,31.1035,31.3490,31.0857,31.0605,31.3089,31.2181,31.1271,31.2516,31.3194,31.5524,31.3127,31.4311,31.1821,31.5728,31.1362,31.4508,31.1641,31.4337,31.4521,31.2987,31.3150,31.6025,31.4292,31.3130,31.3379,31.4528,31.4649,31.1413,30.9212,31.5187,31.1009,31.4267,31.3079,31.4287,31.3348,31.4385,31.3268,31.4539,31.0224,31.3341,31.1895,31.3514,31.3661,31.3258,31.5091,31.5027,31.1743,31.3455,31.6603,31.5619,31.1824,31.2454,31.4966,31.4118,31.3480,31.0604,31.5162,31.0847,31.5459,30.8863,31.1025,31.2834,31.1009,31.0190,31.1497,31.2068,31.5061,31.2646,31.1847,31.2522,31.3140,31.2791,31.5165,31.4453,31.6591,31.7518,31.2172,31.4539,31.3458,31.3230,31.1988,31.1528,31.3159,31.4886,31.2055,31.4586,31.6470,30.9693,31.3695,31.5177,31.4995,30.9688,31.5224,31.5391,31.3233,30.9838,31.1752,31.4723,31.3391,31.1081,31.5211,31.5253,31.1858,31.3379,31.3256,31.3710,31.6706,31.6477,31.3611,31.3948,31.5128,31.3666,31.6800,31.5783,31.3870,31.2426,31.5263,31.2534,31.5576,31.4007,31.0170,31.2596,31.4114,30.8645,31.5412,31.1042,30.9156,31.0121,30.9987,31.5884,31.5373,30.9319,31.2173,31.6197,31.1951,31.2980,31.5305,31.6216,31.5385,31.3138,31.4044,31.4764,31.3144,31.0063,31.3781,31.6322,31.3804,31.3425,31.2320,31.6472,31.1640,31.3848,31.5616,31.3311,31.5191,31.3353,31.5577,31.1730,31.3935,31.4628,31.5572,31.5127,31.4018,31.1317,31.2056,31.8788,31.0646,31.3625,31.3866,31.5552,31.3938,31.7071,31.3788,31.2582,31.6900,31.4036,31.3902,31.5822,31.5383,31.4151,31.3752,31.6389,31.5763,31.4267,31.5680,31.8017,31.7604,31.2265,31.5626,31.0771,30.7421,31.2689,31.2145,31.0872,31.0694,30.9287,31.4697,31.4749,31.2649,31.3522,31.5889,31.4759,31.4032,31.1991,31.4102,31.4988,31.2287,31.3727,31.5709,31.9816,31.4039,31.2044,31.6000,31.3280,31.5198,31.2382,31.4380,31.5499,31.1744,31.1509,31.6055,31.4191,30.8513,31.4796,31.4184,31.3284,31.0918,31.5043,31.5915,31.5634,31.4278,31.3708,31.4092,31.5696,31.6015,31.4045,31.5783,31.7542,31.7438,31.4129,31.5663,31.7735,31.6004,31.2598,31.5836,31.4628,31.5716,31.4249,31.3997,31.4503,31.4262,31.0343,31.7963,31.3408,30.6385,31.0892,31.0728,31.2852,30.9613,31.3758,31.1093,31.6828,31.6332,31.5338,31.6749,31.5160,31.3033,31.5501,31.4533,31.6929,31.3932,31.4240,31.4893,31.7021,31.6081,31.5547,31.6523,31.7121,31.4433,31.4161,31.6484,31.7347,31.2093,31.5719,31.6417,31.6637,31.2326,31.2723,31.4275,31.7577,31.4223,31.3347,31.2437,31.9561,31.7912,31.5634,31.2607,31.5926,31.2552,31.2327,31.2625,31.6164,31.5633,31.5897,31.6061,31.6242,31.6089,31.4239,31.7812,31.4478,31.4296,31.4364,31.6556,31.6794,31.2620,31.2364,31.6240,31.3529,30.5598,30.7581,30.8341,31.2636,31.0072,31.1084,31.6641,31.5170,31.0357,31.5243,31.2658,31.8110,31.5411,31.8699,31.6123,31.6470,31.5203,31.4797,31.7836,31.8079,31.2215,31.3094,31.7768,31.6906,31.1500,31.2994,31.6130,31.2856,31.5533,31.2658,31.6015,31.5956,
22:6:8:8:48:58:806,0.0000,0.0000,0.0000,,31.6566,67.5706,31.2000,100497,69.1640,0.0000,0.0000,0.0000,0.0000,0.0000,0.0000,0.0000,0.0000,0.0000,0.0000,0.0000,0.0000,0,0,0,0,0,0,0.0000000,0.0000000,0.0000000,
22:6:8:8:48:58:925,0.0000,0.0000,0.0000,,31.6671,67.5655,31.2100,100496,69.2478,0.0000,0.0000,0.0000,0.0000,0.0000,0.0000,0.0000,0.0000,0.0000,0.0000,0.0000,0.0000,0,0,0,0,0,0,0.0000000,0.0000000,0.0000000,
22:6:8:8:48:59:28,0.0000,0.0000,0.0000,,31.6801,67.5510,31.2100,100495,69.3316,0.0000,0.0000,0.0000,0.0000,0.0000,0.0000,0.0000,0.0000,0.0000,0.0000,0.0000,0.0000,0,0,0,0,0,0,0.0000000,0.0000000,0.0000000,
22:6:8:8:48:59:147,0.0000,0.0000,0.0000,,31.6778,67.5564,31.2100,100497,69.1640,0.0000,0.0000,0.0000,0.0000,0.0000,0.0000,0.0000,0.0000,0.0000,0.0000,0.0000,0.0000,0,0,0,0,0,0,0.0000000,0.0000000,0.0000000,
22:6:8:8:48:59:250,0.0000,0.0000,0.0000,,31.6854,67.5355,31.2100,100497,69.1640,0.0000,0.0000,0.0000,0.0000,0.0000,0.0000,0.0000,0.0000,0.0000,0.0000,0.0000,0.0000,0,0,0,0,0,0,0.0000000,0.0000000,0.0000000,
22:6:8:8:48:59:369,0.0000,0.0000,0.0000,,31.6818,67.5501,31.2100,100496,69.2478,0.0000,0.0000,0.0000,0.0000,0.0000,0.0000,0.0000,0.0000,0.0000,0.0000,0.0000,0.0000,0,0,0,0,0,0,0.0000000,0.0000000,0.0000000,
22:6:8:8:48:59:472,0.0000,0.0000,0.0000,,31.6889,67.5278,31.2200,100498,69.0802,0.0000,0.0000,0.0000,0.0000,0.0000,0.0000,0.0000,0.0000,0.0000,0.0000,0.0000,0.0000,0,0,0,0,0,0,0.0000000,0.0000000,0.0000000,
22:6:8:8:48:59:587,0.0000,0.0000,0.0000,,31.6881,67.5398,31.2200,100497,69.1640,0.0000,0.0000,0.0000,0.0000,0.0000,0.0000,0.0000,0.0000,0.0000,0.0000,0.0000,0.0000,0,0,0,0,0,0,0.0000000,0.0000000,0.0000000,
22:6:8:8:48:59:693,0.0000,0.0000,0.0000,,31.6902,67.5297,31.2200,100495,69.3316,0.0000,0.0000,0.0000,0.0000,0.0000,0.0000,0.0000,0.0000,0.0000,0.0000,0.0000,0.0000,0,0,0,0,0,0,0.0000000,0.0000000,0.0000000,31.1079,31.1228,31.0860,31.3893,31.1725,30.9937,31.1559,31.4627,31.1847,31.2923,31.3804,31.5453,31.2407,31.1687,31.1993,31.7512,31.2376,31.3835,31.5811,31.4025,31.2180,31.5855,31.2184,31.4085,31.2245,31.1757,30.9615,30.9505,31.2326,31.1660,31.1726,31.2918,30.8486,30.9225,31.3836,31.3769,31.4126,31.0198,31.4270,31.8188,31.5972,31.0959,31.8086,31.2788,31.4309,30.8126,31.8193,31.6901,31.5889,31.3310,31.6579,31.3217,31.4333,31.2106,31.8297,31.1689,31.4335,31.1685,31.6698,31.5674,31.3972,31.1667,31.4417,31.4423,31.1645,30.9966,31.1260,31.6524,31.2233,31.4477,30.7719,31.5244,31.5857,31.5353,31.3841,31.3917,31.2850,31.5241,31.6090,31.7554,31.5878,31.4413,31.2603,31.6014,31.2759,31.6000,31.2804,31.8083,31.2568,31.2620,31.2613,31.4752,31.0592,31.2501,30.9828,31.3274,31.1343,30.9750,31.4096,31.2079,31.2260,30.6678,31.6223,31.2758,31.4359,31.1304,31.4668,31.3153,31.4570,31.1679,32.0128,31.5448,31.2718,31.2198,31.6514,31.5411,31.4817,31.2391,31.5070,31.5740,31.6037,31.2025,31.2914,31.3802,31.4237,30.8195,31.2436,31.4599,31.1690,31.2969,31.5775,31.2930,31.5835,31.5008,31.7632,31.5248,31.2338,31.5371,31.4273,31.3908,31.6035,31.7200,31.4337,31.5861,31.4447,31.5869,31.2678,31.4369,31.2805,31.2566,31.3023,31.2705,31.2977,31.6240,31.2813,31.5221,31.3032,31.2781,31.4471,31.5699,31.1740,31.0747,31.4112,31.4381,31.2594,31.2865,31.4787,31.2902,31.5966,31.3195,31.6552,31.5151,31.6480,31.5497,31.6952,31.5406,31.6252,30.9194,31.5204,31.3934,31.6437,31.4186,31.5315,31.2244,31.4738,31.4300,31.6871,31.4363,31.3210,30.8476,31.4673,30.8425,31.0086,31.2666,31.1945,31.6944,31.2649,31.5187,31.0546,31.5379,31.4612,31.2221,31.2723,31.5822,31.4678,31.2517,31.2819,31.4205,31.2814,31.1019,31.4501,31.2936,31.3212,31.1220,31.8102,31.6618,31.3287,31.4484,31.3184,31.3297,31.4833,31.3160,31.2938,31.5672,31.0588,31.0605,31.7053,31.4858,31.4634,31.1538,31.5241,31.6913,31.4864,31.3992,31.5435,31.7020,31.5146,31.4084,31.3829,31.3838,31.6523,31.0963,31.8643,31.5699,31.5252,31.1070,31.5345,31.4142,31.6971,31.1046,31.7258,31.2399,31.6954,31.4607,31.5102,31.6989,31.0429,31.2774,31.2219,31.7092,31.3090,31.3518,31.4510,31.7301,31.3158,31.5474,31.4410,31.5836,31.3158,31.4273,31.4447,31.7693,31.6201,31.4330,31.3079,31.6205,31.6650,31.3117,31.4944,31.5244,31.4947,31.3403,31.4858,31.6823,31.3510,31.3153,31.4664,31.5885,31.2670,31.1281,31.6864,31.5262,31.7168,31.3784,31.7200,31.3815,31.5216,31.2245,31.0837,31.3946,31.5407,31.1248,31.7280,31.2688,31.6878,31.5925,31.7065,31.7462,31.6951,31.3073,31.5744,31.4518,31.8735,31.1338,31.7262,31.4349,31.7226,31.2800,31.7256,31.7108,31.2649,31.4799,31.4139,31.3830,31.4586,31.5129,31.1310,31.3872,31.1346,31.5653,31.4614,31.7766,31.3104,31.4251,31.3529,31.6047,31.4948,31.3208,31.6487,31.9678,31.5102,31.4845,31.3318,31.3131,31.5098,31.8485,31.1846,31.3729,31.3485,31.5318,31.4960,31.3933,31.1189,31.1406,31.1960,31.5271,31.2069,31.2051,31.7313,31.5541,31.5331,31.2752,31.7359,31.5716,31.5429,31.4303,31.7480,31.5739,31.6888,31.6016,31.5838,31.4352,31.3857,31.1331,31.8945,31.4416,31.5583,31.1558,31.7601,31.3122,31.7485,31.1303,31.5920,31.3400,31.3302,31.4816,31.4849,31.3561,31.3019,31.3795,31.4870,31.4108,31.3386,31.4135,31.4988,31.9173,31.5169,31.2869,31.6696,31.6154,31.3473,31.8018,31.3594,31.8296,31.2034,31.5093,31.3569,31.5233,31.0288,31.6950,31.5239,31.7156,31.7180,31.3807,31.3562,31.6051,31.1827,31.3851,31.6037,31.3775,31.2173,31.2564,31.6053,31.4105,31.4175,31.2798,31.9217,31.4231,31.7488,31.3072,31.7667,31.7545,31.5688,31.1781,31.6025,31.6172,31.7374,31.0178,31.6045,31.6309,31.7223,31.3417,31.9835,31.3088,31.4196,31.1705,31.8232,31.3528,31.1302,31.3655,31.3368,31.9223,31.1911,31.2331,31.5208,31.2535,31.3737,31.4650,31.6882,31.7863,31.6989,31.4560,31.5372,31.3246,31.3550,31.3240,31.5330,31.5374,31.3666,31.6842,31.3623,31.7045,31.3764,31.6924,31.7180,31.5625,31.5749,31.3778,31.3273,31.4155,31.2335,31.2408,31.2804,31.5995,31.4661,31.4607,31.6464,31.7754,31.6059,31.4659,32.1152,31.4735,31.7899,31.3220,31.8035,31.4821,31.7819,31.5027,31.7937,31.3356,31.7579,31.6702,31.9850,31.6491,31.7785,31.4992,31.8453,31.5468,31.4537,30.9980,31.6538,31.5691,31.1499,31.3134,31.3923,31.6032,31.3677,31.9245,31.7181,31.9855,31.3755,31.6299,31.5154,31.9801,31.5450,31.9317,31.3893,31.8385,31.6966,31.6540,31.5507,31.8646,31.7281,31.6898,31.5547,31.5485,31.4215,31.5322,31.5758,31.7434,31.6215,31.5497,31.3725,31.8334,31.2521,31.4365,31.3173,31.4311,31.4938,31.1322,31.3478,31.4843,31.6488,31.3265,31.6605,31.8096,31.5152,31.3422,31.6876,31.8162,31.6017,31.5044,31.8219,31.6606,31.5123,31.5289,31.5272,31.5124,31.4597,31.5816,31.6927,31.5363,31.6509,31.1806,32.2793,31.4025,31.2131,31.5946,31.5865,31.6437,31.7863,31.6199,31.5791,32.0092,31.5860,31.6566,31.5772,31.8481,31.4222,31.5283,31.5680,31.8653,31.2452,31.5348,31.5789,31.8755,31.4047,31.5464,31.7396,31.7706,31.7742,31.9001,31.4189,31.5684,31.7897,31.1675,31.3883,31.4182,31.0880,31.2986,31.7339,31.6798,31.7379,31.1367,31.7726,31.8441,31.3967,31.5425,32.0427,31.6671,31.5346,31.2277,31.8608,31.5274,31.6743,31.5574,31.5410,31.8479,31.6976,31.3933,31.8982,31.6935,31.6512,31.4386,31.9259,31.5794,31.8704,31.1807,32.1425,31.4497,31.0953,31.6116,31.4482,31.4598,31.3028,31.8188,31.6206,32.0450,31.2878,31.6708,31.6049,32.0346,31.3098,31.6968,31.2789,31.7219,31.6088,31.5443,31.5950,31.7390,31.4623,31.7226,31.7841,32.1059,31.4272,31.7357,31.6153,31.5819,31.6487,31.5638,31.8263,31.4748,30.9893,30.9099,31.2043,31.3149,31.4587,31.4055,31.7738,31.7120,31.5959,31.3941,31.8061,31.3772,31.5963,31.4179,31.9115,32.0474,31.5248,31.6152,31.9497,31.7311,31.5733,31.5838,32.1267,31.9146,31.4023,31.4457,32.1536,31.7644,31.5364,31.6020,31.7739,32.1302,31.0400,31.4049,31.6689,32.2978,31.6477,31.6599,31.6504,31.9031,31.6430,31.6949,31.6435,32.4253,31.7944,31.5328,31.6348,31.7473,31.2524,31.5533,31.8056,31.7552,31.4657,31.9009,31.8104,31.9428,31.6411,31.7543,31.4915,32.0075,31.4948,31.5765,31.6546,31.9404,31.1481,31.0114,31.3950,31.5016,31.7312,31.3333,31.7965,32.0996,31.5258,31.7313,31.7528,31.8408,31.3297,31.7309,32.0865,31.6766,31.8219,31.5093,31.9152,31.6660,31.6995,31.5123,32.2678,32.0838,31.0986,31.7032,32.1361,31.7132,31.4829,31.2967,32.1793,31.8562,
22:6:8:8:48:59:867,0.0000,0.0000,0.0000,,31.6631,67.5169,31.2100,100497,69.1640,0.0000,0.0000,0.0000,0.0000,0.0000,0.0000,0.0000,0.0000,0.0000,0.0000,0.0000,0.0000,0,0,0,0,0,0,0.0000000,0.0000000,0.0000000,
22:6:8:8:48:59:973,0.0000,0.0000,0.0000,,31.6763,67.4951,31.2100,100495,69.3316,0.0000,0.0000,0.0000,0.0000,0.0000,0.0000,0.0000,0.0000,0.0000,0.0000,0.0000,0.0000,0,0,0,0,0,0,0.0000000,0.0000000,0.0000000,
22:6:8:8:49:0:88,0.0000,0.0000,0.0000,,31.6784,67.4928,31.2100,100499,68.9964,0.0000,0.0000,0.0000,0.0000,0.0000,0.0000,0.0000,0.0000,0.0000,0.0000,0.0000,0.0000,0,0,0,0,0,0,0.0000000,0.0000000,0.0000000,
22:6:8:8:49:0:190,0.0000,0.0000,0.0000,,31.6877,67.4830,31.2200,100501,68.8288,0.0000,0.0000,0.0000,0.0000,0.0000,0.0000,0.0000,0.0000,0.0000,0.0000,0.0000,0.0000,0,0,0,0,0,0,0.0000000,0.0000000,0.0000000,
22:6:8:8:49:0:309,0.0000,0.0000,0.0000,,31.6851,67.4532,31.2200,100499,68.9964,0.0000,0.0000,0.0000,0.0000,0.0000,0.0000,0.0000,0.0000,0.0000,0.0000,0.0000,0.0000,0,0,0,0,0,0,0.0000000,0.0000000,0.0000000,
22:6:8:8:49:0:411,0.0000,0.0000,0.0000,,31.6912,67.4613,31.2200,100497,69.1640,0.0000,0.0000,0.0000,0.0000,0.0000,0.0000,0.0000,0.0000,0.0000,0.0000,0.0000,0.0000,0,0,0,0,0,0,0.0000000,0.0000000,0.0000000,
22:6:8:8:49:0:530,0.0000,0.0000,0.0000,,31.6864,67.4663,31.2200,100499,68.9964,0.0000,0.0000,0.0000,0.0000,0.0000,0.0000,0.0000,0.0000,0.0000,0.0000,0.0000,0.0000,0,0,0,0,0,0,0.0000000,0.0000000,0.0000000,
22:6:8:8:49:0:633,0.0000,0.0000,0.0000,,31.6942,67.4622,31.2200,100500,68.9126,0.0000,0.0000,0.0000,0.0000,0.0000,0.0000,0.0000,0.0000,0.0000,0.0000,0.0000,0.0000,0,0,0,0,0,0,0.0000000,0.0000000,0.0000000,
22:6:8:8:49:0:748,0.0000,0.0000,0.0000,,31.6940,67.4289,31.2200,100498,69.0802,0.0000,0.0000,0.0000,0.0000,0.0000,0.0000,0.0000,0.0000,0.0000,0.0000,0.0000,0.0000,0,0,0,0,0,0,0.0000000,0.0000000,0.0000000,31.4923,31.3911,31.4509,31.6443,31.7227,31.0232,30.8894,31.6901,31.5099,31.3220,31.5154,31.7592,31.3765,31.9195,31.3339,31.2410,31.3734,31.2344,31.1652,31.7984,31.3538,31.2471,31.3535,31.6315,31.5565,31.2047,31.5211,31.4122,31.3682,30.7388,31.0663,31.3183,31.1202,31.0573,31.6355,31.7335,31.4422,31.1547,32.2382,31.3696,31.2552,31.4155,31.6556,31.5948,31.6383,31.6586,31.6742,31.4724,31.4448,31.2908,31.5077,31.8143,31.6443,31.1660,31.6732,31.4955,32.0400,31.3042,31.4905,31.4911,31.4263,31.3022,31.7056,31.0974,31.5319,31.0257,31.4765,31.6812,31.7522,31.2824,31.4778,31.5540,31.5433,31.3886,31.6930,31.7658,31.5889,31.3850,31.5746,31.6159,31.7234,31.6407,32.0762,31.4593,31.2397,31.2844,31.4161,31.3027,31.3925,31.1016,31.5936,31.5038,31.4014,31.2785,31.5697,31.5829,30.9345,31.3302,31.6486,31.3427,31.0617,31.1872,31.6515,31.5930,31.8157,31.0908,31.6678,31.6201,31.6529,31.4689,31.8763,31.6804,31.6376,31.5224,31.6810,31.6767,31.3433,31.5448,31.7124,31.3583,31.4533,31.3382,31.7090,31.7132,31.2488,30.9553,31.7150,31.1453,31.3047,31.3266,31.5080,31.5215,31.3386,31.7159,31.5405,31.5545,31.3696,31.7371,31.5624,31.5898,31.5765,31.4232,31.7317,31.6160,31.4179,31.4555,31.5671,31.3017,31.4163,31.1199,31.4381,31.6467,31.6086,31.2992,31.6051,31.7367,31.8280,31.1065,31.3673,32.0289,31.4183,31.4179,31.2355,31.3765,31.2896,31.4214,31.6835,31.6015,31.2894,31.4544,31.6849,31.6507,31.6788,31.5239,31.5648,31.6762,31.4948,31.3761,31.5503,31.6923,31.8386,31.5542,32.0641,31.5319,31.5043,31.3909,31.5318,31.3886,31.5425,31.1804,31.2831,31.1926,31.1444,31.0927,31.3296,31.7239,31.4007,31.1988,31.5387,31.9103,31.2705,31.5790,31.4075,31.6123,31.6035,31.2822,31.8935,31.4505,31.7326,31.4520,31.4260,31.8056,31.4570,31.3137,31.7784,31.5228,31.6314,31.4782,31.4541,31.7200,31.0574,31.3452,31.8388,31.5950,31.2960,31.5977,31.1590,31.6214,31.1370,31.1156,31.3813,31.6573,31.5169,31.3742,31.8951,31.5188,31.3876,31.6999,31.5704,31.6786,31.6833,31.5487,32.0514,32.0230,31.8709,31.0825,31.8963,31.5499,31.5631,31.5818,31.5797,31.9157,31.5401,31.4085,31.3372,31.8341,31.5852,31.1076,31.5460,31.5526,31.7876,31.3822,31.2474,31.7601,31.6117,31.7414,31.5761,31.7727,31.6078,31.3038,31.5799,31.7994,31.2957,31.4635,31.1244,31.8069,31.8012,31.4975,31.4683,31.7161,31.4643,31.2036,31.6214,31.5331,31.4874,31.5312,31.6020,31.4159,31.2963,31.2638,31.5285,31.2947,31.7471,31.5140,31.4143,31.6818,31.7111,31.6846,31.5884,31.6886,31.8811,31.5671,31.4486,31.5579,31.5666,31.7281,31.7365,31.7264,31.7259,31.5981,31.6041,31.7486,31.5735,31.7647,31.5809,31.3928,31.5714,31.7847,31.5569,31.6484,31.0021,31.3125,31.3615,31.5958,31.5943,31.1975,31.2669,31.7511,31.7512,31.2789,31.5965,31.8069,31.6007,31.4556,31.6420,31.6348,31.7824,31.1968,31.3183,31.5303,31.8015,31.6732,31.4675,31.8306,31.6460,31.3849,31.4910,31.5741,31.6631,31.3797,31.2378,31.4212,31.1484,31.2763,31.9682,31.6626,31.5778,31.5126,31.5954,31.5237,31.5637,31.7251,31.4510,31.8643,31.8809,31.5660,31.7779,31.2440,31.5687,31.4312,31.6136,31.5709,31.5715,31.5847,31.7635,31.4150,31.5890,31.4558,31.7894,31.6191,31.6008,31.2660,31.8149,31.6719,31.2663,31.1184,31.6204,31.7508,31.4377,31.2408,31.4556,31.9341,31.4743,31.2844,31.7929,31.6326,31.6525,31.4701,31.5005,31.6454,31.7860,31.5313,31.6498,31.8597,31.6494,31.5397,31.4927,31.7155,31.6571,31.3983,31.6594,31.5717,31.5011,31.2318,31.2989,31.4373,31.4112,31.5206,31.6323,31.5131,31.4214,31.5592,31.8007,32.0372,31.2887,31.5742,31.7941,31.8731,31.7794,31.5948,31.7965,31.7365,31.7502,31.4643,31.6323,31.7527,31.4587,31.6168,31.4745,31.6045,31.9147,31.4773,31.6700,31.4444,31.6261,31.1285,31.6599,31.4882,31.6661,31.3955,31.8414,31.5881,31.8425,31.5991,31.4908,31.7783,31.5100,31.6541,31.5104,31.6638,31.6822,31.3335,31.3684,31.6623,31.4907,31.6577,31.8239,32.0314,31.6583,31.5608,31.8225,31.8958,31.6777,31.7224,31.8534,31.5916,31.5329,31.2277,31.6581,31.8390,31.6626,31.5685,31.4932,31.5532,31.6673,31.4288,31.5099,31.9108,31.4754,31.2845,31.5190,31.9157,31.6681,31.6105,31.8331,31.7711,31.8126,31.7894,31.8232,31.6255,31.7883,31.8057,31.6908,31.2983,31.6446,31.4680,31.5297,31.6832,31.8379,31.3126,31.6824,31.9014,31.2864,31.5413,31.7162,31.6326,31.6785,31.4407,31.5165,31.6856,31.5112,31.3380,31.6503,31.6913,31.8342,31.6539,31.5243,32.0247,31.9881,31.5281,31.8437,31.8944,31.7080,31.5622,31.6903,31.7418,31.7224,31.3932,31.7113,31.9482,31.9382,31.5789,31.9035,31.6625,31.4840,31.1772,31.3453,31.5666,31.5233,31.6100,31.2077,31.4558,31.6789,31.6236,31.6896,31.7855,31.7006,31.6329,31.5637,31.4844,31.7881,31.7959,31.8512,31.7960,31.6991,31.6644,31.7204,31.6479,31.6537,31.5504,31.8972,31.8473,31.8618,31.1318,31.9146,31.5378,31.3496,31.6241,31.5287,31.4853,31.5665,31.4717,31.5425,32.0389,31.3935,31.8496,31.7127,32.2019,31.5578,31.7135,31.7035,31.7365,31.5388,31.5650,31.3941,32.2297,31.7023,31.5765,31.5394,31.9686,31.9103,31.7590,31.9103,31.5971,31.5512,31.3880,31.7276,31.8613,31.1161,31.8347,31.5674,31.8151,31.2309,31.4510,31.9727,31.8094,31.5897,31.6780,32.0715,31.6400,31.5645,31.5195,31.7297,31.6629,31.8612,31.6928,31.8898,31.8206,31.7278,31.6887,31.7600,31.8289,31.6810,31.9162,31.7764,31.7158,31.3358,31.3162,31.9680,31.5863,31.2319,31.4338,31.7819,32.0785,31.4383,31.2985,31.7560,32.2494,31.4235,31.5322,31.7404,32.2310,31.7657,31.5659,31.7425,31.5882,31.5811,31.5743,31.8961,32.0985,31.7654,31.5869,31.7480,32.1350,31.7359,31.5862,31.7507,31.7981,31.9763,31.1959,31.5364,31.9374,31.2326,31.4638,31.4315,31.6484,31.6690,31.5420,31.6242,31.8473,31.4557,31.5296,32.0016,31.8478,31.7867,31.7145,31.9402,32.1825,31.7190,31.4275,31.8141,31.5369,31.7703,31.5529,32.1554,32.0497,31.7791,31.4027,31.9952,31.7107,31.1759,31.9348,32.2275,32.0490,31.6216,31.6535,31.5931,31.9176,31.5875,31.6893,31.7857,32.2994,31.9557,31.9009,31.6024,32.1042,31.9297,31.7309,31.5988,31.6091,31.7276,31.5831,31.9409,32.2966,31.7741,31.5852,31.7656,31.9715,31.7764,31.5977,32.0144,32.2316,31.8322,31.3978,31.5667,31.9674,31.1742,31.3683,31.4209,31.8449,31.3658,31.4699,31.6345,32.2358,31.5542,31.8676,31.4257,31.9759,31.8738,31.6981,31.7720,31.8119,31.6815,31.4769,32.1140,31.9727,31.7286,32.1649,31.9363,31.8571,31.6792,32.0244,32.1632,31.8482,31.7143,31.4320,31.9833,31.9926,
22:6:8:8:49:0:911,0.0000,0.0000,0.0000,,31.6658,67.4267,31.2200,100496,69.2478,0.0000,0.0000,0.0000,0.0000,0.0000,0.0000,0.0000,0.0000,0.0000,0.0000,0.0000,0.0000,0,0,0,0,0,0,0.0000000,0.0000000,0.0000000,
22:6:8:8:49:1:26,0.0000,0.0000,0.0000,,31.6763,67.4278,31.2200,100498,69.0802,0.0000,0.0000,0.0000,0.0000,0.0000,0.0000,0.0000,0.0000,0.0000,0.0000,0.0000,0.0000,0,0,0,0,0,0,0.0000000,0.0000000,0.0000000,
22:6:8:8:49:1:132,0.0000,0.0000,0.0000,,31.6875,67.4109,31.2200,100497,69.1640,0.0000,0.0000,0.0000,0.0000,0.0000,0.0000,0.0000,0.0000,0.0000,0.0000,0.0000,0.0000,0,0,0,0,0,0,0.0000000,0.0000000,0.0000000,
22:6:8:8:49:1:247,0.0000,0.0000,0.0000,,31.6889,67.4220,31.2200,100497,69.1640,0.0000,0.0000,0.0000,0.0000,0.0000,0.0000,0.0000,0.0000,0.0000,0.0000,0.0000,0.0000,0,0,0,0,0,0,0.0000000,0.0000000,0.0000000,
22:6:8:8:49:1:349,0.0000,0.0000,0.0000,,31.6971,67.4094,31.2300,100497,69.1640,0.0000,0.0000,0.0000,0.0000,0.0000,0.0000,0.0000,0.0000,0.0000,0.0000,0.0000,0.0000,0,0,0,0,0,0,0.0000000,0.0000000,0.0000000,
22:6:8:8:49:1:468,0.0000,0.0000,0.0000,,31.6936,67.4072,31.2200,100497,69.1640,0.0000,0.0000,0.0000,0.0000,0.0000,0.0000,0.0000,0.0000,0.0000,0.0000,0.0000,0.0000,0,0,0,0,0,0,0.0000000,0.0000000,0.0000000,
22:6:8:8:49:1:570,0.0000,0.0000,0.0000,,31.6992,67.3886,31.2300,100498,69.0802,0.0000,0.0000,0.0000,0.0000,0.0000,0.0000,0.0000,0.0000,0.0000,0.0000,0.0000,0.0000,0,0,0,0,0,0,0.0000000,0.0000000,0.0000000,
