Timestamp,Wind speed,Wind angle,Acoustic temperature windsensor,Temperature validity,Temperature_aht10,Relative humidity_aht10,Temperature_ms5611,Pressure_ms5611,Absolute_altitude_ms5611,timestamp_pix_attitude,Roll,Pitch,Yaw,Roll speed,Pitch speed,Yaw speed,timestamp_pix_loc_pos,x,y,z,vx,vy,vz,timestamp_pix_gps,pix_lat,pix_lon,pix_alt,pix_gps_vx,pix_gps_vy,pix_gps_vz,latitude,longitude,altitude_gps,relative_altitude_gps,Pixel_0,Pixel_1,Pixel_2,Pixel_3,Pixel_4,Pixel_5,Pixel_6,Pixel_7,Pixel_8,Pixel_9,Pixel_10,Pixel_11,Pixel_12,Pixel_13,Pixel_14,Pixel_15,Pixel_16,Pixel_17,Pixel_18,Pixel_19,Pixel_20,Pixel_21,Pixel_22,Pixel_23,Pixel_24,Pixel_25,Pixel_26,Pixel_27,Pixel_28,Pixel_29,Pixel_30,Pixel_31,Pixel_32,Pixel_33,Pixel_34,Pixel_35,Pixel_36,Pixel_37,Pixel_38,Pixel_39,Pixel_40,Pixel_41,Pixel_42,Pixel_43,Pixel_44,Pixel_45,Pixel_46,Pixel_47,Pixel_48,Pixel_49,Pixel_50,Pixel_51,Pixel_52,Pixel_53,Pixel_54,Pixel_55,Pixel_56,Pixel_57,Pixel_58,Pixel_59,Pixel_60,Pixel_61,Pixel_62,Pixel_63,Pixel_64,Pixel_65,Pixel_66,Pixel_67,Pixel_68,Pixel_69,Pixel_70,Pixel_71,Pixel_72,Pixel_73,Pixel_74,Pixel_75,Pixel_76,Pixel_77,Pixel_78,Pixel_79,Pixel_80,Pixel_81,Pixel_82,Pixel_83,Pixel_84,Pixel_85,Pixel_86,Pixel_87,Pixel_88,Pixel_89,Pixel_90,Pixel_91,Pixel_92,Pixel_93,Pixel_94,Pixel_95,Pixel_96,Pixel_97,Pixel_98,Pixel_99,Pixel_100,Pixel_101,Pixel_102,Pixel_103,Pixel_104,Pixel_105,Pixel_106,Pixel_107,Pixel_108,Pixel_109,Pixel_110,Pixel_111,Pixel_112,Pixel_113,Pixel_114,Pixel_115,Pixel_116,Pixel_117,Pixel_118,Pixel_119,Pixel_120,Pixel_121,Pixel_122,Pixel_123,Pixel_124,Pixel_125,Pixel_126,Pixel_127,Pixel_128,Pixel_129,Pixel_130,Pixel_131,Pixel_132,Pixel_133,Pixel_134,Pixel_135,Pixel_136,Pixel_137,Pixel_138,Pixel_139,Pixel_140,Pixel_141,Pixel_142,Pixel_143,Pixel_144,Pixel_145,Pixel_146,Pixel_147,Pixel_148,Pixel_149,Pixel_150,Pixel_151,Pixel_152,Pixel_153,Pixel_154,Pixel_155,Pixel_156,Pixel_157,Pixel_158,Pixel_159,Pixel_160,Pixel_161,Pixel_162,Pixel_163,Pixel_164,Pixel_165,Pixel_166,Pixel_167,Pixel_168,Pixel_169,Pixel_170,Pixel_171,Pixel_172,Pixel_173,Pixel_174,Pixel_175,Pixel_176,Pixel_177,Pixel_178,Pixel_179,Pixel_180,Pixel_181,Pixel_182,Pixel_183,Pixel_184,Pixel_185,Pixel_186,Pixel_187,Pixel_188,Pixel_189,Pixel_190,Pixel_191,Pixel_192,Pixel_193,Pixel_194,Pixel_195,Pixel_196,Pixel_197,Pixel_198,Pixel_199,Pixel_200,Pixel_201,Pixel_202,Pixel_203,Pixel_204,Pixel_205,Pixel_206,Pixel_207,Pixel_208,Pixel_209,Pixel_210,Pixel_211,Pixel_212,Pixel_213,Pixel_214,Pixel_215,Pixel_216,Pixel_217,Pixel_218,Pixel_219,Pixel_220,Pixel_221,Pixel_222,Pixel_223,Pixel_224,Pixel_225,Pixel_226,Pixel_227,Pixel_228,Pixel_229,Pixel_230,Pixel_231,Pixel_232,Pixel_233,Pixel_234,Pixel_235,Pixel_236,Pixel_237,Pixel_238,Pixel_239,Pixel_240,Pixel_241,Pixel_242,Pixel_243,Pixel_244,Pixel_245,Pixel_246,Pixel_247,Pixel_248,Pixel_249,Pixel_250,Pixel_251,Pixel_252,Pixel_253,Pixel_254,Pixel_255,Pixel_256,Pixel_257,Pixel_258,Pixel_259,Pixel_260,Pixel_261,Pixel_262,Pixel_263,Pixel_264,Pixel_265,Pixel_266,Pixel_267,Pixel_268,Pixel_269,Pixel_270,Pixel_271,Pixel_272,Pixel_273,Pixel_274,Pixel_275,Pixel_276,Pixel_277,Pixel_278,Pixel_279,Pixel_280,Pixel_281,Pixel_282,Pixel_283,Pixel_284,Pixel_285,Pixel_286,Pixel_287,Pixel_288,Pixel_289,Pixel_290,Pixel_291,Pixel_292,Pixel_293,Pixel_294,Pixel_295,Pixel_296,Pixel_297,Pixel_298,Pixel_299,Pixel_300,Pixel_301,Pixel_302,Pixel_303,Pixel_304,Pixel_305,Pixel_306,Pixel_307,Pixel_308,Pixel_309,Pixel_310,Pixel_311,Pixel_312,Pixel_313,Pixel_314,Pixel_315,Pixel_316,Pixel_317,Pixel_318,Pixel_319,Pixel_320,Pixel_321,Pixel_322,Pixel_323,Pixel_324,Pixel_325,Pixel_326,Pixel_327,Pixel_328,Pixel_329,Pixel_330,Pixel_331,Pixel_332,Pixel_333,Pixel_334,Pixel_335,Pixel_336,Pixel_337,Pixel_338,Pixel_339,Pixel_340,Pixel_341,Pixel_342,Pixel_343,Pixel_344,Pixel_345,Pixel_346,Pixel_347,Pixel_348,Pixel_349,Pixel_350,Pixel_351,Pixel_352,Pixel_353,Pixel_354,Pixel_355,Pixel_356,Pixel_357,Pixel_358,Pixel_359,Pixel_360,Pixel_361,Pixel_362,Pixel_363,Pixel_364,Pixel_365,Pixel_366,Pixel_367,Pixel_368,Pixel_369,Pixel_370,Pixel_371,Pixel_372,Pixel_373,Pixel_374,Pixel_375,Pixel_376,Pixel_377,Pixel_378,Pixel_379,Pixel_380,Pixel_381,Pixel_382,Pixel_383,Pixel_384,Pixel_385,Pixel_386,Pixel_387,Pixel_388,Pixel_389,Pixel_390,Pixel_391,Pixel_392,Pixel_393,Pixel_394,Pixel_395,Pixel_396,Pixel_397,Pixel_398,Pixel_399,Pixel_400,Pixel_401,Pixel_402,Pixel_403,Pixel_404,Pixel_405,Pixel_406,Pixel_407,Pixel_408,Pixel_409,Pixel_410,Pixel_411,Pixel_412,Pixel_413,Pixel_414,Pixel_415,Pixel_416,Pixel_417,Pixel_418,Pixel_419,Pixel_420,Pixel_421,Pixel_422,Pixel_423,Pixel_424,Pixel_425,Pixel_426,Pixel_427,Pixel_428,Pixel_429,Pixel_430,Pixel_431,Pixel_432,Pixel_433,Pixel_434,Pixel_435,Pixel_436,Pixel_437,Pixel_438,Pixel_439,Pixel_440,Pixel_441,Pixel_442,Pixel_443,Pixel_444,Pixel_445,Pixel_446,Pixel_447,Pixel_448,Pixel_449,Pixel_450,Pixel_451,Pixel_452,Pixel_453,Pixel_454,Pixel_455,Pixel_456,Pixel_457,Pixel_458,Pixel_459,Pixel_460,Pixel_461,Pixel_462,Pixel_463,Pixel_464,Pixel_465,Pixel_466,Pixel_467,Pixel_468,Pixel_469,Pixel_470,Pixel_471,Pixel_472,Pixel_473,Pixel_474,Pixel_475,Pixel_476,Pixel_477,Pixel_478,Pixel_479,Pixel_480,Pixel_481,Pixel_482,Pixel_483,Pixel_484,Pixel_485,Pixel_486,Pixel_487,Pixel_488,Pixel_489,Pixel_490,Pixel_491,Pixel_492,Pixel_493,Pixel_494,Pixel_495,Pixel_496,Pixel_497,Pixel_498,Pixel_499,Pixel_500,Pixel_501,Pixel_502,Pixel_503,Pixel_504,Pixel_505,Pixel_506,Pixel_507,Pixel_508,Pixel_509,Pixel_510,Pixel_511,Pixel_512,Pixel_513,Pixel_514,Pixel_515,Pixel_516,Pixel_517,Pixel_518,Pixel_519,Pixel_520,Pixel_521,Pixel_522,Pixel_523,Pixel_524,Pixel_525,Pixel_526,Pixel_527,Pixel_528,Pixel_529,Pixel_530,Pixel_531,Pixel_532,Pixel_533,Pixel_534,Pixel_535,Pixel_536,Pixel_537,Pixel_538,Pixel_539,Pixel_540,Pixel_541,Pixel_542,Pixel_543,Pixel_544,Pixel_545,Pixel_546,Pixel_547,Pixel_548,Pixel_549,Pixel_550,Pixel_551,Pixel_552,Pixel_553,Pixel_554,Pixel_555,Pixel_556,Pixel_557,Pixel_558,Pixel_559,Pixel_560,Pixel_561,Pixel_562,Pixel_563,Pixel_564,Pixel_565,Pixel_566,Pixel_567,Pixel_568,Pixel_569,Pixel_570,Pixel_571,Pixel_572,Pixel_573,Pixel_574,Pixel_575,Pixel_576,Pixel_577,Pixel_578,Pixel_579,Pixel_580,Pixel_581,Pixel_582,Pixel_583,Pixel_584,Pixel_585,Pixel_586,Pixel_587,Pixel_588,Pixel_589,Pixel_590,Pixel_591,Pixel_592,Pixel_593,Pixel_594,Pixel_595,Pixel_596,Pixel_597,Pixel_598,Pixel_599,Pixel_600,Pixel_601,Pixel_602,Pixel_603,Pixel_604,Pixel_605,Pixel_606,Pixel_607,Pixel_608,Pixel_609,Pixel_610,Pixel_611,Pixel_612,Pixel_613,Pixel_614,Pixel_615,Pixel_616,Pixel_617,Pixel_618,Pixel_619,Pixel_620,Pixel_621,Pixel_622,Pixel_623,Pixel_624,Pixel_625,Pixel_626,Pixel_627,Pixel_628,Pixel_629,Pixel_630,Pixel_631,Pixel_632,Pixel_633,Pixel_634,Pixel_635,Pixel_636,Pixel_637,Pixel_638,Pixel_639,Pixel_640,Pixel_641,Pixel_642,Pixel_643,Pixel_644,Pixel_645,Pixel_646,Pixel_647,Pixel_648,Pixel_649,Pixel_650,Pixel_651,Pixel_652,Pixel_653,Pixel_654,Pixel_655,Pixel_656,Pixel_657,Pixel_658,Pixel_659,Pixel_660,Pixel_661,Pixel_662,Pixel_663,Pixel_664,Pixel_665,Pixel_666,Pixel_667,Pixel_668,Pixel_669,Pixel_670,Pixel_671,Pixel_672,Pixel_673,Pixel_674,Pixel_675,Pixel_676,Pixel_677,Pixel_678,Pixel_679,Pixel_680,Pixel_681,Pixel_682,Pixel_683,Pixel_684,Pixel_685,Pixel_686,Pixel_687,Pixel_688,Pixel_689,Pixel_690,Pixel_691,Pixel_692,Pixel_693,Pixel_694,Pixel_695,Pixel_696,Pixel_697,Pixel_698,Pixel_699,Pixel_700,Pixel_701,Pixel_702,Pixel_703,Pixel_704,Pixel_705,Pixel_706,Pixel_707,Pixel_708,Pixel_709,Pixel_710,Pixel_711,Pixel_712,Pixel_713,Pixel_714,Pixel_715,Pixel_716,Pixel_717,Pixel_718,Pixel_719,Pixel_720,Pixel_721,Pixel_722,Pixel_723,Pixel_724,Pixel_725,Pixel_726,Pixel_727,Pixel_728,Pixel_729,Pixel_730,Pixel_731,Pixel_732,Pixel_733,Pixel_734,Pixel_735,Pixel_736,Pixel_737,Pixel_738,Pixel_739,Pixel_740,Pixel_741,Pixel_742,Pixel_743,Pixel_744,Pixel_745,Pixel_746,Pixel_747,Pixel_748,Pixel_749,Pixel_750,Pixel_751,Pixel_752,Pixel_753,Pixel_754,Pixel_755,Pixel_756,Pixel_757,Pixel_758,Pixel_759,Pixel_760,Pixel_761,Pixel_762,Pixel_763,Pixel_764,Pixel_765,Pixel_766,Pixel_767,
22:6:17:17:38:52:424,0.0000,0.0000,0.0000,,0.0000,0.0000,32.0500,99397,161.7658,1169535,-0.0040,-0.0345,2.7646,-0.0060,0.0139,0.0003,0,0.0000,0.0000,0.0000,0.0000,0.0000,0.0000,0,0,0,0,0,0,0,0.00,0.00,0.00,0,
22:6:17:17:38:52:520,0.0000,0.0000,0.0000,,0.0000,0.0000,32.0700,99398,161.6812,1170093,-0.0038,-0.0347,2.7646,0.0018,-0.0086,0.0002,0,0.0000,0.0000,0.0000,0.0000,0.0000,0.0000,0,0,0,0,0,0,0,0.00,0.00,0.00,0,0.0000,0.0000,0.0000,0.0000,0.0000,0.0000,0.0000,0.0000,0.0000,0.0000,0.0000,0.0000,0.0000,0.0000,0.0000,0.0000,0.0000,0.0000,0.0000,0.0000,0.0000,0.0000,0.0000,0.0000,0.0000,0.0000,0.0000,0.0000,0.0000,0.0000,0.0000,0.0000,0.0000,0.0000,0.0000,0.0000,0.0000,0.0000,0.0000,0.0000,0.0000,0.0000,0.0000,0.0000,0.0000,0.0000,0.0000,0.0000,0.0000,0.0000,0.0000,0.0000,0.0000,0.0000,0.0000,0.0000,0.0000,0.0000,0.0000,0.0000,0.0000,0.0000,0.0000,0.0000,0.0000,0.0000,0.0000,0.0000,0.0000,0.0000,0.0000,0.0000,0.0000,0.0000,0.0000,0.0000,0.0000,0.0000,0.0000,0.0000,0.0000,0.0000,0.0000,0.0000,0.0000,0.0000,0.0000,0.0000,0.0000,0.0000,0.0000,0.0000,0.0000,0.0000,0.0000,0.0000,0.0000,0.0000,0.0000,0.0000,0.0000,0.0000,0.0000,0.0000,0.0000,0.0000,0.0000,0.0000,0.0000,0.0000,0.0000,0.0000,0.0000,0.0000,0.0000,0.0000,0.0000,0.0000,0.0000,0.0000,0.0000,0.0000,0.0000,0.0000,0.0000,0.0000,0.0000,0.0000,0.0000,0.0000,0.0000,0.0000,0.0000,0.0000,0.0000,0.0000,0.0000,0.0000,0.0000,0.0000,0.0000,0.0000,0.0000,0.0000,0.0000,0.0000,0.0000,0.0000,0.0000,0.0000,0.0000,0.0000,0.0000,0.0000,0.0000,0.0000,0.0000,0.0000,0.0000,0.0000,0.0000,0.0000,0.0000,0.0000,0.0000,0.0000,0.0000,0.0000,40.7551,40.9737,41.1282,41.6252,41.1879,41.4651,41.0568,40.7011,40.7411,40.5271,41.2765,41.2323,41.4616,41.1482,41.4541,41.3418,41.0968,40.9814,41.2878,41.4056,41.1842,40.8819,41.4740,41.5662,42.1425,41.0293,41.6617,41.3513,0.0000,0.0000,0.0000,0.0000,0.0000,0.0000,0.0000,0.0000,0.0000,0.0000,0.0000,0.0000,0.0000,0.0000,0.0000,0.0000,0.0000,0.0000,0.0000,0.0000,0.0000,0.0000,0.0000,0.0000,0.0000,0.0000,0.0000,0.0000,0.0000,0.0000,0.0000,0.0000,0.0000,0.0000,0.0000,0.0000,0.0000,0.0000,0.0000,0.0000,0.0000,0.0000,0.0000,0.0000,0.0000,0.0000,0.0000,0.0000,0.0000,0.0000,0.0000,0.0000,0.0000,0.0000,0.0000,0.0000,0.0000,0.0000,0.0000,0.0000,0.0000,0.0000,0.0000,0.0000,0.0000,0.0000,0.0000,0.0000,0.0000,0.0000,0.0000,0.0000,0.0000,0.0000,0.0000,0.0000,0.0000,0.0000,0.0000,0.0000,0.0000,0.0000,0.0000,0.0000,0.0000,0.0000,0.0000,0.0000,0.0000,0.0000,0.0000,0.0000,0.0000,0.0000,0.0000,0.0000,0.0000,0.0000,0.0000,0.0000,0.0000,0.0000,0.0000,0.0000,0.0000,0.0000,0.0000,0.0000,0.0000,0.0000,0.0000,0.0000,0.0000,0.0000,0.0000,0.0000,0.0000,0.0000,0.0000,0.0000,0.0000,0.0000,0.0000,0.0000,0.0000,0.0000,0.0000,0.0000,0.0000,0.0000,0.0000,0.0000,0.0000,0.0000,0.0000,0.0000,0.0000,0.0000,0.0000,0.0000,0.0000,0.0000,0.0000,0.0000,0.0000,0.0000,0.0000,0.0000,0.0000,0.0000,0.0000,0.0000,0.0000,0.0000,0.0000,0.0000,0.0000,0.0000,0.0000,0.0000,0.0000,0.0000,0.0000,0.0000,0.0000,0.0000,0.0000,0.0000,0.0000,0.0000,0.0000,0.0000,0.0000,0.0000,0.0000,0.0000,0.0000,0.0000,0.0000,0.0000,0.0000,0.0000,0.0000,0.0000,0.0000,0.0000,0.0000,0.0000,0.0000,0.0000,0.0000,0.0000,0.0000,0.0000,0.0000,0.0000,0.0000,0.0000,0.0000,0.0000,0.0000,0.0000,0.0000,0.0000,0.0000,0.0000,0.0000,0.0000,0.0000,0.0000,0.0000,0.0000,0.0000,0.0000,0.0000,0.0000,0.0000,0.0000,0.0000,0.0000,0.0000,0.0000,0.0000,0.0000,0.0000,0.0000,0.0000,0.0000,0.0000,0.0000,0.0000,0.0000,0.0000,0.0000,0.0000,0.0000,0.0000,0.0000,0.0000,0.0000,0.0000,0.0000,0.0000,0.0000,0.0000,0.0000,0.0000,0.0000,0.0000,0.0000,0.0000,0.0000,0.0000,0.0000,0.0000,0.0000,0.0000,0.0000,0.0000,0.0000,0.0000,0.0000,0.0000,0.0000,0.0000,0.0000,0.0000,0.0000,0.0000,0.0000,0.0000,0.0000,0.0000,0.0000,0.0000,0.0000,0.0000,0.0000,0.0000,0.0000,0.0000,0.0000,0.0000,0.0000,0.0000,0.0000,0.0000,0.0000,0.0000,0.0000,0.0000,0.0000,0.0000,0.0000,0.0000,0.0000,0.0000,0.0000,0.0000,0.0000,0.0000,0.0000,0.0000,0.0000,0.0000,0.0000,0.0000,0.0000,0.0000,0.0000,0.0000,0.0000,0.0000,0.0000,0.0000,0.0000,0.0000,0.0000,0.0000,0.0000,0.0000,0.0000,0.0000,0.0000,0.0000,0.0000,0.0000,0.0000,0.0000,0.0000,0.0000,0.0000,0.0000,0.0000,0.0000,0.0000,0.0000,0.0000,0.0000,0.0000,0.0000,0.0000,0.0000,0.0000,0.0000,0.0000,0.0000,0.0000,0.0000,0.0000,0.0000,0.0000,0.0000,0.0000,0.0000,0.0000,0.0000,0.0000,0.0000,0.0000,0.0000,0.0000,0.0000,0.0000,0.0000,0.0000,0.0000,0.0000,0.0000,0.0000,0.0000,0.0000,0.0000,0.0000,0.0000,0.0000,0.0000,0.0000,0.0000,0.0000,0.0000,0.0000,0.0000,0.0000,0.0000,0.0000,0.0000,0.0000,0.0000,0.0000,0.0000,0.0000,0.0000,0.0000,0.0000,0.0000,0.0000,0.0000,0.0000,0.0000,0.0000,0.0000,0.0000,0.0000,0.0000,0.0000,0.0000,0.0000,0.0000,0.0000,0.0000,0.0000,0.0000,0.0000,0.0000,0.0000,0.0000,0.0000,0.0000,0.0000,0.0000,0.0000,0.0000,0.0000,0.0000,0.0000,0.0000,0.0000,0.0000,0.0000,0.0000,0.0000,0.0000,0.0000,0.0000,0.0000,0.0000,0.0000,0.0000,0.0000,0.0000,0.0000,0.0000,0.0000,0.0000,0.0000,0.0000,0.0000,41.2296,41.0626,41.0737,41.5555,41.1615,41.0069,41.5559,41.6153,41.0626,40.9595,41.4610,41.1895,41.0203,40.8374,41.0479,41.2799,40.9760,40.8169,41.0814,41.4804,41.1101,41.2154,41.6716,41.4880,41.3627,41.0494,41.8603,41.9104,41.2038,41.1063,41.4900,41.7484,41.2456,41.4603,41.5326,41.4891,40.6791,41.2736,41.7385,41.3792,40.8980,40.9065,41.5539,41.4092,40.7766,41.1482,41.3310,41.3169,40.9288,41.0673,41.5579,41.5940,40.9614,41.0243,42.0357,41.5659,41.1325,40.9205,42.0625,42.1590,41.6032,42.0568,41.6790,42.2744,41.2530,41.3647,41.5970,41.6819,41.4509,41.1050,41.4175,41.5981,40.8840,40.8718,41.2551,41.5086,41.3152,40.8837,41.2344,41.3215,41.1372,41.1957,41.6861,41.6516,41.2375,41.2599,41.6197,41.6055,41.4806,41.1042,42.1225,42.1757,41.0204,41.3462,41.5135,41.6700,40.8549,41.1582,41.2502,41.6279,40.8779,41.0782,41.7109,42.1190,40.8332,41.0277,41.5258,41.5417,41.2267,41.2076,41.5147,41.1609,41.2159,41.2127,41.6158,41.5449,41.1442,40.9313,41.9261,41.7913,41.3662,41.2820,42.3050,42.8237,
22:6:17:17:38:52:682,0.0000,0.0000,0.0000,,0.0000,0.0000,32.0700,99397,161.7658,1170218,-0.0037,-0.0345,2.7647,0.0079,0.0158,0.0008,0,0.0000,0.0000,0.0000,0.0000,0.0000,0.0000,0,0,0,0,0,0,0,0.00,0.00,0.00,0,
22:6:17:17:38:52:781,0.0000,0.0000,0.0000,,0.0000,0.0000,32.0700,99397,161.7658,1170343,-0.0036,-0.0348,2.7647,0.0031,-0.0085,0.0008,0,0.0000,0.0000,0.0000,0.0000,0.0000,0.0000,0,0,0,0,0,0,0,0.00,0.00,0.00,0,
22:6:17:17:38:52:888,0.5000,77.0000,35.5000,A,0.0000,0.0000,32.0900,99398,161.6812,1170343,-0.0036,-0.0348,2.7647,0.0031,-0.0085,0.0008,0,0.0000,0.0000,0.0000,0.0000,0.0000,0.0000,1170465,130713243,796876333,82790,0,-2,10,0.00,0.00,0.00,-330,
22:6:17:17:38:52:991,0.5000,77.0000,35.5000,A,0.0000,0.0000,32.0900,99399,161.5967,1170528,-0.0035,-0.0343,2.7647,0.0006,-0.0028,-0.0011,0,0.0000,0.0000,0.0000,0.0000,0.0000,0.0000,1170465,130713243,796876333,82790,0,-2,10,0.00,0.00,0.00,-330,
22:6:17:17:38:53:103,0.7000,61.0000,35.6000,A,0.0000,0.0000,32.1000,99400,161.5121,1170653,-0.0035,-0.0346,2.7648,-0.0034,0.0017,-0.0016,0,0.0000,0.0000,0.0000,0.0000,0.0000,0.0000,1170465,130713243,796876333,82790,0,-2,10,0.00,0.00,0.00,-330,
22:6:17:17:38:53:206,0.7000,61.0000,35.6000,A,0.0000,0.0000,32.1000,99393,162.1040,1170775,-0.0035,-0.0343,2.7650,-0.0018,-0.0068,-0.0008,0,0.0000,0.0000,0.0000,0.0000,0.0000,0.0000,1170465,130713243,796876333,82790,0,-2,10,0.00,0.00,0.00,-330,
22:6:17:17:38:53:318,0.6000,60.0000,35.6000,A,0.0000,0.0000,32.0900,99399,161.5967,1170900,-0.0037,-0.0344,2.7651,-0.0031,0.0090,-0.0018,0,0.0000,0.0000,0.0000,0.0000,0.0000,0.0000,1170465,130713243,796876333,82790,0,-2,10,0.00,0.00,0.00,-330,
22:6:17:17:38:53:421,0.6000,60.0000,35.6000,A,0.0000,0.0000,32.1000,99392,162.1886,1170900,-0.0037,-0.0344,2.7651,-0.0031,0.0090,-0.0018,0,0.0000,0.0000,0.0000,0.0000,0.0000,0.0000,1170966,130713242,796876332,82800,0,-2,10,0.00,0.00,0.00,-329,
22:6:17:17:38:53:533,1.2000,71.0000,35.0000,A,0.0000,0.0000,32.1000,99401,161.4276,1171085,-0.0037,-0.0346,2.7652,-0.0017,0.0016,-0.0001,0,0.0000,0.0000,0.0000,0.0000,0.0000,0.0000,1170966,130713242,796876332,82800,0,-2,10,0.00,0.00,0.00,-329,42.4248,41.7002,42.0781,41.8172,42.1174,41.1818,41.4920,41.7086,41.5754,41.0906,41.4895,41.7523,41.3606,40.7740,41.2010,41.1253,40.9272,40.5990,40.8924,40.7283,41.2925,40.9307,41.0919,41.3875,41.4675,41.0723,41.6632,41.7879,41.5940,41.2602,41.8451,41.6213,41.3442,41.7696,41.9783,42.3430,41.6641,41.6597,41.9894,41.7776,41.0011,40.9809,41.2458,41.0552,41.1072,41.5248,41.3702,41.1732,40.3569,40.7631,41.0511,40.8737,40.8923,41.3252,41.3574,41.6244,41.4039,41.3172,41.4536,41.4771,41.0509,41.3601,41.9620,41.6456,41.5905,41.4377,41.9083,41.6097,41.8457,41.2411,41.5268,41.4117,41.4021,41.1823,41.1048,40.9023,41.4812,40.9283,41.2183,41.0025,40.8576,40.7360,41.3657,41.0807,41.5919,40.9687,41.0072,40.9746,41.2957,41.1571,41.5203,41.4836,41.0348,41.2057,41.4729,41.9019,41.4733,41.4978,42.0340,41.5121,41.2171,41.1394,41.3474,41.4278,41.2086,41.0408,41.1042,41.2369,41.2486,41.1233,41.1888,41.0444,40.8407,40.9183,41.1819,41.1451,41.2431,41.1959,41.2993,41.2040,41.2031,41.3496,41.4726,41.4883,41.3250,41.1133,41.4039,41.7199,41.6508,41.7829,41.6367,41.0321,41.6236,41.5653,41.1137,40.8981,41.2044,41.1376,41.0835,40.9652,41.4425,41.1253,40.8234,40.8236,41.0137,40.6423,41.0049,41.1861,41.2405,40.9326,40.7664,40.9884,41.0789,40.9565,41.2879,41.2897,41.6906,41.2958,41.2370,42.0080,41.1742,41.4635,41.0774,41.4635,40.7179,41.2566,41.0744,41.2586,41.1705,40.7135,41.0733,41.3666,41.2878,41.3622,41.0063,40.9003,40.9923,41.0227,41.2237,41.1291,41.2550,41.1984,41.0832,41.2382,41.0357,40.8769,41.2153,41.4714,41.1062,41.3258,41.7714,41.2603,41.8454,41.6968,41.3780,41.8115,41.2057,41.1092,41.1289,41.0154,41.0188,40.6384,41.1088,41.1751,41.3419,41.0859,41.0035,40.8937,40.8277,41.0213,41.0230,41.0792,41.3228,41.0967,41.4932,41.0801,41.3281,41.1300,41.3324,41.2932,41.6136,41.2409,41.6149,41.5987,41.4813,41.8123,41.7803,41.3910,40.9982,41.3410,41.2046,40.9764,40.8510,40.8916,41.6360,41.1433,41.0767,41.1941,40.9152,40.8358,40.8707,40.9760,41.0816,41.6074,41.2355,40.9019,40.8788,41.2700,41.0403,41.4163,41.4963,41.5365,41.4588,41.4632,41.1384,41.4658,41.5029,41.0352,41.5864,41.7817,41.3073,41.3490,41.3671,41.0541,41.2437,40.9625,41.0035,41.4437,41.3990,41.1303,40.7919,40.8977,40.8613,40.5957,41.2034,41.1061,41.1599,41.0773,41.3158,41.2119,41.0273,40.8834,41.1230,41.3945,41.4000,40.9531,41.4387,41.5894,41.2916,41.4169,41.2496,41.7264,41.2308,41.5152,40.9377,41.1591,41.1190,40.9287,41.1008,40.9664,41.0174,41.1187,41.0102,40.8321,40.7756,40.7153,41.1002,41.3576,41.1809,40.9314,40.8876,41.1283,41.2272,41.1036,41.4741,41.1350,41.0320,41.0353,41.6096,41.2735,41.4265,41.3574,41.5371,41.5714,41.1238,40.7146,41.1487,41.3666,41.0723,40.9658,41.1528,41.1701,41.0412,41.1578,41.1899,40.7783,41.1318,40.6287,41.1007,41.4333,41.1315,40.9158,40.8717,41.1630,41.2579,41.0017,41.0035,41.2320,41.2583,41.1911,41.3774,41.5254,41.2841,41.4161,41.8380,41.7018,41.1999,41.3777,41.0464,41.0543,41.2952,40.9672,41.1021,40.9576,41.2692,41.1372,40.9501,40.7398,40.8838,40.8508,41.0021,41.0671,41.0174,40.8569,41.0655,41.1383,40.8653,41.0936,41.1870,41.1597,40.9649,41.1076,41.4251,41.4435,41.8967,41.1500,41.5769,41.5117,41.2319,41.2751,41.1715,41.1593,41.2360,41.1514,41.2164,41.4111,40.8961,40.9516,41.0299,40.8802,40.9822,40.8343,41.1033,40.9964,41.1126,40.8476,41.1380,41.0795,40.9640,41.1271,41.3759,41.2739,41.0291,41.1179,41.5431,41.4745,41.1952,41.2312,41.4919,41.1907,41.0051,41.1240,40.9522,41.1685,40.7375,40.8747,40.8462,41.1141,41.0024,40.8251,40.9519,41.3085,40.7671,40.9324,41.0215,41.3756,41.0537,41.0671,41.0490,41.0158,41.2786,41.0739,41.3359,41.3627,41.1255,41.0540,41.5951,41.4301,41.5068,41.5098,41.4184,41.3501,41.3767,41.2643,41.4740,41.1781,40.7495,41.0527,41.1907,41.1309,41.2035,40.9785,41.1838,41.0236,41.0195,40.9616,41.0072,41.2865,41.1514,40.8243,41.0662,41.0797,41.1810,41.2258,41.1090,41.1224,41.2628,40.9823,41.3669,41.7330,40.9038,41.5638,41.5264,41.4147,41.0208,41.1741,41.2846,41.2380,40.6748,41.0421,41.1527,41.1831,41.1805,41.0124,41.1499,41.0488,40.9020,40.9948,41.2323,40.7878,40.6666,40.9329,41.2178,41.0352,41.4278,40.8819,41.3923,40.9709,41.0195,40.9298,41.6844,41.6879,41.2433,41.2324,41.0611,41.3645,41.4885,41.3993,40.9768,41.4362,41.1892,40.8369,41.1615,41.4143,41.1070,40.9056,41.0999,41.4808,41.3301,40.7259,41.0939,41.0515,41.2382,40.9577,41.1388,41.1472,41.3728,40.9826,41.0653,41.5554,41.4350,41.2808,41.4959,41.5979,41.3813,40.9825,41.3084,41.3939,41.1607,40.8195,41.2521,41.2467,40.8816,40.8650,41.0250,41.4165,41.0293,40.6781,41.2249,41.0052,40.5368,40.8682,41.0351,41.1509,41.3669,41.0892,41.3006,41.1131,41.0942,41.3358,41.3509,41.0330,41.3316,41.1013,42.1687,41.5783,41.7255,41.9639,41.3839,41.6184,41.1442,41.1689,41.1132,41.2889,41.0291,41.2278,41.2632,41.5348,40.8492,40.5682,41.2123,41.1350,40.9572,40.9129,41.2036,41.2703,41.4033,41.2017,41.1371,41.5415,41.2317,41.0846,41.4753,41.4139,41.2304,40.9561,41.6819,41.6467,41.0773,41.5105,40.8222,41.6712,41.0010,41.2204,41.1551,41.4772,41.0296,40.9229,41.4083,41.2259,40.8743,40.6044,40.8780,41.2757,41.2301,41.0610,40.8690,41.4074,40.6685,40.8861,41.3028,41.1179,41.2907,41.4654,41.3222,41.4897,41.3712,41.4973,41.4539,41.9505,41.8909,41.2136,41.5898,41.9101,41.2938,40.9922,41.4652,41.4921,41.3726,41.4226,41.2969,41.5595,40.9590,40.6076,41.2048,41.2899,41.0698,41.0896,40.7889,41.0712,41.6509,41.0730,41.2985,41.5810,41.4915,41.3167,41.5674,41.4139,41.4374,41.3363,41.5570,42.2150,41.1059,41.3882,41.2181,41.6423,41.1778,41.1819,41.3016,41.5484,41.0978,41.3258,41.3720,41.4306,40.9993,40.8013,41.3477,41.3044,40.7235,41.0425,41.1238,41.5195,41.1869,41.1173,41.3378,41.3267,41.0634,40.9173,41.6140,41.8116,41.0529,41.3678,41.9654,42.2522,41.7035,42.1578,41.5731,41.9945,41.3303,41.4659,41.6676,41.7824,41.5123,41.2061,41.6423,41.8624,40.9391,40.8153,41.1511,41.6090,41.3701,40.8276,41.1304,41.2623,41.0328,41.1354,41.4139,41.7523,41.6423,41.1880,41.5144,41.3400,41.7514,41.3996,42.0169,42.2785,40.9140,41.6483,41.4179,41.7535,41.3252,41.4112,41.3523,41.6918,40.9802,41.4662,41.4820,41.5206,41.0959,41.0787,41.3068,40.9640,41.0111,41.4141,41.2963,41.2149,40.9964,41.4287,41.3809,41.4372,41.2462,41.3468,41.6635,42.2354,41.4688,41.3670,42.2005,42.5018,
22:6:17:17:38:53:695,1.2000,71.0000,35.0000,A,0.0000,0.0000,32.1000,99394,162.0195,1171210,-0.0038,-0.0343,2.7653,-0.0026,-0.0023,0.0001,0,0.0000,0.0000,0.0000,0.0000,0.0000,0.0000,1170966,130713242,796876332,82800,0,-2,10,0.00,0.00,0.00,-329,
22:6:17:17:38:53:806,0.7000,52.0000,35.6000,A,0.0000,0.0000,32.1000,99400,161.5121,1171395,-0.0038,-0.0341,2.7656,0.0013,0.0074,0.0005,0,0.0000,0.0000,0.0000,0.0000,0.0000,0.0000,1170966,130713242,796876332,82800,0,-2,10,0.00,0.00,0.00,-329,
22:6:17:17:38:53:909,0.7000,52.0000,35.6000,A,0.0000,0.0000,32.1100,99396,161.8504,1171457,-0.0037,-0.0341,2.7656,0.0074,-0.0028,0.0005,0,0.0000,0.0000,0.0000,0.0000,0.0000,0.0000,1170966,130713242,796876332,82800,0,-2,10,0.00,0.00,0.00,-329,
22:6:17:17:38:54:21,0.7000,52.0000,35.6000,A,0.0000,0.0000,32.1000,99399,161.5967,1171582,-0.0038,-0.0342,2.7657,0.0026,0.0087,-0.0000,0,0.0000,0.0000,0.0000,0.0000,0.0000,0.0000,1170966,130713242,796876332,82800,0,-2,10,0.00,0.00,0.00,-329,
22:6:17:17:38:54:123,0.7000,52.0000,35.6000,A,0.0000,0.0000,32.1100,99400,161.5121,1171705,-0.0038,-0.0342,2.7658,0.0017,-0.0050,0.0011,0,0.0000,0.0000,0.0000,0.0000,0.0000,0.0000,1170966,130713242,796876332,82800,0,-2,10,0.00,0.00,0.00,-329,
22:6:17:17:38:54:234,36.0000,0.0000,0.0000,A,0.0000,0.0000,32.0900,99399,161.5967,1171705,-0.0038,-0.0342,2.7658,0.0017,-0.0050,0.0011,0,0.0000,0.0000,0.0000,0.0000,0.0000,0.0000,1170966,130713242,796876332,82800,0,-2,10,0.00,0.00,0.00,-329,
22:6:17:17:38:54:336,36.0000,0.0000,0.0000,A,0.0000,0.0000,32.1200,99378,163.3726,1171893,-0.0040,-0.0340,2.7658,-0.0038,-0.0001,-0.0007,0,0.0000,0.0000,0.0000,0.0000,0.0000,0.0000,1170966,130713242,796876332,82800,0,-2,10,0.00,0.00,0.00,-329,
22:6:17:17:38:54:448,1.3000,91.0000,35.6000,A,0.0000,0.0000,32.1100,99397,161.7658,1171893,-0.0040,-0.0340,2.7658,-0.0038,-0.0001,-0.0007,0,0.0000,0.0000,0.0000,0.0000,0.0000,0.0000,1171966,130713243,796876330,82800,1,-1,9,0.00,0.00,0.00,-322,
22:6:17:17:38:54:548,1.3000,91.0000,35.6000,A,0.0000,0.0000,32.1200,99399,161.5967,1172140,-0.0042,-0.0342,2.7658,-0.0045,-0.0045,-0.0007,0,0.0000,0.0000,0.0000,0.0000,0.0000,0.0000,1171966,130713243,796876330,82800,1,-1,9,0.00,0.00,0.00,-322,41.8309,42.1396,41.3204,42.0233,42.2135,41.7600,41.4023,41.7051,41.3185,41.2631,41.2381,41.7490,41.6261,41.6125,40.9651,41.4574,40.8585,40.7632,40.8175,41.0678,41.2175,41.2708,40.8326,41.5642,41.1987,41.6371,41.1672,41.3801,41.6903,41.2545,41.0430,41.6137,42.0139,41.6497,41.9735,41.8211,42.0375,41.7555,41.6212,41.1481,41.3454,41.0772,41.5827,40.6431,41.4351,41.2915,41.5297,40.6084,41.1719,40.6956,41.0476,40.2978,41.0584,41.2540,41.5269,41.3657,41.5801,41.0427,41.8362,41.3757,41.4525,41.6619,41.9565,41.2941,42.1167,42.0583,41.2036,41.9945,41.7600,41.6011,41.4463,41.2354,41.3335,41.5093,41.0383,41.3820,41.4220,41.5570,40.9979,41.1577,40.6376,40.8914,40.8254,40.9167,41.2095,41.1269,41.1045,41.3037,41.2217,41.1532,41.4340,41.1037,41.8989,41.5838,41.5693,41.6830,41.6809,41.5933,41.8341,41.6080,41.7542,41.4140,41.1698,41.0138,41.3691,40.9744,41.4211,41.0162,40.7822,41.0650,41.1856,40.6751,40.6814,40.8593,41.4928,40.9252,41.2406,41.2927,41.1315,40.6434,41.0315,41.4460,41.2873,41.0315,41.1307,41.2092,41.6050,40.9776,41.5446,42.1705,41.3523,41.4000,41.5438,41.7349,41.0433,41.3978,40.9827,41.4520,41.0248,41.4359,41.2366,41.1229,40.9207,40.6673,40.9593,41.0940,40.9487,41.0291,41.0285,41.2407,40.8639,41.3086,41.3396,41.2839,41.3848,41.2850,41.4248,41.4776,41.1327,41.8010,41.7699,41.5598,41.4536,40.6428,41.2378,41.1832,41.5622,41.1904,41.1682,40.8102,41.3777,40.8382,41.7341,41.3087,41.1532,40.5434,41.1411,40.9703,41.2207,41.0735,41.4060,41.4488,41.0798,40.6930,41.1944,41.1368,41.3837,41.2265,41.6383,41.2389,41.5692,40.9569,41.9420,41.5049,41.2930,41.4476,41.3030,41.1067,41.0632,41.4929,40.9639,41.2463,41.0542,41.0227,41.2912,41.0836,40.8032,41.0413,41.2204,41.3169,40.8221,41.2263,41.4203,41.2445,40.8073,41.3916,41.4259,41.1267,40.9332,41.2889,41.0138,41.2365,41.3312,41.5927,41.8624,41.5344,41.7763,41.1310,40.9951,41.1151,41.5224,41.0735,40.9995,40.9888,41.4831,41.0914,41.5159,41.2913,41.0594,40.6345,41.0149,41.0732,41.0785,40.9615,41.2331,41.1484,41.4968,40.8985,41.3459,41.1949,41.4926,40.9603,41.4555,41.0340,41.8841,40.7917,41.5996,41.5889,41.5071,41.9516,41.5644,41.0255,40.9899,41.5179,41.4906,41.2661,40.8032,41.2926,41.0592,41.2718,40.7423,41.1848,40.8155,40.8839,40.7050,41.2496,41.4036,41.0746,40.9599,41.3597,41.2809,41.0357,41.0558,40.8897,41.3267,41.2971,40.9755,41.5836,41.2876,41.3296,41.4196,41.4817,41.3874,41.1340,41.4041,41.2561,41.4136,41.1773,41.3927,40.9155,41.5937,41.3587,41.0071,40.7857,40.9158,41.1000,41.2450,41.0187,41.3238,41.1733,41.3332,40.9233,41.3792,40.8917,41.3074,41.0657,41.3673,41.1315,41.7888,40.9992,41.5239,41.5379,41.2848,41.9085,41.2212,41.3578,40.9339,41.5196,41.3195,41.1115,40.8057,41.0194,41.2831,41.5885,40.7137,40.9217,40.9463,41.2035,40.9077,41.5760,41.2295,41.3569,40.5132,41.0075,41.2029,41.3061,40.7815,41.3883,41.5222,41.5253,41.1071,41.3351,41.4647,41.3292,41.4879,40.9469,41.3557,40.9940,41.0428,41.3063,41.4413,40.7700,41.0988,40.9074,41.2670,41.0909,41.0892,40.4005,41.0228,40.9479,40.9989,41.0187,41.1600,40.8062,41.2127,40.6282,41.0155,41.0369,41.3413,40.6151,41.4595,41.7076,41.6014,40.8045,41.6222,41.5128,41.3282,41.8483,41.3291,41.1150,40.4867,41.3101,41.1847,41.1491,41.1657,41.4084,41.5639,41.0919,40.6992,40.8773,41.2215,40.9729,40.6212,41.5742,41.2101,40.9901,40.9358,41.2280,41.0619,40.9710,41.4729,41.4315,41.1262,41.2797,41.4602,41.4687,41.5617,41.3275,41.6592,41.2873,41.3263,41.2208,41.5693,40.8052,41.0322,40.8232,41.1377,40.6216,41.2851,40.7800,40.9485,41.1182,40.7645,41.1699,41.1623,41.0374,41.3400,40.7311,40.8961,40.9610,41.2759,41.1706,41.4921,41.1369,41.2868,41.3155,41.5903,41.3433,41.4171,41.6857,41.1707,41.5165,41.3134,41.2617,41.1076,41.1751,41.1489,41.1984,40.9950,40.9852,41.4431,41.1188,40.9969,41.0206,40.9745,41.3839,40.9590,41.5724,41.2488,41.1094,40.7074,41.2275,41.2787,41.3780,41.3678,41.1180,41.5250,41.3125,41.0992,41.5429,40.8986,41.3021,41.3498,41.3416,41.3374,41.2707,41.4350,41.0265,40.9728,40.9909,41.4416,40.9929,41.3199,40.9665,41.2884,40.8583,41.4688,40.8084,41.0839,41.0291,41.1008,41.0297,41.2140,40.8286,41.4249,40.8224,41.2269,40.5826,41.3470,41.1926,41.6794,41.4155,41.5291,41.2289,40.9829,41.1868,41.4221,41.5563,40.9161,41.7408,41.1360,41.1356,40.9565,41.4113,41.2044,40.9029,41.0527,41.4778,41.4279,41.0162,40.8962,41.0480,41.1898,41.1024,40.9299,41.4495,41.3167,41.2943,41.1622,41.5510,41.3635,41.4479,41.4078,41.5918,41.5651,41.6301,41.4774,40.9682,41.1565,41.0760,41.2475,40.5758,41.0288,40.8106,41.0208,41.2149,41.1711,40.9203,41.0778,40.8101,41.1192,41.1112,41.0311,40.3709,41.2179,41.3331,41.1434,40.9035,41.2440,41.2763,41.5103,41.1292,41.1576,41.1972,41.4293,41.4883,41.6267,41.7742,41.1195,41.6144,41.5726,41.4982,40.8879,41.2853,41.2794,41.3770,40.9059,41.5315,41.2425,41.0010,41.0090,41.2799,41.0545,41.2025,40.8514,41.4187,41.1980,41.0485,40.9199,41.5376,41.3292,41.2406,41.2396,41.5792,41.1521,41.3084,41.3984,41.4465,41.6621,41.6062,41.3606,40.8920,41.4964,40.6494,41.3105,41.0964,41.1781,40.8683,41.5551,41.0185,41.1684,40.7011,41.3236,40.9268,41.3733,41.3032,40.8645,40.8947,40.9678,40.8329,41.4546,40.8994,41.2869,41.2436,41.8160,40.9013,41.5417,41.2365,41.8262,41.4632,41.5926,41.7878,41.6859,41.9058,41.0521,41.6730,41.0661,41.4881,41.3120,41.1044,41.2380,41.5559,40.9061,41.0570,41.1486,41.2862,40.8605,41.3883,41.0413,41.3765,41.2815,40.7591,41.2348,41.5767,41.4267,41.6461,41.4904,41.5839,41.3538,41.7000,41.4547,42.4099,41.2995,41.6777,41.3976,41.3692,41.5114,41.1064,41.2958,41.3152,41.0932,40.9492,41.6786,41.2140,40.9950,41.1991,41.3429,41.4007,41.1818,41.2909,41.4269,40.8453,41.1828,41.2135,41.8138,41.0984,41.5453,41.3493,41.7828,41.2020,41.5911,41.6475,42.5530,41.9427,41.7988,41.7455,41.6688,41.6079,41.4265,41.4618,41.2371,41.7780,41.6088,41.3672,41.2449,42.0220,41.3537,41.2840,41.2478,41.6050,41.4669,41.1382,40.9076,41.4179,41.2910,41.2929,41.1735,41.5781,41.3994,41.5301,41.0667,41.7011,42.0350,41.9715,42.1115,42.2712,41.3255,42.1528,41.4090,41.0777,41.1347,41.3265,41.5213,41.4442,41.1409,41.5624,41.8058,41.6161,41.0905,41.1752,41.4610,41.2172,41.6395,41.3535,41.6099,40.8284,41.6340,41.2015,41.5427,41.0232,41.2404,41.2678,41.8385,41.0377,41.6518,41.6553,42.3987,41.7485,
22:6:17:17:38:54:721,1.3000,91.0000,35.6000,A,0.0000,0.0000,32.1000,99395,161.9349,1172203,-0.0041,-0.0345,2.7658,-0.0039,-0.0058,-0.0002,0,0.0000,0.0000,0.0000,0.0000,0.0000,0.0000,1171966,130713243,796876330,82800,1,-1,9,0.00,0.00,0.00,-322,
22:6:17:17:38:54:821,1.3000,91.0000,35.6000,A,0.0000,0.0000,32.1000,99396,161.8504,1172387,-0.0042,-0.0344,2.7656,-0.0022,-0.0045,-0.0010,0,0.0000,0.0000,0.0000,0.0000,0.0000,0.0000,1171966,130713243,796876330,82800,1,-1,9,0.00,0.00,0.00,-322,
22:6:17:17:38:54:938,48.0000,0.0000,0.0000,A,0.0000,0.0000,32.1100,99398,161.6812,1172450,-0.0043,-0.0345,2.7656,-0.0017,-0.0008,-0.0004,0,0.0000,0.0000,0.0000,0.0000,0.0000,0.0000,1172465,130713242,796876330,82800,1,0,9,0.00,0.00,0.00,-329,
22:6:17:17:38:55:37,48.0000,0.0000,0.0000,A,0.0000,0.0000,32.1100,99397,161.7658,1172450,-0.0043,-0.0345,2.7656,-0.0017,-0.0008,-0.0004,0,0.0000,0.0000,0.0000,0.0000,0.0000,0.0000,1172465,130713242,796876330,82800,1,0,9,0.00,0.00,0.00,-329,
22:6:17:17:38:55:152,1.1000,73.0000,35.4000,A,0.0000,0.0000,32.1100,99401,161.4276,1172697,-0.0041,-0.0345,2.7654,0.0060,0.0020,0.0005,0,0.0000,0.0000,0.0000,0.0000,0.0000,0.0000,1172465,130713242,796876330,82800,1,0,9,0.00,0.00,0.00,-329,
22:6:17:17:38:55:251,1.1000,73.0000,35.4000,A,0.0000,0.0000,32.1000,99396,161.8504,1172822,-0.0041,-0.0343,2.7654,0.0052,-0.0021,0.0006,0,0.0000,0.0000,0.0000,0.0000,0.0000,0.0000,1172465,130713242,796876330,82800,1,0,9,0.00,0.00,0.00,-329,
22:6:17:17:38:55:366,1.0000,7.0000,35.4000,A,0.0000,0.0000,32.1100,99395,161.9349,1172945,-0.0041,-0.0345,2.7654,0.0025,0.0040,0.0002,0,0.0000,0.0000,0.0000,0.0000,0.0000,0.0000,1172465,130713242,796876330,82800,1,0,9,0.00,0.00,0.00,-329,
22:6:17:17:38:55:464,1.0000,7.0000,35.4000,A,0.0000,0.0000,32.1100,99397,161.7658,1173070,-0.0041,-0.0346,2.7654,0.0017,-0.0018,-0.0006,1172966,-5.5935,-5.3761,0.7841,0.0070,-0.0071,0.0974,1172465,130713242,796876330,82800,1,0,9,0.00,0.00,0.00,-329,
22:6:17:17:38:55:580,1.1000,78.0000,35.5000,A,0.0000,0.0000,32.1100,99398,161.6812,1173193,-0.0042,-0.0346,2.7656,-0.0000,0.0027,-0.0010,1172966,-5.5935,-5.3761,0.7841,0.0070,-0.0071,0.0974,1172465,130713242,796876330,82800,1,0,9,0.00,0.00,0.00,-329,42.2925,41.6999,41.7491,41.6065,41.8296,41.7631,41.5894,41.1535,41.4962,41.2661,41.4131,41.2362,41.2902,41.2794,41.1322,40.9569,41.1912,40.7662,40.3016,40.8997,41.0457,41.1024,40.8336,41.3871,41.7478,41.4515,41.1683,41.1830,41.6916,41.2594,41.2697,41.3923,41.7943,41.8665,41.3537,42.0286,41.6645,41.5676,41.6254,41.3311,41.3487,40.9061,41.2460,41.3218,41.2730,41.4578,41.2073,40.7755,40.8484,40.8608,40.7146,40.8036,40.8925,41.0874,41.1842,41.5448,41.4042,41.2298,41.4537,41.1798,41.4568,41.6639,41.9620,41.2966,41.9032,41.8540,41.6057,41.4147,41.7608,41.2410,41.4471,41.2385,41.3342,41.1823,41.2021,40.7407,41.4226,40.9283,41.1576,40.6849,40.9558,41.0524,40.6663,40.9200,41.3703,40.9684,41.2721,41.1409,41.2226,41.3335,41.2517,41.2958,41.7086,41.2051,41.9890,41.0502,41.6854,41.5949,41.6429,41.4180,41.3978,41.2369,41.1737,41.1853,41.2090,41.3009,40.9440,41.0173,40.9399,41.0661,41.1891,41.1425,40.9977,40.7042,41.0247,41.2432,41.2435,40.9766,41.1353,40.9739,41.2035,41.2737,41.1102,41.0331,41.5152,40.8325,41.1972,41.6086,41.9509,41.3906,41.5438,40.8455,41.8981,41.5654,41.0440,41.0657,41.3025,41.1376,41.1813,41.2810,41.3889,41.2782,40.9213,40.9763,41.1123,40.9453,40.7957,40.8780,41.3386,41.0881,41.0236,41.3120,41.3403,41.1218,41.0346,41.1155,41.9690,41.2953,41.3348,41.4039,41.5745,41.5613,41.2679,40.6443,41.2411,41.5235,41.2386,40.8617,41.1710,41.1258,41.0736,41.1524,40.9884,41.6106,40.8563,40.6961,40.9927,40.8217,41.0717,41.2272,41.4088,41.1427,40.6112,40.6943,41.1974,41.1382,41.0429,41.0570,41.4638,41.2407,41.3762,41.5569,41.5543,41.3188,41.6567,41.2701,41.4718,41.1092,41.3890,41.0152,40.9645,40.9439,40.9029,41.0254,41.5880,41.0860,40.9527,40.2898,40.7782,41.0213,40.9719,40.9286,40.9782,41.3975,41.1220,40.6056,41.2714,40.8081,41.0998,40.7861,41.1893,41.2404,41.3324,41.2090,41.2885,41.7227,41.2454,41.6668,41.4966,41.1162,41.0438,41.3916,41.1533,41.1399,41.0353,41.2415,41.5186,41.5829,40.6203,40.7850,41.1638,41.0742,41.0819,41.2603,41.0886,41.0001,40.8789,41.0561,41.3488,41.3554,41.1690,40.9618,41.4591,41.2111,41.1384,41.3715,41.6006,41.2209,41.5079,41.6084,41.5651,41.1887,40.9906,41.2098,41.3418,41.2685,40.9527,41.1466,41.2057,40.9865,40.7429,40.8976,41.1030,40.8863,41.0039,40.9593,41.1125,40.9320,40.9606,40.9086,41.4370,41.0388,40.7271,40.8935,41.3277,40.9526,41.7225,41.0277,41.4791,41.5148,41.2497,41.4829,41.0712,41.2947,40.9379,41.1034,41.4166,41.0269,40.6572,40.9165,41.4520,41.3596,40.7206,40.6430,40.9185,40.8136,40.9524,41.0198,41.1813,41.0296,40.8877,40.7733,41.0728,41.0475,41.3114,41.2330,41.3710,40.9605,41.4258,41.3712,41.5248,41.5409,41.1109,41.4008,41.2219,41.0378,41.0908,40.8984,41.3200,40.9658,40.9546,40.8740,41.1394,41.3024,40.5705,40.7781,40.9469,40.7732,40.7629,41.1418,41.3750,40.9157,40.5140,40.5532,41.2036,41.1554,41.2608,41.0710,41.0218,41.5290,41.2919,41.1553,41.2842,41.5139,41.6654,40.9482,41.2002,41.3157,40.8916,41.1524,41.1470,40.9184,41.1023,40.7610,41.1260,40.9483,40.8078,40.8382,41.0255,40.8057,40.8580,40.7283,40.8727,41.1026,40.9150,41.0849,41.1712,41.1916,41.3453,41.0977,41.1314,41.0371,41.2439,41.3579,41.8092,41.5158,41.3291,41.1710,41.4925,41.1176,40.8010,40.6968,41.0366,41.0026,40.8697,40.9693,41.4222,40.8089,40.8428,40.8801,41.3635,40.9754,40.9120,41.1417,41.2107,40.9928,40.7866,41.0793,41.2155,41.1269,40.9913,41.1116,41.4562,41.4494,41.2810,41.2913,41.5663,41.3290,40.8018,41.1193,41.1677,41.0660,41.1079,41.1134,40.8866,40.9729,40.9939,40.6228,41.1455,41.0655,40.6680,41.1193,41.0497,41.0306,40.7330,40.7477,41.0540,40.7324,40.8999,41.2653,41.1274,41.1720,41.1756,41.1384,41.4555,41.3172,41.2364,41.1627,41.6045,41.5097,41.5162,41.1799,41.3143,41.1077,40.9534,40.8693,41.3001,41.0527,40.8489,40.9880,41.3016,41.1213,40.9976,41.1673,41.2600,40.8196,40.9598,41.2864,41.1039,40.9682,41.0125,40.7760,41.2795,41.2256,41.0450,40.9601,41.1950,41.1492,41.4647,41.3635,40.7163,41.3038,40.8381,41.0034,41.3413,41.4281,40.9751,40.8733,41.2768,41.1402,41.1529,40.9941,41.1808,40.9677,41.0078,41.1469,41.1874,40.9514,40.7975,40.7416,40.5207,41.0310,41.0663,40.8300,41.4282,40.9800,40.9086,41.0695,41.1855,41.1944,41.6845,41.2334,41.5303,41.6013,40.9841,41.3642,41.2597,41.2393,41.2325,40.9729,41.2873,41.1383,40.8062,41.1158,41.3487,40.9056,40.9093,41.3346,41.2832,40.8724,40.8970,41.0513,41.3366,41.2529,41.0839,40.8400,41.3176,41.2976,41.1633,41.0615,41.7017,41.2804,41.4091,41.2261,41.3812,41.2645,40.9585,41.1441,41.1608,40.7576,40.9374,41.0383,41.4837,40.8120,41.0251,41.2162,40.8845,40.4853,40.7949,41.1033,41.2683,40.8201,40.8881,41.1033,40.9286,41.1873,40.9943,41.0581,41.2476,41.1213,41.3509,41.1310,41.5012,41.1991,41.4348,41.6757,41.6282,41.4046,41.3014,41.6181,41.4080,41.5012,40.7275,41.2887,40.9738,40.7702,41.0585,41.2313,40.7991,41.0038,40.8594,41.1347,41.0553,40.9127,41.3016,41.1178,41.5012,41.0516,40.9209,41.2260,41.3301,41.0842,41.4070,41.4134,41.5027,41.1342,41.3999,42.0322,41.2743,41.6081,40.8218,41.0694,41.5011,41.1519,41.1550,41.2572,41.3348,40.8699,41.1052,41.0199,40.7252,40.9947,40.8780,40.9282,41.0836,41.1591,41.0189,41.2011,40.8202,41.1336,41.1463,41.0585,41.2909,41.2453,41.4887,40.9032,41.1957,41.2386,42.0209,41.6603,41.5943,41.5991,41.5026,41.5435,41.3915,41.3346,41.3980,41.4918,41.3131,41.4225,41.0830,41.2466,41.2067,41.0601,40.9962,41.1371,41.4743,41.0894,40.8870,41.0708,41.1266,41.0727,41.3963,41.2615,41.2661,41.6499,41.6651,41.2379,41.5350,41.3356,41.8524,41.8098,41.5068,41.4858,41.0309,41.3712,41.5167,41.6238,41.3014,41.4816,40.7807,40.9509,41.3719,41.2156,41.3004,41.0501,41.3477,41.5545,41.1858,41.1411,41.1237,41.1557,41.3432,41.2152,41.1769,41.1002,41.2257,41.5183,41.6139,41.3807,41.5964,40.9106,42.1636,41.7423,41.1784,42.3608,41.6705,42.1845,41.4279,41.8253,41.2385,41.2662,41.4444,41.5354,41.4110,41.5342,41.3548,41.1300,41.0887,41.4526,41.4679,41.1416,40.9088,41.2618,40.8089,41.1350,41.3433,41.2428,41.9091,41.3609,41.6119,41.7061,41.8487,41.5917,41.9073,42.0673,41.5437,41.7456,41.2186,41.2736,41.1413,41.5096,41.5283,41.4464,41.1465,41.5645,41.1506,41.4536,41.4167,41.1773,41.3066,41.2192,41.1697,41.1990,41.4560,40.9914,41.1573,41.3651,41.0433,41.5356,41.4175,41.4443,41.4806,41.5959,41.6583,41.2703,41.9931,41.9643,
22:6:17:17:38:55:739,1.1000,78.0000,35.5000,A,0.0000,0.0000,32.1000,99393,162.1040,1173255,-0.0041,-0.0345,2.7657,-0.0022,0.0004,-0.0003,1172966,-5.5935,-5.3761,0.7841,0.0070,-0.0071,0.0974,1172465,130713242,796876330,82800,1,0,9,0.00,0.00,0.00,-329,
22:6:17:17:38:55:856,1.1000,67.0000,25.5000,A,0.0000,0.0000,32.0900,99399,161.5967,1173255,-0.0041,-0.0345,2.7657,-0.0022,0.0004,-0.0003,1172966,-5.5935,-5.3761,0.7841,0.0070,-0.0071,0.0974,1172465,130713242,796876330,82800,1,0,9,0.00,0.00,0.00,-329,
22:6:17:17:38:55:956,1.1000,67.0000,25.5000,A,0.0000,0.0000,32.1100,99395,161.9349,1173503,-0.0042,-0.0346,2.7660,-0.0060,-0.0043,-0.0008,1173465,-5.6164,-5.3796,0.7785,-0.0005,-0.0042,0.0939,1173465,130713239,796876329,82800,0,0,9,0.00,0.00,0.00,-328,
22:6:17:17:38:56:73,1.0000,0.0000,35.5000,A,0.0000,0.0000,32.1000,99399,161.5967,1173628,-0.0041,-0.0347,2.7662,-0.0033,0.0017,-0.0007,1173465,-5.6164,-5.3796,0.7785,-0.0005,-0.0042,0.0939,1173465,130713239,796876329,82800,0,0,9,0.00,0.00,0.00,-328,
22:6:17:17:38:56:172,1.0000,0.0000,35.5000,A,0.0000,0.0000,32.1100,99397,161.7658,1173753,-0.0041,-0.0347,2.7664,0.0016,-0.0020,0.0001,1173465,-5.6164,-5.3796,0.7785,-0.0005,-0.0042,0.0939,1173465,130713239,796876329,82800,0,0,9,0.00,0.00,0.00,-328,
22:6:17:17:38:56:288,0.8000,69.0000,0.0000,A,0.0000,0.0000,32.1100,99387,162.6114,1173875,-0.0041,-0.0347,2.7666,0.0019,0.0026,-0.0007,1173465,-5.6164,-5.3796,0.7785,-0.0005,-0.0042,0.0939,1173465,130713239,796876329,82800,0,0,9,0.00,0.00,0.00,-328,
22:6:17:17:38:56:389,0.8000,69.0000,0.0000,A,0.0000,0.0000,32.1100,99396,161.8504,1173937,-0.0041,-0.0346,2.7667,0.0045,0.0011,0.0005,1173465,-5.6164,-5.3796,0.7785,-0.0005,-0.0042,0.0939,1173465,130713239,796876329,82800,0,0,9,0.00,0.00,0.00,-328,
22:6:17:17:38:56:505,0.7000,63.0000,35.5000,A,0.0000,0.0000,32.1100,99398,161.6812,1174062,-0.0041,-0.0347,2.7667,0.0043,0.0026,0.0009,1173465,-5.6164,-5.3796,0.7785,-0.0005,-0.0042,0.0939,1173465,130713239,796876329,82800,0,0,9,0.00,0.00,0.00,-328,
22:6:17:17:38:56:605,0.7000,63.0000,35.5000,A,0.0000,0.0000,32.1100,99398,161.6812,1174185,-0.0041,-0.0346,2.7669,0.0038,-0.0003,0.0006,1173465,-5.6164,-5.3796,0.7785,-0.0005,-0.0042,0.0939,1173465,130713239,796876329,82800,0,0,9,0.00,0.00,0.00,-328,42.0769,41.7137,41.5491,42.0408,41.4566,41.3886,41.4157,41.5370,41.5083,41.1031,41.2510,41.5934,41.1337,40.7864,41.1442,41.3061,40.7050,40.1076,40.8307,40.9133,41.2303,41.1156,41.2021,41.7628,41.2124,41.0860,41.3795,41.1984,41.5001,40.8518,41.7333,42.0921,41.8095,41.6661,42.2013,41.8367,41.6783,41.7705,42.0038,41.3446,41.1882,40.9196,41.4300,40.9968,41.1203,41.4709,41.2208,41.1194,40.6975,40.7104,40.8968,40.9848,40.7362,40.9332,41.3717,41.7361,41.4175,41.4297,41.2748,41.3928,41.4714,41.2674,41.9782,41.9830,41.2710,41.6595,41.2178,42.0114,41.5906,41.2537,41.4592,41.4245,41.0148,40.8642,40.8878,41.0760,40.8064,40.7822,41.1694,41.1735,40.6500,40.7484,40.6784,40.9331,40.9014,40.9813,41.4510,41.1546,41.2349,40.9935,41.2648,41.1231,41.1465,40.8359,41.3750,41.7060,41.2761,41.4048,41.8536,41.4318,41.4113,41.0718,41.7084,41.3685,41.0583,41.1513,41.1178,41.3472,40.6426,40.7688,41.3581,41.0003,40.6964,41.0296,41.3525,41.0980,40.9406,41.1488,41.3132,40.9876,41.2163,41.2879,41.1248,41.4168,41.1490,40.4685,41.4197,40.9974,41.7618,41.6001,41.1755,41.4166,41.5566,41.0599,41.2234,41.2460,41.1545,40.8321,41.1930,41.4511,41.0966,41.1373,40.9330,41.1416,40.9712,40.8061,40.9610,41.0448,41.1956,40.9450,40.8769,41.1635,41.1895,40.8038,41.3986,41.6499,41.6205,40.9362,41.7491,41.6220,41.3890,41.5756,41.4727,41.0255,41.2542,41.1976,41.0883,41.0397,41.0255,40.9814,41.2405,41.4772,41.0005,41.1718,41.0196,40.5575,40.7024,40.9843,41.3891,40.9348,41.1142,41.1559,40.7825,41.1895,40.8873,40.6622,41.4018,41.0716,41.1204,41.4388,41.3916,41.3747,41.5676,41.1424,41.6692,41.4639,41.3160,40.7942,41.2384,41.0277,41.2808,40.8031,41.5208,41.3368,41.3032,40.9505,40.6665,40.7554,40.9373,40.7346,41.1324,41.0917,41.2850,40.9584,41.2905,41.2506,41.1280,40.8212,41.4429,41.4751,41.3765,40.8992,41.1552,41.6141,41.4959,41.5498,41.4386,41.1459,40.8452,41.1294,41.5396,41.0875,41.0149,41.1527,41.1991,41.4028,41.0893,41.1593,40.9285,40.9468,41.1758,41.0871,41.2422,41.1244,41.1009,40.8636,41.2034,41.3812,40.8989,41.0509,41.5105,40.9760,41.1267,41.2261,41.5292,41.5796,41.4250,41.2338,41.5204,41.9674,41.5772,41.0401,41.1608,41.3776,41.3534,41.1275,40.8154,41.4558,41.2171,41.1421,41.0480,41.0550,40.8274,40.3163,40.8665,41.5571,41.1241,40.9442,41.2748,41.0734,40.8260,40.7404,40.9046,41.2414,40.9988,41.1409,41.7357,41.2310,41.3062,41.3453,41.4384,41.3255,41.4039,41.3079,41.4213,41.2700,40.9831,40.8881,40.9665,41.0773,41.1750,40.8003,41.1682,40.7995,40.6455,40.9703,41.4090,41.3233,41.0482,41.1876,40.9013,41.0890,40.9306,41.0612,41.1622,41.0814,41.2154,40.9755,41.4408,41.7558,41.5378,41.1862,41.2982,41.7542,41.2339,40.7266,41.2586,41.0671,41.1819,40.9776,41.2622,40.8863,41.0063,40.8802,40.8698,40.9368,40.9582,40.6408,41.0653,41.3001,40.8059,41.2240,40.8302,40.7191,40.7562,41.1683,41.1142,41.2455,40.8674,41.0352,41.4886,41.5405,41.2986,41.5281,41.6801,41.3030,41.0545,41.0085,41.0603,41.0103,41.0107,40.9314,40.9685,40.9214,40.9945,40.9610,41.2479,40.9960,40.7548,40.9620,41.1596,41.1781,40.8851,40.9683,40.9286,40.9467,40.8784,40.8988,41.2013,41.4315,41.1452,40.7146,41.2591,41.1908,41.6369,41.1627,41.6873,41.6944,41.5047,41.1297,41.1257,41.1716,41.0484,40.8656,40.8816,41.1291,41.0061,40.5348,40.9973,40.8925,40.9501,40.8463,41.0686,41.0089,40.7875,40.8599,40.9487,41.2444,41.2275,40.8343,41.3258,41.4491,40.8103,40.7988,41.2946,41.3072,41.3959,41.3437,41.6788,41.4715,41.1812,41.2355,41.2773,41.1265,40.7507,40.9860,41.1550,40.9309,41.1582,41.0784,41.1072,41.1322,40.7799,40.9032,41.1792,41.3418,41.3556,40.6012,41.3608,41.1275,41.4432,41.1859,41.1900,41.3139,40.8091,41.0015,41.6105,41.1791,40.6847,41.1637,41.7011,41.3630,41.1666,40.9632,41.1207,41.1905,40.8604,40.9165,41.0078,41.4282,41.3135,40.8475,41.1517,41.1798,40.9868,40.6897,41.2626,41.1545,40.8241,40.8367,40.8728,41.3953,41.4455,41.2387,40.8958,40.8124,41.2084,40.8285,41.6599,41.7482,41.1063,40.9601,41.3702,41.6957,41.0350,40.8165,41.4535,41.1955,40.8390,40.8574,41.3132,41.1509,41.0515,40.6948,41.1638,41.0166,41.2001,40.9647,41.1015,40.8995,40.6799,40.6139,41.0804,40.8439,41.1341,40.8382,41.4071,40.9228,40.8680,41.0430,41.5190,41.6182,41.5442,41.4300,41.3482,41.5512,41.1090,41.2518,41.4026,41.2948,41.2995,40.6982,40.9697,41.2779,41.2171,40.9178,41.0658,41.3473,41.1494,40.7382,40.9093,41.0644,41.0565,40.9703,41.2494,41.1604,41.0227,40.8377,41.1766,41.2406,41.3783,40.6067,42.1590,41.9829,41.2078,41.2799,41.3244,41.3327,41.0116,40.9319,40.9525,41.3585,40.8955,40.8259,41.0395,41.0806,40.8978,40.7899,41.3822,41.1169,40.8431,40.6875,41.3427,41.1169,41.2345,41.2012,41.0089,41.0723,40.9546,40.9793,41.2018,41.6381,41.3464,41.0430,42.0017,41.6926,41.4475,41.2314,41.6756,41.6319,41.5873,41.3480,41.3850,41.4605,40.9868,41.0880,41.2226,41.3961,40.8118,40.8713,41.1727,41.2962,41.0677,40.9254,41.1647,41.2835,41.2114,40.6137,41.4047,41.3976,41.0267,40.9379,41.4206,41.2578,40.9926,41.1489,41.7940,41.8557,41.0940,41.6241,41.5644,41.2599,41.3499,41.0001,41.1707,41.4306,41.3348,40.8699,41.1052,41.0199,40.7252,40.9947,40.8780,40.9282,41.0836,41.1591,41.0189,41.2011,40.8202,41.1336,41.1463,41.0585,41.2909,41.2453,41.4887,40.9032,41.1957,41.2386,42.0209,41.6603,41.5943,41.5991,41.5026,41.5435,41.0680,41.1767,41.2465,41.8327,41.0113,40.9628,41.4079,41.5727,40.9204,40.9223,41.1626,41.7593,41.4870,40.9512,40.9002,41.3939,41.2956,40.7761,41.0889,41.4355,41.4411,41.3304,41.6791,41.2531,41.3700,40.9810,41.8675,42.0294,41.3246,41.5027,41.4222,41.7558,41.0241,41.1241,41.4835,41.4966,40.6371,41.2811,41.3876,41.5429,41.0140,40.9141,41.3630,41.4167,41.0461,41.3071,41.6006,40.8619,41.0452,40.9193,41.3535,41.2777,40.9159,41.1994,41.6303,41.3969,41.2504,41.4823,42.1812,41.7608,41.8173,41.5602,41.4896,42.0090,41.2603,41.1188,41.6043,41.6248,41.6239,41.3843,41.2601,41.8760,41.2096,40.8283,41.2626,41.4665,41.1643,40.9981,41.4012,41.2761,41.3056,40.9871,41.3573,41.5971,41.4149,41.0284,41.4462,42.0877,41.8642,41.6074,42.1295,42.5051,41.3545,41.7645,41.6357,41.6773,40.9756,41.3464,41.5468,41.8069,41.1632,41.2510,41.6642,41.4699,40.6289,41.3516,41.4837,41.2352,41.3437,41.0583,41.1529,41.3287,41.1732,41.3814,41.5662,41.5523,41.2625,41.4616,41.6816,41.7984,41.1061,41.4830,42.4263,42.4085,
22:6:17:17:38:56:783,70.0000,0.0000,0.0000,A,0.0000,0.0000,32.1000,99389,162.4423,1174310,-0.0041,-0.0347,2.7669,0.0029,0.0028,0.0001,1173465,-5.6164,-5.3796,0.7785,-0.0005,-0.0042,0.0939,1173465,130713239,796876329,82800,0,0,9,0.00,0.00,0.00,-328,
22:6:17:17:38:56:882,70.0000,0.0000,0.0000,A,0.0000,0.0000,32.1100,99399,161.5967,1174435,-0.0042,-0.0347,2.7668,-0.0018,-0.0016,-0.0003,1173465,-5.6164,-5.3796,0.7785,-0.0005,-0.0042,0.0939,1173465,130713239,796876329,82800,0,0,9,0.00,0.00,0.00,-328,
22:6:17:17:38:56:998,70.0000,0.0000,0.0000,A,0.0000,0.0000,32.1100,99392,162.1886,1174557,-0.0042,-0.0346,2.7668,-0.0048,0.0011,-0.0010,1173465,-5.6164,-5.3796,0.7785,-0.0005,-0.0042,0.0939,1173465,130713239,796876329,82800,0,0,9,0.00,0.00,0.00,-328,
22:6:17:17:38:57:97,70.0000,0.0000,0.0000,A,0.0000,0.0000,32.1100,99401,161.4276,1174682,-0.0043,-0.0347,2.7669,-0.0048,-0.0038,-0.0015,1173465,-5.6164,-5.3796,0.7785,-0.0005,-0.0042,0.0939,1173465,130713239,796876329,82800,0,0,9,0.00,0.00,0.00,-328,
22:6:17:17:38:57:214,0.0000,0.0000,0.0000,A,0.0000,0.0000,32.1000,99394,162.0195,1174743,-0.0043,-0.0347,2.7670,-0.0057,-0.0013,-0.0010,1173465,-5.6164,-5.3796,0.7785,-0.0005,-0.0042,0.0939,1173465,130713239,796876329,82800,0,0,9,0.00,0.00,0.00,-328,
22:6:17:17:38:57:314,0.0000,0.0000,0.0000,A,0.0000,0.0000,32.0900,99391,162.2732,1174868,-0.0043,-0.0346,2.7672,-0.0033,-0.0031,-0.0005,1173465,-5.6164,-5.3796,0.7785,-0.0005,-0.0042,0.0939,1173465,130713239,796876329,82800,0,0,9,0.00,0.00,0.00,-328,
22:6:17:17:38:57:430,0.0000,0.0000,0.0000,A,0.0000,0.0000,32.1100,99400,161.5121,1174930,-0.0043,-0.0347,2.7673,-0.0032,-0.0015,-0.0005,1173465,-5.6164,-5.3796,0.7785,-0.0005,-0.0042,0.0939,1174966,130713235,796876329,82770,0,0,10,0.00,0.00,0.00,-355,
22:6:17:17:38:57:529,0.0000,0.0000,0.0000,A,0.0000,0.0000,32.1100,99399,161.5967,1175115,-0.0043,-0.0347,2.7675,0.0018,-0.0015,0.0002,1173465,-5.6164,-5.3796,0.7785,-0.0005,-0.0042,0.0939,1174966,130713235,796876329,82770,0,0,10,0.00,0.00,0.00,-355,
22:6:17:17:38:57:645,0.0000,0.0000,0.0000,A,0.0000,0.0000,32.1100,99397,161.7658,1175178,-0.0042,-0.0348,2.7676,0.0046,0.0004,0.0004,1173465,-5.6164,-5.3796,0.7785,-0.0005,-0.0042,0.0939,1174966,130713235,796876329,82770,0,0,10,0.00,0.00,0.00,-355,42.3171,41.2737,41.7727,41.8356,41.4666,41.3942,41.4257,41.3573,41.3414,41.1088,41.6090,41.5989,41.3121,41.1295,40.9877,41.3115,40.8811,40.6173,40.8406,40.9185,40.8949,40.6046,41.0344,41.2249,41.4054,40.9006,41.3896,41.2025,41.0983,41.0676,41.7438,41.6408,41.5888,41.6761,41.9976,41.6401,41.4944,41.5912,41.4615,41.1726,41.3671,41.1016,41.6049,41.3445,41.2912,40.8189,41.7144,41.1291,40.7033,40.5560,40.7333,40.8269,41.2486,40.7746,41.2029,41.3911,41.4228,41.2545,41.6665,41.7970,40.8667,41.2776,42.2003,41.5482,41.7125,41.4562,42.0284,41.6281,41.6007,41.0775,41.6457,41.4300,41.1905,40.8701,40.8975,41.0817,40.9735,40.9465,41.1792,41.0208,40.6598,40.7543,41.0075,41.2592,41.3920,40.6636,41.2944,41.1597,40.9020,40.6440,41.4582,41.3152,41.1567,41.2245,41.8044,41.4967,41.4926,41.0043,41.8577,41.4416,41.2361,41.0815,41.5399,41.2082,41.0640,40.8353,41.1229,41.1984,40.9582,40.7784,41.0515,41.0100,40.5454,40.5708,41.3577,41.1077,40.7884,40.8410,41.4822,40.8330,41.3903,40.9495,41.1292,41.4267,41.3440,40.6685,41.8355,41.4268,41.3662,41.2128,41.7568,41.0504,41.5666,41.2386,41.2333,41.0841,41.0046,40.9971,40.8911,41.2993,40.9542,41.1435,41.3996,40.9947,40.9810,40.5086,41.1241,41.2044,41.0506,40.7951,41.0456,41.1688,41.0364,41.1405,41.4086,41.3084,41.4494,41.1279,41.5593,41.8265,41.1934,41.1995,41.2868,41.4014,40.9114,41.0374,41.2571,41.0494,40.8735,40.9910,41.3994,41.3309,40.7060,41.1814,41.0250,40.5670,41.0108,40.9939,40.9376,41.0972,41.2736,41.3193,41.1020,41.1992,41.0545,41.1619,41.2342,41.0814,41.1253,41.2659,41.5933,41.3849,41.3830,41.1480,41.6792,41.4693,41.3259,40.6363,41.4106,41.1939,41.1384,40.6565,41.0762,41.4921,41.3130,40.6618,40.9739,40.7613,41.0944,40.7407,41.1421,41.3976,41.1473,40.9643,41.1438,41.4134,41.4482,40.9877,41.1224,41.1432,41.0378,41.2597,41.1654,41.6178,41.5006,41.3725,41.6213,41.5121,40.8506,40.8160,41.2234,40.9384,40.7183,40.8622,41.3547,41.2637,41.2426,41.0232,41.0811,40.6580,40.8892,40.9489,40.8051,40.9852,41.2541,40.8732,41.0532,41.0792,41.2132,40.9012,41.1878,41.3225,40.9583,41.0608,41.7207,41.5898,41.4351,40.8674,41.5304,41.8000,41.4274,40.8854,41.1707,41.3835,41.2138,40.9807,40.8251,41.1648,41.2269,40.8606,40.7642,41.2058,40.5496,40.3225,41.0253,41.1243,41.1339,40.8048,40.8310,41.3815,40.9919,40.7460,40.9145,40.9126,41.1800,40.7973,41.5600,41.6084,40.9353,40.9870,41.4428,41.5062,41.2497,41.6359,41.5825,41.2797,40.9888,41.2008,40.9718,40.9388,41.0361,41.2391,40.8841,41.0960,40.7942,40.2593,41.1189,41.0424,41.0541,41.0524,41.0562,41.0987,40.9364,41.0710,41.3301,41.2570,41.2205,41.1581,41.4449,41.3974,41.1769,41.1918,41.4826,41.7599,41.0835,40.5708,40.9564,41.2290,41.1917,40.5387,41.1241,41.3361,41.0160,41.0313,40.7359,41.2347,41.1097,40.6470,40.9298,40.8680,40.9611,41.0822,40.6881,40.7245,40.7660,40.8660,41.2834,41.4109,41.2122,41.2098,41.6817,41.1751,41.4879,41.3548,41.6844,41.4830,41.2188,41.0182,41.2200,41.1751,41.0165,41.2347,40.9737,41.2252,41.1442,40.8269,40.8264,41.0057,40.9023,40.8284,41.1649,41.3330,40.8910,40.8304,41.0843,41.1080,40.7311,40.7550,41.3641,41.2817,40.9840,41.0619,41.6253,41.2009,41.4610,40.9851,41.3520,41.8696,41.1893,40.8201,41.1356,41.1775,41.0583,40.7226,41.0398,41.1350,41.3012,40.5410,41.0070,41.1872,40.9599,40.8525,41.0784,41.1601,40.9425,40.5746,40.9586,40.9458,40.9315,40.9929,41.0140,41.2925,40.9854,41.1366,41.6650,41.6756,40.8424,41.3536,41.3390,41.3122,40.8615,41.2452,40.9712,40.8293,41.0538,40.6986,41.1600,41.0877,40.7351,40.9460,41.1124,41.1419,40.9270,40.7721,41.0403,41.0615,41.0724,40.7555,41.2169,40.9858,40.9940,41.3476,41.1946,41.0012,40.9794,41.0114,41.6145,41.3718,41.2561,41.5283,41.1951,41.3685,41.1766,41.1259,41.1307,41.1963,41.0210,41.2192,41.1642,41.2917,41.1811,40.8537,41.0193,41.1856,40.9965,40.6958,40.9817,41.1601,40.8339,40.6985,41.0347,41.2495,40.9934,41.0886,41.0680,41.1410,41.0527,41.0010,41.4885,41.9359,41.1103,41.1495,41.3741,41.5365,41.2002,40.8263,40.9941,41.5129,40.6937,40.8671,41.1716,41.1605,41.1994,40.5611,41.1687,41.3131,40.9208,40.8328,41.1064,41.0534,40.9769,41.0544,41.5396,41.1568,41.2933,40.5354,41.4115,40.9327,41.2045,41.2195,41.3413,41.6284,41.5546,41.0659,41.1834,41.7298,40.9552,41.0975,41.0977,41.1461,41.1590,40.8552,40.8285,41.4327,41.2270,40.9238,41.2196,41.4992,41.1593,40.7442,40.9192,41.3616,40.9200,40.9761,41.2594,41.1657,41.1866,41.0011,41.3513,41.4099,41.0506,41.1280,41.6181,41.6170,41.0220,41.2899,41.5023,41.5162,41.0162,40.7817,41.1141,40.7550,40.5985,40.6843,41.1951,41.3888,40.7580,40.6543,41.2439,41.4176,40.8486,40.9898,41.2008,40.8349,41.0938,40.9161,41.3198,41.2350,40.8062,41.1459,41.5341,41.3203,40.8412,40.8811,41.6384,41.7029,41.2621,41.4236,41.3259,41.4623,41.2660,41.0208,41.2344,41.3074,40.8433,40.7888,41.0812,41.5532,40.6733,40.7320,40.8820,41.3017,40.9301,40.7847,41.3241,41.2888,41.0700,40.7699,41.1011,41.4027,41.1951,41.2631,41.2645,41.6027,41.0029,40.7960,41.4250,41.6659,41.4914,41.4476,40.8419,41.4449,41.1874,41.0100,41.3350,41.4404,41.0488,41.0452,40.9726,41.1957,40.7442,40.7265,41.1972,41.2491,41.2491,40.7453,41.1876,41.2251,40.8392,40.8587,41.1655,41.0830,40.9933,40.9512,42.0062,41.2718,41.0395,41.0865,41.6630,41.8825,41.2252,41.4254,41.3431,41.7459,41.0783,41.0107,41.0913,41.3467,41.3366,41.2838,41.4180,41.5780,41.2298,40.7771,41.1727,41.1560,41.0380,40.8054,41.3755,41.0898,41.1498,40.9366,41.4199,41.4403,40.9657,41.1683,41.5160,41.6079,41.2005,41.1704,41.6803,42.0325,40.9249,41.3186,41.4245,41.7659,41.0276,41.1341,40.8223,41.3419,40.8002,41.4484,41.3914,41.7088,41.0186,40.9240,41.3670,41.4266,41.0509,41.0143,41.1432,41.1804,41.0499,40.9292,41.3573,41.4497,40.9204,41.3769,41.8081,41.5833,41.0726,40.9380,41.7869,42.1767,42.0347,41.7691,41.8930,42.0134,41.0880,41.3043,41.4393,41.6295,41.4686,41.0597,41.7640,41.8810,41.0608,40.6760,41.1126,41.6276,40.8569,41.1605,40.9327,41.1208,40.9939,40.9923,41.5358,41.7711,41.2553,41.3802,41.8181,41.5426,41.4984,41.4187,41.9344,42.2982,41.5653,41.1576,41.2401,41.3022,40.9781,41.1758,41.1958,41.8172,40.8331,41.4263,41.5019,41.4800,40.9548,40.8868,41.4868,41.2453,41.1893,40.9115,41.1560,41.1784,41.3379,41.0686,41.4008,41.7320,41.0943,41.4719,42.0479,41.8088,41.4890,41.1053,42.6337,42.4193,
22:6:17:17:38:57:805,0.0000,0.0000,0.0000,A,0.0000,0.0000,32.1000,99393,162.1040,1175303,-0.0043,-0.0347,2.7677,0.0043,0.0013,0.0009,1173465,-5.6164,-5.3796,0.7785,-0.0005,-0.0042,0.0939,1174966,130713235,796876329,82770,0,0,10,0.00,0.00,0.00,-355,
22:6:17:17:38:57:920,0.0000,35.4000,0.0000,A,0.0000,0.0000,32.1000,99397,161.7658,1175303,-0.0043,-0.0347,2.7677,0.0043,0.0013,0.0009,1173465,-5.6164,-5.3796,0.7785,-0.0005,-0.0042,0.0939,1175465,130713233,796876329,82750,0,1,10,0.00,0.00,0.00,-373,
22:6:17:17:38:58:19,0.0000,35.4000,0.0000,A,0.0000,0.0000,32.1100,99397,161.7658,1175303,-0.0043,-0.0347,2.7677,0.0043,0.0013,0.0009,1173465,-5.6164,-5.3796,0.7785,-0.0005,-0.0042,0.0939,1175465,130713233,796876329,82750,0,1,10,0.00,0.00,0.00,-373,
22:6:17:17:38:58:135,0.3000,35.4000,0.0000,A,0.0000,0.0000,32.1100,99398,161.6812,1175675,-0.0045,-0.0349,2.7677,-0.0012,0.0010,-0.0003,1173465,-5.6164,-5.3796,0.7785,-0.0005,-0.0042,0.0939,1175465,130713233,796876329,82750,0,1,10,0.00,0.00,0.00,-373,
22:6:17:17:38:58:236,0.3000,35.4000,0.0000,A,0.0000,0.0000,32.1100,99391,162.2732,1175797,-0.0045,-0.0349,2.7679,-0.0046,-0.0022,-0.0010,1173465,-5.6164,-5.3796,0.7785,-0.0005,-0.0042,0.0939,1175465,130713233,796876329,82750,0,1,10,0.00,0.00,0.00,-373,
22:6:17:17:38:58:352,0.2000,51.0000,0.0000,A,0.0000,0.0000,32.1100,99394,162.0195,1175922,-0.0046,-0.0349,2.7680,-0.0054,-0.0001,-0.0008,1173465,-5.6164,-5.3796,0.7785,-0.0005,-0.0042,0.0939,1175465,130713233,796876329,82750,0,1,10,0.00,0.00,0.00,-373,
22:6:17:17:38:58:452,0.2000,51.0000,0.0000,A,0.0000,0.0000,32.1200,99394,162.0195,1175985,-0.0047,-0.0349,2.7680,-0.0056,-0.0020,-0.0015,1173465,-5.6164,-5.3796,0.7785,-0.0005,-0.0042,0.0939,1175465,130713233,796876329,82750,0,1,10,0.00,0.00,0.00,-373,
22:6:17:17:38:58:568,0.2000,51.0000,0.0000,A,0.0000,0.0000,32.1200,99397,161.7658,1176107,-0.0046,-0.0350,2.7680,-0.0038,0.0001,-0.0006,1173465,-5.6164,-5.3796,0.7785,-0.0005,-0.0042,0.0939,1175465,130713233,796876329,82750,0,1,10,0.00,0.00,0.00,-373,
