Timestamp,Wind speed,Wind angle,Acoustic temperature windsensor,Temperature validity,Temperature_aht10,Relative humidity_aht10,Temperature_ms5611,Pressure_ms5611,Absolute_altitude_ms5611,timestamp_pix_attitude,Roll,Pitch,Yaw,Roll speed,Pitch speed,Yaw speed,timestamp_pix_loc_pos,x,y,z,vx,vy,vz,timestamp_pix_gps,pix_lat,pix_lon,pix_alt,pix_gps_vx,pix_gps_vy,pix_gps_vz,latitude,longitude,altitude_gps,relative_altitude_gps,Pixel_0,Pixel_1,Pixel_2,Pixel_3,Pixel_4,Pixel_5,Pixel_6,Pixel_7,Pixel_8,Pixel_9,Pixel_10,Pixel_11,Pixel_12,Pixel_13,Pixel_14,Pixel_15,Pixel_16,Pixel_17,Pixel_18,Pixel_19,Pixel_20,Pixel_21,Pixel_22,Pixel_23,Pixel_24,Pixel_25,Pixel_26,Pixel_27,Pixel_28,Pixel_29,Pixel_30,Pixel_31,Pixel_32,Pixel_33,Pixel_34,Pixel_35,Pixel_36,Pixel_37,Pixel_38,Pixel_39,Pixel_40,Pixel_41,Pixel_42,Pixel_43,Pixel_44,Pixel_45,Pixel_46,Pixel_47,Pixel_48,Pixel_49,Pixel_50,Pixel_51,Pixel_52,Pixel_53,Pixel_54,Pixel_55,Pixel_56,Pixel_57,Pixel_58,Pixel_59,Pixel_60,Pixel_61,Pixel_62,Pixel_63,Pixel_64,Pixel_65,Pixel_66,Pixel_67,Pixel_68,Pixel_69,Pixel_70,Pixel_71,Pixel_72,Pixel_73,Pixel_74,Pixel_75,Pixel_76,Pixel_77,Pixel_78,Pixel_79,Pixel_80,Pixel_81,Pixel_82,Pixel_83,Pixel_84,Pixel_85,Pixel_86,Pixel_87,Pixel_88,Pixel_89,Pixel_90,Pixel_91,Pixel_92,Pixel_93,Pixel_94,Pixel_95,Pixel_96,Pixel_97,Pixel_98,Pixel_99,Pixel_100,Pixel_101,Pixel_102,Pixel_103,Pixel_104,Pixel_105,Pixel_106,Pixel_107,Pixel_108,Pixel_109,Pixel_110,Pixel_111,Pixel_112,Pixel_113,Pixel_114,Pixel_115,Pixel_116,Pixel_117,Pixel_118,Pixel_119,Pixel_120,Pixel_121,Pixel_122,Pixel_123,Pixel_124,Pixel_125,Pixel_126,Pixel_127,Pixel_128,Pixel_129,Pixel_130,Pixel_131,Pixel_132,Pixel_133,Pixel_134,Pixel_135,Pixel_136,Pixel_137,Pixel_138,Pixel_139,Pixel_140,Pixel_141,Pixel_142,Pixel_143,Pixel_144,Pixel_145,Pixel_146,Pixel_147,Pixel_148,Pixel_149,Pixel_150,Pixel_151,Pixel_152,Pixel_153,Pixel_154,Pixel_155,Pixel_156,Pixel_157,Pixel_158,Pixel_159,Pixel_160,Pixel_161,Pixel_162,Pixel_163,Pixel_164,Pixel_165,Pixel_166,Pixel_167,Pixel_168,Pixel_169,Pixel_170,Pixel_171,Pixel_172,Pixel_173,Pixel_174,Pixel_175,Pixel_176,Pixel_177,Pixel_178,Pixel_179,Pixel_180,Pixel_181,Pixel_182,Pixel_183,Pixel_184,Pixel_185,Pixel_186,Pixel_187,Pixel_188,Pixel_189,Pixel_190,Pixel_191,Pixel_192,Pixel_193,Pixel_194,Pixel_195,Pixel_196,Pixel_197,Pixel_198,Pixel_199,Pixel_200,Pixel_201,Pixel_202,Pixel_203,Pixel_204,Pixel_205,Pixel_206,Pixel_207,Pixel_208,Pixel_209,Pixel_210,Pixel_211,Pixel_212,Pixel_213,Pixel_214,Pixel_215,Pixel_216,Pixel_217,Pixel_218,Pixel_219,Pixel_220,Pixel_221,Pixel_222,Pixel_223,Pixel_224,Pixel_225,Pixel_226,Pixel_227,Pixel_228,Pixel_229,Pixel_230,Pixel_231,Pixel_232,Pixel_233,Pixel_234,Pixel_235,Pixel_236,Pixel_237,Pixel_238,Pixel_239,Pixel_240,Pixel_241,Pixel_242,Pixel_243,Pixel_244,Pixel_245,Pixel_246,Pixel_247,Pixel_248,Pixel_249,Pixel_250,Pixel_251,Pixel_252,Pixel_253,Pixel_254,Pixel_255,Pixel_256,Pixel_257,Pixel_258,Pixel_259,Pixel_260,Pixel_261,Pixel_262,Pixel_263,Pixel_264,Pixel_265,Pixel_266,Pixel_267,Pixel_268,Pixel_269,Pixel_270,Pixel_271,Pixel_272,Pixel_273,Pixel_274,Pixel_275,Pixel_276,Pixel_277,Pixel_278,Pixel_279,Pixel_280,Pixel_281,Pixel_282,Pixel_283,Pixel_284,Pixel_285,Pixel_286,Pixel_287,Pixel_288,Pixel_289,Pixel_290,Pixel_291,Pixel_292,Pixel_293,Pixel_294,Pixel_295,Pixel_296,Pixel_297,Pixel_298,Pixel_299,Pixel_300,Pixel_301,Pixel_302,Pixel_303,Pixel_304,Pixel_305,Pixel_306,Pixel_307,Pixel_308,Pixel_309,Pixel_310,Pixel_311,Pixel_312,Pixel_313,Pixel_314,Pixel_315,Pixel_316,Pixel_317,Pixel_318,Pixel_319,Pixel_320,Pixel_321,Pixel_322,Pixel_323,Pixel_324,Pixel_325,Pixel_326,Pixel_327,Pixel_328,Pixel_329,Pixel_330,Pixel_331,Pixel_332,Pixel_333,Pixel_334,Pixel_335,Pixel_336,Pixel_337,Pixel_338,Pixel_339,Pixel_340,Pixel_341,Pixel_342,Pixel_343,Pixel_344,Pixel_345,Pixel_346,Pixel_347,Pixel_348,Pixel_349,Pixel_350,Pixel_351,Pixel_352,Pixel_353,Pixel_354,Pixel_355,Pixel_356,Pixel_357,Pixel_358,Pixel_359,Pixel_360,Pixel_361,Pixel_362,Pixel_363,Pixel_364,Pixel_365,Pixel_366,Pixel_367,Pixel_368,Pixel_369,Pixel_370,Pixel_371,Pixel_372,Pixel_373,Pixel_374,Pixel_375,Pixel_376,Pixel_377,Pixel_378,Pixel_379,Pixel_380,Pixel_381,Pixel_382,Pixel_383,Pixel_384,Pixel_385,Pixel_386,Pixel_387,Pixel_388,Pixel_389,Pixel_390,Pixel_391,Pixel_392,Pixel_393,Pixel_394,Pixel_395,Pixel_396,Pixel_397,Pixel_398,Pixel_399,Pixel_400,Pixel_401,Pixel_402,Pixel_403,Pixel_404,Pixel_405,Pixel_406,Pixel_407,Pixel_408,Pixel_409,Pixel_410,Pixel_411,Pixel_412,Pixel_413,Pixel_414,Pixel_415,Pixel_416,Pixel_417,Pixel_418,Pixel_419,Pixel_420,Pixel_421,Pixel_422,Pixel_423,Pixel_424,Pixel_425,Pixel_426,Pixel_427,Pixel_428,Pixel_429,Pixel_430,Pixel_431,Pixel_432,Pixel_433,Pixel_434,Pixel_435,Pixel_436,Pixel_437,Pixel_438,Pixel_439,Pixel_440,Pixel_441,Pixel_442,Pixel_443,Pixel_444,Pixel_445,Pixel_446,Pixel_447,Pixel_448,Pixel_449,Pixel_450,Pixel_451,Pixel_452,Pixel_453,Pixel_454,Pixel_455,Pixel_456,Pixel_457,Pixel_458,Pixel_459,Pixel_460,Pixel_461,Pixel_462,Pixel_463,Pixel_464,Pixel_465,Pixel_466,Pixel_467,Pixel_468,Pixel_469,Pixel_470,Pixel_471,Pixel_472,Pixel_473,Pixel_474,Pixel_475,Pixel_476,Pixel_477,Pixel_478,Pixel_479,Pixel_480,Pixel_481,Pixel_482,Pixel_483,Pixel_484,Pixel_485,Pixel_486,Pixel_487,Pixel_488,Pixel_489,Pixel_490,Pixel_491,Pixel_492,Pixel_493,Pixel_494,Pixel_495,Pixel_496,Pixel_497,Pixel_498,Pixel_499,Pixel_500,Pixel_501,Pixel_502,Pixel_503,Pixel_504,Pixel_505,Pixel_506,Pixel_507,Pixel_508,Pixel_509,Pixel_510,Pixel_511,Pixel_512,Pixel_513,Pixel_514,Pixel_515,Pixel_516,Pixel_517,Pixel_518,Pixel_519,Pixel_520,Pixel_521,Pixel_522,Pixel_523,Pixel_524,Pixel_525,Pixel_526,Pixel_527,Pixel_528,Pixel_529,Pixel_530,Pixel_531,Pixel_532,Pixel_533,Pixel_534,Pixel_535,Pixel_536,Pixel_537,Pixel_538,Pixel_539,Pixel_540,Pixel_541,Pixel_542,Pixel_543,Pixel_544,Pixel_545,Pixel_546,Pixel_547,Pixel_548,Pixel_549,Pixel_550,Pixel_551,Pixel_552,Pixel_553,Pixel_554,Pixel_555,Pixel_556,Pixel_557,Pixel_558,Pixel_559,Pixel_560,Pixel_561,Pixel_562,Pixel_563,Pixel_564,Pixel_565,Pixel_566,Pixel_567,Pixel_568,Pixel_569,Pixel_570,Pixel_571,Pixel_572,Pixel_573,Pixel_574,Pixel_575,Pixel_576,Pixel_577,Pixel_578,Pixel_579,Pixel_580,Pixel_581,Pixel_582,Pixel_583,Pixel_584,Pixel_585,Pixel_586,Pixel_587,Pixel_588,Pixel_589,Pixel_590,Pixel_591,Pixel_592,Pixel_593,Pixel_594,Pixel_595,Pixel_596,Pixel_597,Pixel_598,Pixel_599,Pixel_600,Pixel_601,Pixel_602,Pixel_603,Pixel_604,Pixel_605,Pixel_606,Pixel_607,Pixel_608,Pixel_609,Pixel_610,Pixel_611,Pixel_612,Pixel_613,Pixel_614,Pixel_615,Pixel_616,Pixel_617,Pixel_618,Pixel_619,Pixel_620,Pixel_621,Pixel_622,Pixel_623,Pixel_624,Pixel_625,Pixel_626,Pixel_627,Pixel_628,Pixel_629,Pixel_630,Pixel_631,Pixel_632,Pixel_633,Pixel_634,Pixel_635,Pixel_636,Pixel_637,Pixel_638,Pixel_639,Pixel_640,Pixel_641,Pixel_642,Pixel_643,Pixel_644,Pixel_645,Pixel_646,Pixel_647,Pixel_648,Pixel_649,Pixel_650,Pixel_651,Pixel_652,Pixel_653,Pixel_654,Pixel_655,Pixel_656,Pixel_657,Pixel_658,Pixel_659,Pixel_660,Pixel_661,Pixel_662,Pixel_663,Pixel_664,Pixel_665,Pixel_666,Pixel_667,Pixel_668,Pixel_669,Pixel_670,Pixel_671,Pixel_672,Pixel_673,Pixel_674,Pixel_675,Pixel_676,Pixel_677,Pixel_678,Pixel_679,Pixel_680,Pixel_681,Pixel_682,Pixel_683,Pixel_684,Pixel_685,Pixel_686,Pixel_687,Pixel_688,Pixel_689,Pixel_690,Pixel_691,Pixel_692,Pixel_693,Pixel_694,Pixel_695,Pixel_696,Pixel_697,Pixel_698,Pixel_699,Pixel_700,Pixel_701,Pixel_702,Pixel_703,Pixel_704,Pixel_705,Pixel_706,Pixel_707,Pixel_708,Pixel_709,Pixel_710,Pixel_711,Pixel_712,Pixel_713,Pixel_714,Pixel_715,Pixel_716,Pixel_717,Pixel_718,Pixel_719,Pixel_720,Pixel_721,Pixel_722,Pixel_723,Pixel_724,Pixel_725,Pixel_726,Pixel_727,Pixel_728,Pixel_729,Pixel_730,Pixel_731,Pixel_732,Pixel_733,Pixel_734,Pixel_735,Pixel_736,Pixel_737,Pixel_738,Pixel_739,Pixel_740,Pixel_741,Pixel_742,Pixel_743,Pixel_744,Pixel_745,Pixel_746,Pixel_747,Pixel_748,Pixel_749,Pixel_750,Pixel_751,Pixel_752,Pixel_753,Pixel_754,Pixel_755,Pixel_756,Pixel_757,Pixel_758,Pixel_759,Pixel_760,Pixel_761,Pixel_762,Pixel_763,Pixel_764,Pixel_765,Pixel_766,Pixel_767,
22:6:17:16:40:1:398,0.0000,0.0000,0.0000,,0.0000,0.0000,32.6100,99388,162.5269,64209,-0.0019,0.0003,0.7035,0.0000,-0.0070,0.0009,0,0.0000,0.0000,0.0000,0.0000,0.0000,0.0000,64209,130714030,796877050,84510,1,0,0,0.00,0.00,0.00,71,
22:6:17:16:40:1:497,0.0000,0.0000,0.0000,,0.0000,0.0000,32.6200,99385,162.7806,64334,-0.0020,0.0012,0.7032,-0.0050,-0.0153,0.0006,0,0.0000,0.0000,0.0000,0.0000,0.0000,0.0000,64209,130714030,796877050,84510,1,0,0,0.00,0.00,0.00,71,
22:6:17:16:40:1:612,0.0000,0.0000,0.0000,,0.0000,0.0000,32.6200,99382,163.0343,64395,-0.0016,0.0006,0.7031,0.0039,-0.0054,-0.0001,0,0.0000,0.0000,0.0000,0.0000,0.0000,0.0000,64209,130714030,796877050,84510,1,0,0,0.00,0.00,0.00,71,nan,544.2230,nan,544.1412,nan,544.2230,nan,544.1412,nan,544.2230,nan,544.1412,nan,544.2230,nan,544.1412,nan,544.2230,nan,544.1412,nan,544.2230,nan,544.1412,nan,544.2230,nan,544.1412,0.0000,0.0000,0.0000,0.0000,0.0000,0.0000,0.0000,0.0000,0.0000,0.0000,0.0000,0.0000,0.0000,0.0000,0.0000,0.0000,0.0000,0.0000,0.0000,0.0000,0.0000,0.0000,0.0000,0.0000,0.0000,0.0000,0.0000,0.0000,0.0000,0.0000,0.0000,0.0000,0.0000,0.0000,0.0000,0.0000,0.0000,0.0000,0.0000,0.0000,0.0000,0.0000,0.0000,0.0000,0.0000,0.0000,0.0000,0.0000,0.0000,0.0000,0.0000,0.0000,0.0000,0.0000,0.0000,0.0000,0.0000,0.0000,0.0000,0.0000,0.0000,0.0000,0.0000,0.0000,0.0000,0.0000,0.0000,0.0000,0.0000,0.0000,0.0000,0.0000,0.0000,0.0000,0.0000,0.0000,0.0000,0.0000,0.0000,0.0000,0.0000,0.0000,0.0000,0.0000,0.0000,0.0000,0.0000,0.0000,0.0000,0.0000,0.0000,0.0000,0.0000,0.0000,0.0000,0.0000,0.0000,0.0000,0.0000,0.0000,0.0000,0.0000,0.0000,0.0000,0.0000,0.0000,0.0000,0.0000,0.0000,0.0000,0.0000,0.0000,0.0000,0.0000,0.0000,0.0000,0.0000,0.0000,0.0000,0.0000,0.0000,0.0000,0.0000,0.0000,0.0000,0.0000,0.0000,0.0000,0.0000,0.0000,0.0000,0.0000,0.0000,0.0000,0.0000,0.0000,0.0000,0.0000,0.0000,0.0000,0.0000,0.0000,0.0000,0.0000,0.0000,0.0000,0.0000,0.0000,0.0000,0.0000,0.0000,0.0000,0.0000,0.0000,0.0000,0.0000,0.0000,0.0000,0.0000,0.0000,0.0000,0.0000,0.0000,0.0000,0.0000,0.0000,0.0000,0.0000,0.0000,0.0000,0.0000,0.0000,0.0000,0.0000,0.0000,0.0000,0.0000,0.0000,0.0000,0.0000,0.0000,0.0000,0.0000,0.0000,0.0000,0.0000,0.0000,0.0000,0.0000,0.0000,0.0000,0.0000,0.0000,0.0000,0.0000,0.0000,0.0000,0.0000,0.0000,0.0000,0.0000,0.0000,0.0000,0.0000,0.0000,0.0000,0.0000,0.0000,0.0000,0.0000,0.0000,0.0000,0.0000,0.0000,0.0000,0.0000,0.0000,0.0000,0.0000,0.0000,0.0000,0.0000,0.0000,0.0000,0.0000,0.0000,0.0000,0.0000,0.0000,0.0000,0.0000,0.0000,0.0000,0.0000,0.0000,0.0000,0.0000,0.0000,0.0000,0.0000,0.0000,0.0000,0.0000,0.0000,0.0000,0.0000,0.0000,0.0000,0.0000,0.0000,0.0000,0.0000,0.0000,0.0000,0.0000,0.0000,0.0000,0.0000,0.0000,0.0000,0.0000,0.0000,0.0000,0.0000,0.0000,0.0000,0.0000,0.0000,0.0000,0.0000,0.0000,0.0000,0.0000,0.0000,0.0000,0.0000,0.0000,0.0000,0.0000,0.0000,0.0000,0.0000,0.0000,0.0000,0.0000,0.0000,0.0000,0.0000,0.0000,0.0000,0.0000,0.0000,0.0000,0.0000,0.0000,0.0000,0.0000,0.0000,0.0000,0.0000,0.0000,0.0000,0.0000,0.0000,0.0000,0.0000,0.0000,0.0000,0.0000,0.0000,0.0000,0.0000,0.0000,0.0000,0.0000,0.0000,0.0000,0.0000,0.0000,0.0000,0.0000,0.0000,0.0000,0.0000,0.0000,0.0000,0.0000,0.0000,0.0000,0.0000,0.0000,0.0000,0.0000,0.0000,0.0000,0.0000,0.0000,0.0000,0.0000,0.0000,0.0000,0.0000,0.0000,0.0000,0.0000,0.0000,0.0000,0.0000,0.0000,0.0000,0.0000,0.0000,0.0000,0.0000,0.0000,0.0000,0.0000,0.0000,0.0000,0.0000,0.0000,0.0000,0.0000,0.0000,0.0000,0.0000,0.0000,0.0000,0.0000,0.0000,0.0000,0.0000,0.0000,0.0000,0.0000,0.0000,0.0000,0.0000,0.0000,0.0000,0.0000,0.0000,0.0000,0.0000,0.0000,0.0000,0.0000,0.0000,0.0000,0.0000,0.0000,0.0000,0.0000,0.0000,0.0000,0.0000,0.0000,0.0000,0.0000,0.0000,0.0000,0.0000,0.0000,0.0000,0.0000,0.0000,0.0000,0.0000,0.0000,0.0000,0.0000,0.0000,0.0000,0.0000,0.0000,0.0000,0.0000,0.0000,0.0000,0.0000,nan,544.2230,nan,544.1412,nan,544.2230,nan,544.1412,nan,544.2230,nan,544.1412,nan,544.2230,nan,544.1412,nan,544.2230,nan,544.1412,nan,544.2230,nan,544.1412,nan,544.2230,nan,544.1412,nan,544.2230,nan,544.1412,0.0000,0.0000,0.0000,0.0000,0.0000,0.0000,0.0000,0.0000,0.0000,0.0000,0.0000,0.0000,0.0000,0.0000,0.0000,0.0000,0.0000,0.0000,0.0000,0.0000,0.0000,0.0000,0.0000,0.0000,0.0000,0.0000,0.0000,0.0000,0.0000,0.0000,0.0000,0.0000,nan,353.2035,nan,473.0941,nan,nan,nan,473.0941,nan,473.2077,nan,588.6469,nan,473.2077,nan,473.0941,nan,544.2230,nan,544.1412,nan,473.2077,nan,473.0941,nan,473.2077,nan,nan,nan,473.2077,nan,nan,0.0000,0.0000,0.0000,0.0000,0.0000,0.0000,0.0000,0.0000,0.0000,0.0000,0.0000,0.0000,0.0000,0.0000,0.0000,0.0000,0.0000,0.0000,0.0000,0.0000,0.0000,0.0000,0.0000,0.0000,0.0000,0.0000,0.0000,0.0000,0.0000,0.0000,0.0000,0.0000,136.8333,nan,122.5197,nan,165.1686,nan,nan,nan,nan,nan,nan,353.0961,1077.6278,353.2035,24.6336,nan,147.8849,nan,121.4697,nan,nan,293.3668,121.4697,nan,683.2744,nan,nan,50.9944,nan,nan,nan,nan,0.0000,0.0000,0.0000,0.0000,0.0000,0.0000,0.0000,0.0000,0.0000,0.0000,0.0000,0.0000,0.0000,0.0000,0.0000,0.0000,0.0000,0.0000,0.0000,0.0000,0.0000,0.0000,0.0000,0.0000,0.0000,0.0000,0.0000,0.0000,0.0000,0.0000,0.0000,0.0000,802.8868,51.3213,nan,nan,202.2430,189.9290,nan,189.8843,137.5874,nan,123.7909,nan,97.5329,nan,157.3339,nan,121.4697,nan,211.0733,nan,215.6209,292.8723,nan,189.8843,377.5218,476.2292,124.3603,nan,122.2103,nan,172.0482,nan,0.0000,0.0000,0.0000,0.0000,0.0000,0.0000,0.0000,0.0000,0.0000,0.0000,0.0000,0.0000,0.0000,0.0000,0.0000,0.0000,0.0000,0.0000,0.0000,0.0000,0.0000,0.0000,0.0000,0.0000,0.0000,0.0000,0.0000,0.0000,0.0000,0.0000,0.0000,0.0000,121.5650,nan,nan,nan,215.5409,189.9290,720.8510,197.5604,-116.2245,nan,124.9387,nan,172.5433,nan,66.8115,nan,89.6818,nan,nan,nan,165.3802,51.3213,123.7802,nan,254.4149,190.0654,184.9816,nan,nan,nan,24.5670,nan,0.0000,0.0000,0.0000,0.0000,0.0000,0.0000,0.0000,0.0000,0.0000,0.0000,0.0000,0.0000,0.0000,0.0000,0.0000,0.0000,0.0000,0.0000,0.0000,0.0000,0.0000,0.0000,0.0000,0.0000,0.0000,0.0000,0.0000,0.0000,0.0000,0.0000,0.0000,0.0000,
22:6:17:16:40:1:765,0.0000,0.0000,0.0000,,0.0000,0.0000,32.6300,99383,162.9497,64519,-0.0016,0.0014,0.7031,0.0085,0.0099,0.0002,0,0.0000,0.0000,0.0000,0.0000,0.0000,0.0000,64209,130714030,796877050,84510,1,0,0,0.00,0.00,0.00,71,
22:6:17:16:40:1:876,1.3000,72.0000,36.0000,A,0.0000,0.0000,32.6300,99388,162.5269,64707,-0.0015,0.0013,0.7031,0.0056,0.0155,0.0013,0,0.0000,0.0000,0.0000,0.0000,0.0000,0.0000,64209,130714030,796877050,84510,1,0,0,0.00,0.00,0.00,71,
22:6:17:16:40:1:974,1.3000,72.0000,36.0000,A,0.0000,0.0000,32.6400,99388,162.5269,64769,-0.0018,0.0015,0.7030,0.0034,0.0010,0.0004,64709,-0.0914,1.1249,-0.4276,0.0066,-0.0085,-0.0016,64709,130714029,796877053,84490,0,0,0,0.00,0.00,0.00,57,
22:6:17:16:40:2:90,1.5000,65.0000,36.0000,A,0.0000,0.0000,32.6300,99380,163.2034,64892,-0.0017,0.0009,0.7028,-0.0008,-0.0054,0.0004,64709,-0.0914,1.1249,-0.4276,0.0066,-0.0085,-0.0016,64709,130714029,796877053,84490,0,0,0,0.00,0.00,0.00,57,
22:6:17:16:40:2:189,1.5000,65.0000,36.0000,A,0.0000,0.0000,32.6400,99381,163.1188,64892,-0.0017,0.0009,0.7028,-0.0008,-0.0054,0.0004,64709,-0.0914,1.1249,-0.4276,0.0066,-0.0085,-0.0016,64709,130714029,796877053,84490,0,0,0,0.00,0.00,0.00,57,
22:6:17:16:40:2:305,1.5000,65.0000,36.0000,A,0.0000,0.0000,32.6500,99390,162.3577,65079,-0.0018,0.0011,0.7027,0.0026,-0.0078,-0.0007,64709,-0.0914,1.1249,-0.4276,0.0066,-0.0085,-0.0016,64709,130714029,796877053,84490,0,0,0,0.00,0.00,0.00,57,nan,544.2230,nan,544.1412,nan,544.2230,nan,544.1412,nan,544.2230,nan,544.1412,nan,544.2230,nan,544.1412,nan,544.2230,nan,544.1412,nan,544.2230,nan,544.1412,nan,544.2230,nan,544.1412,nan,544.2230,nan,544.1412,0.0000,0.0000,0.0000,0.0000,0.0000,0.0000,0.0000,0.0000,0.0000,0.0000,0.0000,0.0000,0.0000,0.0000,0.0000,0.0000,0.0000,0.0000,0.0000,0.0000,0.0000,0.0000,0.0000,0.0000,0.0000,0.0000,0.0000,0.0000,0.0000,0.0000,0.0000,0.0000,nan,544.2230,nan,544.1412,nan,544.2230,nan,544.1412,nan,544.2230,nan,544.1412,nan,544.2230,nan,544.1412,nan,544.2230,nan,544.1412,nan,544.2230,nan,544.1412,nan,544.2230,nan,544.1412,nan,544.2230,nan,544.1412,0.0000,0.0000,0.0000,0.0000,0.0000,0.0000,0.0000,0.0000,0.0000,0.0000,0.0000,0.0000,0.0000,0.0000,0.0000,0.0000,0.0000,0.0000,0.0000,0.0000,0.0000,0.0000,0.0000,0.0000,0.0000,0.0000,0.0000,0.0000,0.0000,0.0000,0.0000,0.0000,nan,544.2230,nan,544.1412,nan,544.2230,nan,544.1412,nan,544.2230,nan,544.1412,nan,544.2230,nan,544.1412,nan,544.2230,nan,544.1412,nan,544.2230,nan,544.1412,nan,544.2230,nan,544.1412,nan,544.2230,nan,544.1412,0.0000,0.0000,0.0000,0.0000,0.0000,0.0000,0.0000,0.0000,0.0000,0.0000,0.0000,0.0000,0.0000,0.0000,0.0000,0.0000,0.0000,0.0000,0.0000,0.0000,0.0000,0.0000,0.0000,0.0000,0.0000,0.0000,0.0000,0.0000,0.0000,0.0000,0.0000,0.0000,nan,544.2230,nan,544.1412,nan,544.2230,nan,544.1412,nan,544.2230,nan,544.1412,nan,544.2230,nan,544.1412,nan,544.2230,nan,544.1412,nan,544.2230,nan,544.1412,nan,544.2230,nan,544.1412,nan,544.2230,nan,544.1412,0.0000,0.0000,0.0000,0.0000,0.0000,0.0000,0.0000,0.0000,0.0000,0.0000,0.0000,0.0000,0.0000,0.0000,0.0000,0.0000,0.0000,0.0000,0.0000,0.0000,0.0000,0.0000,0.0000,0.0000,0.0000,0.0000,0.0000,0.0000,0.0000,0.0000,0.0000,0.0000,nan,544.2230,nan,544.1412,nan,544.2230,nan,544.1412,nan,544.2230,nan,544.1412,nan,544.2230,nan,544.1412,nan,544.2230,nan,544.1412,nan,544.2230,nan,544.1412,nan,544.2230,nan,544.1412,nan,544.2230,nan,544.1412,0.0000,0.0000,0.0000,0.0000,0.0000,0.0000,0.0000,0.0000,0.0000,0.0000,0.0000,0.0000,0.0000,0.0000,0.0000,0.0000,0.0000,0.0000,0.0000,0.0000,0.0000,0.0000,0.0000,0.0000,0.0000,0.0000,0.0000,0.0000,0.0000,0.0000,0.0000,0.0000,nan,544.2230,nan,544.1412,nan,544.2230,nan,544.1412,nan,544.2230,nan,544.1412,nan,544.2230,nan,544.1412,nan,544.2230,nan,544.1412,nan,544.2230,nan,544.1412,nan,544.2230,nan,544.1412,nan,544.2230,nan,544.1412,0.0000,0.0000,0.0000,0.0000,0.0000,0.0000,0.0000,0.0000,0.0000,0.0000,0.0000,0.0000,0.0000,0.0000,0.0000,0.0000,0.0000,0.0000,0.0000,0.0000,0.0000,0.0000,0.0000,0.0000,0.0000,0.0000,0.0000,0.0000,0.0000,0.0000,0.0000,0.0000,nan,544.2230,nan,544.1412,nan,544.2230,nan,544.1412,nan,544.2230,nan,544.1412,nan,544.2230,nan,544.1412,nan,544.2230,nan,544.1412,nan,544.2230,nan,544.1412,nan,544.2230,nan,544.1412,nan,544.2230,nan,544.1412,0.0000,0.0000,0.0000,0.0000,0.0000,0.0000,0.0000,0.0000,0.0000,0.0000,0.0000,0.0000,0.0000,0.0000,0.0000,0.0000,0.0000,0.0000,0.0000,0.0000,0.0000,0.0000,0.0000,0.0000,0.0000,0.0000,0.0000,0.0000,0.0000,0.0000,0.0000,0.0000,nan,544.2230,nan,544.1412,nan,544.2230,nan,544.1412,nan,544.2230,nan,544.1412,nan,544.2230,nan,544.1412,nan,544.2230,nan,544.1412,nan,544.2230,nan,544.1412,nan,544.2230,nan,544.1412,nan,544.2230,nan,544.1412,0.0000,0.0000,0.0000,0.0000,0.0000,0.0000,0.0000,0.0000,0.0000,0.0000,0.0000,0.0000,0.0000,0.0000,0.0000,0.0000,0.0000,0.0000,0.0000,0.0000,0.0000,0.0000,0.0000,0.0000,0.0000,0.0000,0.0000,0.0000,0.0000,0.0000,0.0000,0.0000,nan,353.2035,nan,473.0941,nan,nan,nan,473.0941,nan,473.2077,nan,588.6469,nan,473.2077,nan,473.0941,nan,544.2230,nan,544.1412,nan,473.2077,nan,473.0941,nan,473.2077,nan,nan,nan,473.2077,nan,nan,0.0000,0.0000,0.0000,0.0000,0.0000,0.0000,0.0000,0.0000,0.0000,0.0000,0.0000,0.0000,0.0000,0.0000,0.0000,0.0000,0.0000,0.0000,0.0000,0.0000,0.0000,0.0000,0.0000,0.0000,0.0000,0.0000,0.0000,0.0000,0.0000,0.0000,0.0000,0.0000,136.8333,nan,122.5197,nan,165.1686,nan,nan,nan,nan,nan,nan,353.0961,1077.6278,353.2035,24.6336,nan,147.8849,nan,121.4697,nan,nan,293.3668,121.4697,nan,683.2744,nan,nan,50.9944,nan,nan,nan,nan,0.0000,0.0000,0.0000,0.0000,0.0000,0.0000,0.0000,0.0000,0.0000,0.0000,0.0000,0.0000,0.0000,0.0000,0.0000,0.0000,0.0000,0.0000,0.0000,0.0000,0.0000,0.0000,0.0000,0.0000,0.0000,0.0000,0.0000,0.0000,0.0000,0.0000,0.0000,0.0000,802.8868,51.3213,nan,nan,202.2430,189.9290,nan,189.8843,137.5874,nan,123.7909,nan,97.5329,nan,157.3339,nan,121.4697,nan,211.0733,nan,215.6209,292.8723,nan,189.8843,377.5218,476.2292,124.3603,nan,122.2103,nan,172.0482,nan,0.0000,0.0000,0.0000,0.0000,0.0000,0.0000,0.0000,0.0000,0.0000,0.0000,0.0000,0.0000,0.0000,0.0000,0.0000,0.0000,0.0000,0.0000,0.0000,0.0000,0.0000,0.0000,0.0000,0.0000,0.0000,0.0000,0.0000,0.0000,0.0000,0.0000,0.0000,0.0000,121.5650,nan,nan,nan,215.5409,189.9290,720.8510,197.5604,-116.2245,nan,124.9387,nan,172.5433,nan,66.8115,nan,89.6818,nan,nan,nan,165.3802,51.3213,123.7802,nan,254.4149,190.0654,184.9816,nan,nan,nan,24.5670,nan,0.0000,0.0000,0.0000,0.0000,0.0000,0.0000,0.0000,0.0000,0.0000,0.0000,0.0000,0.0000,0.0000,0.0000,0.0000,0.0000,0.0000,0.0000,0.0000,0.0000,0.0000,0.0000,0.0000,0.0000,0.0000,0.0000,0.0000,0.0000,0.0000,0.0000,0.0000,0.0000,
22:6:17:16:40:2:456,1.5000,65.0000,36.0000,A,0.0000,0.0000,32.6400,99387,162.6114,65202,-0.0019,0.0013,0.7027,-0.0055,0.0090,-0.0013,64709,-0.0914,1.1249,-0.4276,0.0066,-0.0085,-0.0016,64709,130714029,796877053,84490,0,0,0,0.00,0.00,0.00,57,
22:6:17:16:40:2:571,1.6000,64.0000,36.0000,A,0.0000,0.0000,32.6400,99383,162.9497,65389,-0.0018,0.0011,0.7028,-0.0007,0.0068,0.0001,64709,-0.0914,1.1249,-0.4276,0.0066,-0.0085,-0.0016,64709,130714029,796877053,84490,0,0,0,0.00,0.00,0.00,57,
22:6:17:16:40:2:672,1.6000,64.0000,36.0000,A,0.0000,0.0000,32.6500,99378,163.3726,65511,-0.0019,0.0014,0.7028,-0.0051,-0.0022,-0.0003,64709,-0.0914,1.1249,-0.4276,0.0066,-0.0085,-0.0016,64709,130714029,796877053,84490,0,0,0,0.00,0.00,0.00,57,
22:6:17:16:40:2:788,1.8000,73.0000,35.9000,A,0.0000,0.0000,32.6500,99388,162.5269,65574,-0.0017,0.0010,0.7028,-0.0035,-0.0104,-0.0013,64709,-0.0914,1.1249,-0.4276,0.0066,-0.0085,-0.0016,64709,130714029,796877053,84490,0,0,0,0.00,0.00,0.00,57,
22:6:17:16:40:2:887,1.8000,73.0000,35.9000,A,0.0000,0.0000,32.6500,99388,162.5269,65697,-0.0016,0.0016,0.7028,0.0014,0.0026,-0.0006,64709,-0.0914,1.1249,-0.4276,0.0066,-0.0085,-0.0016,64709,130714029,796877053,84490,0,0,0,0.00,0.00,0.00,57,
22:6:17:16:40:3:3,1.0000,87.0000,35.9000,A,0.0000,0.0000,32.6500,99387,162.6114,65760,-0.0016,0.0013,0.7027,-0.0063,-0.0083,-0.0010,65709,-0.0848,1.1950,-0.3927,0.0057,-0.0084,0.0075,64709,130714029,796877053,84490,0,0,0,0.00,0.00,0.00,57,nan,544.2230,nan,544.1412,nan,544.2230,nan,544.1412,nan,544.2230,nan,544.1412,nan,544.2230,nan,544.1412,nan,544.2230,nan,544.1412,nan,544.2230,nan,544.1412,nan,544.2230,nan,544.1412,nan,544.2230,nan,544.1412,0.0000,0.0000,0.0000,0.0000,0.0000,0.0000,0.0000,0.0000,0.0000,0.0000,0.0000,0.0000,0.0000,0.0000,0.0000,0.0000,0.0000,0.0000,0.0000,0.0000,0.0000,0.0000,0.0000,0.0000,0.0000,0.0000,0.0000,0.0000,0.0000,0.0000,0.0000,0.0000,nan,544.2230,nan,544.1412,nan,544.2230,nan,544.1412,nan,544.2230,nan,544.1412,nan,544.2230,nan,544.1412,nan,544.2230,nan,544.1412,nan,544.2230,nan,544.1412,nan,544.2230,nan,544.1412,nan,544.2230,nan,544.1412,0.0000,0.0000,0.0000,0.0000,0.0000,0.0000,0.0000,0.0000,0.0000,0.0000,0.0000,0.0000,0.0000,0.0000,0.0000,0.0000,0.0000,0.0000,0.0000,0.0000,0.0000,0.0000,0.0000,0.0000,0.0000,0.0000,0.0000,0.0000,0.0000,0.0000,0.0000,0.0000,nan,544.2230,nan,544.1412,nan,544.2230,nan,544.1412,nan,544.2230,nan,544.1412,nan,544.2230,nan,544.1412,nan,544.2230,nan,544.1412,nan,544.2230,nan,544.1412,nan,544.2230,nan,544.1412,nan,544.2230,nan,544.1412,0.0000,0.0000,0.0000,0.0000,0.0000,0.0000,0.0000,0.0000,0.0000,0.0000,0.0000,0.0000,0.0000,0.0000,0.0000,0.0000,0.0000,0.0000,0.0000,0.0000,0.0000,0.0000,0.0000,0.0000,0.0000,0.0000,0.0000,0.0000,0.0000,0.0000,0.0000,0.0000,nan,544.2230,nan,544.1412,nan,544.2230,nan,544.1412,nan,544.2230,nan,544.1412,nan,544.2230,nan,544.1412,nan,544.2230,nan,544.1412,nan,544.2230,nan,544.1412,nan,544.2230,nan,544.1412,nan,544.2230,nan,544.1412,0.0000,0.0000,0.0000,0.0000,0.0000,0.0000,0.0000,0.0000,0.0000,0.0000,0.0000,0.0000,0.0000,0.0000,0.0000,0.0000,0.0000,0.0000,0.0000,0.0000,0.0000,0.0000,0.0000,0.0000,0.0000,0.0000,0.0000,0.0000,0.0000,0.0000,0.0000,0.0000,nan,544.2230,nan,544.1412,nan,544.2230,nan,544.1412,nan,544.2230,nan,544.1412,nan,544.2230,nan,544.1412,nan,544.2230,nan,544.1412,nan,544.2230,nan,544.1412,nan,544.2230,nan,544.1412,nan,544.2230,nan,544.1412,0.0000,0.0000,0.0000,0.0000,0.0000,0.0000,0.0000,0.0000,0.0000,0.0000,0.0000,0.0000,0.0000,0.0000,0.0000,0.0000,0.0000,0.0000,0.0000,0.0000,0.0000,0.0000,0.0000,0.0000,0.0000,0.0000,0.0000,0.0000,0.0000,0.0000,0.0000,0.0000,nan,544.2230,nan,544.1412,nan,544.2230,nan,544.1412,nan,544.2230,nan,544.1412,nan,544.2230,nan,544.1412,nan,544.2230,nan,544.1412,nan,544.2230,nan,544.1412,nan,544.2230,nan,544.1412,nan,544.2230,nan,544.1412,0.0000,0.0000,0.0000,0.0000,0.0000,0.0000,0.0000,0.0000,0.0000,0.0000,0.0000,0.0000,0.0000,0.0000,0.0000,0.0000,0.0000,0.0000,0.0000,0.0000,0.0000,0.0000,0.0000,0.0000,0.0000,0.0000,0.0000,0.0000,0.0000,0.0000,0.0000,0.0000,nan,544.2230,nan,544.1412,nan,544.2230,nan,544.1412,nan,544.2230,nan,544.1412,nan,544.2230,nan,544.1412,nan,544.2230,nan,544.1412,nan,544.2230,nan,544.1412,nan,544.2230,nan,544.1412,nan,544.2230,nan,544.1412,0.0000,0.0000,0.0000,0.0000,0.0000,0.0000,0.0000,0.0000,0.0000,0.0000,0.0000,0.0000,0.0000,0.0000,0.0000,0.0000,0.0000,0.0000,0.0000,0.0000,0.0000,0.0000,0.0000,0.0000,0.0000,0.0000,0.0000,0.0000,0.0000,0.0000,0.0000,0.0000,nan,544.2230,nan,544.1412,nan,544.2230,nan,544.1412,nan,544.2230,nan,544.1412,nan,544.2230,nan,544.1412,nan,544.2230,nan,544.1412,nan,544.2230,nan,544.1412,nan,544.2230,nan,544.1412,nan,544.2230,nan,544.1412,0.0000,0.0000,0.0000,0.0000,0.0000,0.0000,0.0000,0.0000,0.0000,0.0000,0.0000,0.0000,0.0000,0.0000,0.0000,0.0000,0.0000,0.0000,0.0000,0.0000,0.0000,0.0000,0.0000,0.0000,0.0000,0.0000,0.0000,0.0000,0.0000,0.0000,0.0000,0.0000,nan,353.2035,nan,473.0941,nan,nan,nan,473.0941,nan,473.2077,nan,588.6469,nan,473.2077,nan,473.0941,nan,544.2230,nan,544.1412,nan,473.2077,nan,473.0941,nan,473.2077,nan,nan,nan,473.2077,nan,nan,0.0000,0.0000,0.0000,0.0000,0.0000,0.0000,0.0000,0.0000,0.0000,0.0000,0.0000,0.0000,0.0000,0.0000,0.0000,0.0000,0.0000,0.0000,0.0000,0.0000,0.0000,0.0000,0.0000,0.0000,0.0000,0.0000,0.0000,0.0000,0.0000,0.0000,0.0000,0.0000,136.8333,nan,122.5197,nan,165.1686,nan,nan,nan,nan,nan,nan,353.0961,1077.6278,353.2035,24.6336,nan,147.8849,nan,121.4697,nan,nan,293.3668,121.4697,nan,683.2744,nan,nan,50.9944,nan,nan,nan,nan,0.0000,0.0000,0.0000,0.0000,0.0000,0.0000,0.0000,0.0000,0.0000,0.0000,0.0000,0.0000,0.0000,0.0000,0.0000,0.0000,0.0000,0.0000,0.0000,0.0000,0.0000,0.0000,0.0000,0.0000,0.0000,0.0000,0.0000,0.0000,0.0000,0.0000,0.0000,0.0000,802.8868,51.3213,nan,nan,202.2430,189.9290,nan,189.8843,137.5874,nan,123.7909,nan,97.5329,nan,157.3339,nan,121.4697,nan,211.0733,nan,215.6209,292.8723,nan,189.8843,377.5218,476.2292,124.3603,nan,122.2103,nan,172.0482,nan,0.0000,0.0000,0.0000,0.0000,0.0000,0.0000,0.0000,0.0000,0.0000,0.0000,0.0000,0.0000,0.0000,0.0000,0.0000,0.0000,0.0000,0.0000,0.0000,0.0000,0.0000,0.0000,0.0000,0.0000,0.0000,0.0000,0.0000,0.0000,0.0000,0.0000,0.0000,0.0000,121.5650,nan,nan,nan,215.5409,189.9290,720.8510,197.5604,-116.2245,nan,124.9387,nan,172.5433,nan,66.8115,nan,89.6818,nan,nan,nan,165.3802,51.3213,123.7802,nan,254.4149,190.0654,184.9816,nan,nan,nan,24.5670,nan,0.0000,0.0000,0.0000,0.0000,0.0000,0.0000,0.0000,0.0000,0.0000,0.0000,0.0000,0.0000,0.0000,0.0000,0.0000,0.0000,0.0000,0.0000,0.0000,0.0000,0.0000,0.0000,0.0000,0.0000,0.0000,0.0000,0.0000,0.0000,0.0000,0.0000,0.0000,0.0000,
22:6:17:16:40:3:154,1.0000,87.0000,35.9000,A,0.0000,0.0000,32.6400,99384,162.8651,65884,-0.0016,0.0013,0.7026,-0.0002,0.0035,0.0010,65709,-0.0848,1.1950,-0.3927,0.0057,-0.0084,0.0075,64709,130714029,796877053,84490,0,0,0,0.00,0.00,0.00,57,
22:6:17:16:40:3:269,1.9000,87.0000,36.0000,A,0.0000,0.0000,32.6500,99387,162.6114,66069,-0.0017,0.0013,0.7027,0.0012,0.0049,0.0001,65709,-0.0848,1.1950,-0.3927,0.0057,-0.0084,0.0075,64709,130714029,796877053,84490,0,0,0,0.00,0.00,0.00,57,
22:6:17:16:40:3:369,1.9000,87.0000,36.0000,A,0.0000,0.0000,32.6500,99387,162.6114,66195,-0.0016,0.0017,0.7029,0.0027,0.0022,0.0008,65709,-0.0848,1.1950,-0.3927,0.0057,-0.0084,0.0075,64709,130714029,796877053,84490,0,0,0,0.00,0.00,0.00,57,
22:6:17:16:40:3:484,1.3000,85.0000,36.0000,A,0.0000,0.0000,32.6600,99389,162.4423,66257,-0.0017,0.0015,0.7028,0.0055,-0.0044,-0.0020,66209,-0.0902,1.2100,-0.3699,0.0035,-0.0174,0.0145,66209,130714030,796877061,84430,0,-1,1,0.00,0.00,0.00,0,
22:6:17:16:40:3:584,1.3000,85.0000,36.0000,A,0.0000,0.0000,32.6600,99378,163.3726,66379,-0.0017,0.0016,0.7031,0.0015,0.0028,-0.0005,66209,-0.0902,1.2100,-0.3699,0.0035,-0.0174,0.0145,66209,130714030,796877061,84430,0,-1,1,0.00,0.00,0.00,0,
22:6:17:16:40:3:701,1.3000,85.0000,36.1000,A,0.0000,0.0000,32.6500,99387,162.6114,66504,-0.0016,0.0013,0.7030,-0.0014,0.0097,-0.0009,66209,-0.0902,1.2100,-0.3699,0.0035,-0.0174,0.0145,66209,130714030,796877061,84430,0,-1,1,0.00,0.00,0.00,0,
22:6:17:16:40:3:800,1.3000,85.0000,36.1000,A,0.0000,0.0000,32.6600,99390,162.3577,66629,-0.0015,0.0014,0.7030,0.0010,-0.0009,-0.0012,66209,-0.0902,1.2100,-0.3699,0.0035,-0.0174,0.0145,66209,130714030,796877061,84430,0,-1,1,0.00,0.00,0.00,0,nan,544.2230,nan,544.1412,nan,544.2230,nan,544.1412,nan,544.2230,nan,544.1412,nan,544.2230,nan,544.1412,nan,544.2230,nan,544.1412,nan,544.2230,nan,544.1412,nan,544.2230,nan,544.1412,nan,544.2230,nan,544.1412,0.0000,0.0000,0.0000,0.0000,0.0000,0.0000,0.0000,0.0000,0.0000,0.0000,0.0000,0.0000,0.0000,0.0000,0.0000,0.0000,0.0000,0.0000,0.0000,0.0000,0.0000,0.0000,0.0000,0.0000,0.0000,0.0000,0.0000,0.0000,0.0000,0.0000,0.0000,0.0000,nan,544.2230,nan,544.1412,nan,544.2230,nan,544.1412,nan,544.2230,nan,544.1412,nan,544.2230,nan,544.1412,nan,544.2230,nan,544.1412,nan,544.2230,nan,544.1412,nan,544.2230,nan,544.1412,nan,544.2230,nan,544.1412,0.0000,0.0000,0.0000,0.0000,0.0000,0.0000,0.0000,0.0000,0.0000,0.0000,0.0000,0.0000,0.0000,0.0000,0.0000,0.0000,0.0000,0.0000,0.0000,0.0000,0.0000,0.0000,0.0000,0.0000,0.0000,0.0000,0.0000,0.0000,0.0000,0.0000,0.0000,0.0000,nan,544.2230,nan,544.1412,nan,544.2230,nan,544.1412,nan,544.2230,nan,544.1412,nan,544.2230,nan,544.1412,nan,544.2230,nan,544.1412,nan,544.2230,nan,544.1412,nan,544.2230,nan,544.1412,nan,544.2230,nan,544.1412,0.0000,0.0000,0.0000,0.0000,0.0000,0.0000,0.0000,0.0000,0.0000,0.0000,0.0000,0.0000,0.0000,0.0000,0.0000,0.0000,0.0000,0.0000,0.0000,0.0000,0.0000,0.0000,0.0000,0.0000,0.0000,0.0000,0.0000,0.0000,0.0000,0.0000,0.0000,0.0000,nan,544.2230,nan,544.1412,nan,544.2230,nan,544.1412,nan,544.2230,nan,544.1412,nan,544.2230,nan,544.1412,nan,544.2230,nan,544.1412,nan,544.2230,nan,544.1412,nan,544.2230,nan,544.1412,nan,544.2230,nan,544.1412,0.0000,0.0000,0.0000,0.0000,0.0000,0.0000,0.0000,0.0000,0.0000,0.0000,0.0000,0.0000,0.0000,0.0000,0.0000,0.0000,0.0000,0.0000,0.0000,0.0000,0.0000,0.0000,0.0000,0.0000,0.0000,0.0000,0.0000,0.0000,0.0000,0.0000,0.0000,0.0000,nan,544.2230,nan,544.1412,nan,544.2230,nan,544.1412,nan,544.2230,nan,544.1412,nan,544.2230,nan,544.1412,nan,544.2230,nan,544.1412,nan,544.2230,nan,544.1412,nan,544.2230,nan,544.1412,nan,544.2230,nan,544.1412,0.0000,0.0000,0.0000,0.0000,0.0000,0.0000,0.0000,0.0000,0.0000,0.0000,0.0000,0.0000,0.0000,0.0000,0.0000,0.0000,0.0000,0.0000,0.0000,0.0000,0.0000,0.0000,0.0000,0.0000,0.0000,0.0000,0.0000,0.0000,0.0000,0.0000,0.0000,0.0000,nan,544.2230,nan,544.1412,nan,544.2230,nan,544.1412,nan,544.2230,nan,544.1412,nan,544.2230,nan,544.1412,nan,544.2230,nan,544.1412,nan,544.2230,nan,544.1412,nan,544.2230,nan,544.1412,nan,544.2230,nan,544.1412,0.0000,0.0000,0.0000,0.0000,0.0000,0.0000,0.0000,0.0000,0.0000,0.0000,0.0000,0.0000,0.0000,0.0000,0.0000,0.0000,0.0000,0.0000,0.0000,0.0000,0.0000,0.0000,0.0000,0.0000,0.0000,0.0000,0.0000,0.0000,0.0000,0.0000,0.0000,0.0000,nan,544.2230,nan,544.1412,nan,544.2230,nan,544.1412,nan,544.2230,nan,544.1412,nan,544.2230,nan,544.1412,nan,544.2230,nan,544.1412,nan,544.2230,nan,544.1412,nan,544.2230,nan,544.1412,nan,544.2230,nan,544.1412,0.0000,0.0000,0.0000,0.0000,0.0000,0.0000,0.0000,0.0000,0.0000,0.0000,0.0000,0.0000,0.0000,0.0000,0.0000,0.0000,0.0000,0.0000,0.0000,0.0000,0.0000,0.0000,0.0000,0.0000,0.0000,0.0000,0.0000,0.0000,0.0000,0.0000,0.0000,0.0000,nan,544.2230,nan,544.1412,nan,544.2230,nan,544.1412,nan,544.2230,nan,544.1412,nan,544.2230,nan,544.1412,nan,544.2230,nan,544.1412,nan,544.2230,nan,544.1412,nan,544.2230,nan,544.1412,nan,544.2230,nan,544.1412,0.0000,0.0000,0.0000,0.0000,0.0000,0.0000,0.0000,0.0000,0.0000,0.0000,0.0000,0.0000,0.0000,0.0000,0.0000,0.0000,0.0000,0.0000,0.0000,0.0000,0.0000,0.0000,0.0000,0.0000,0.0000,0.0000,0.0000,0.0000,0.0000,0.0000,0.0000,0.0000,nan,353.2035,nan,473.0941,nan,nan,nan,473.0941,nan,473.2077,nan,588.6469,nan,473.2077,nan,473.0941,nan,544.2230,nan,544.1412,nan,473.2077,nan,473.0941,nan,473.2077,nan,nan,nan,473.2077,nan,nan,0.0000,0.0000,0.0000,0.0000,0.0000,0.0000,0.0000,0.0000,0.0000,0.0000,0.0000,0.0000,0.0000,0.0000,0.0000,0.0000,0.0000,0.0000,0.0000,0.0000,0.0000,0.0000,0.0000,0.0000,0.0000,0.0000,0.0000,0.0000,0.0000,0.0000,0.0000,0.0000,136.8333,nan,122.5197,nan,165.1686,nan,nan,nan,nan,nan,nan,353.0961,1077.6278,353.2035,24.6336,nan,147.8849,nan,121.4697,nan,nan,293.3668,121.4697,nan,683.2744,nan,nan,50.9944,nan,nan,nan,nan,0.0000,0.0000,0.0000,0.0000,0.0000,0.0000,0.0000,0.0000,0.0000,0.0000,0.0000,0.0000,0.0000,0.0000,0.0000,0.0000,0.0000,0.0000,0.0000,0.0000,0.0000,0.0000,0.0000,0.0000,0.0000,0.0000,0.0000,0.0000,0.0000,0.0000,0.0000,0.0000,802.8868,51.3213,nan,nan,202.2430,189.9290,nan,189.8843,137.5874,nan,123.7909,nan,97.5329,nan,157.3339,nan,121.4697,nan,211.0733,nan,215.6209,292.8723,nan,189.8843,377.5218,476.2292,124.3603,nan,122.2103,nan,172.0482,nan,0.0000,0.0000,0.0000,0.0000,0.0000,0.0000,0.0000,0.0000,0.0000,0.0000,0.0000,0.0000,0.0000,0.0000,0.0000,0.0000,0.0000,0.0000,0.0000,0.0000,0.0000,0.0000,0.0000,0.0000,0.0000,0.0000,0.0000,0.0000,0.0000,0.0000,0.0000,0.0000,121.5650,nan,nan,nan,215.5409,189.9290,720.8510,197.5604,-116.2245,nan,124.9387,nan,172.5433,nan,66.8115,nan,89.6818,nan,nan,nan,165.3802,51.3213,123.7802,nan,254.4149,190.0654,184.9816,nan,nan,nan,24.5670,nan,0.0000,0.0000,0.0000,0.0000,0.0000,0.0000,0.0000,0.0000,0.0000,0.0000,0.0000,0.0000,0.0000,0.0000,0.0000,0.0000,0.0000,0.0000,0.0000,0.0000,0.0000,0.0000,0.0000,0.0000,0.0000,0.0000,0.0000,0.0000,0.0000,0.0000,0.0000,0.0000,
22:6:17:16:40:3:965,1.3000,85.0000,36.1000,A,0.0000,0.0000,32.6500,99389,162.4423,66689,-0.0015,0.0013,0.7028,-0.0050,-0.0024,-0.0005,66209,-0.0902,1.2100,-0.3699,0.0035,-0.0174,0.0145,66209,130714030,796877061,84430,0,-1,1,0.00,0.00,0.00,0,
22:6:17:16:40:4:64,1.3000,85.0000,36.1000,A,0.0000,0.0000,32.6600,99385,162.7806,66876,-0.0015,0.0012,0.7031,-0.0042,-0.0019,0.0015,66209,-0.0902,1.2100,-0.3699,0.0035,-0.0174,0.0145,66209,130714030,796877061,84430,0,-1,1,0.00,0.00,0.00,0,
22:6:17:16:40:4:179,1.3000,85.0000,36.1000,A,0.0000,0.0000,32.6600,99387,162.6114,66876,-0.0015,0.0012,0.7031,-0.0042,-0.0019,0.0015,66209,-0.0902,1.2100,-0.3699,0.0035,-0.0174,0.0145,66209,130714030,796877061,84430,0,-1,1,0.00,0.00,0.00,0,
22:6:17:16:40:4:279,1.3000,85.0000,36.1000,A,0.0000,0.0000,32.6600,99387,162.6114,67124,-0.0014,0.0012,0.7037,-0.0036,-0.0052,0.0048,66209,-0.0902,1.2100,-0.3699,0.0035,-0.0174,0.0145,66209,130714030,796877061,84430,0,-1,1,0.00,0.00,0.00,0,
22:6:17:16:40:4:395,1.3000,85.0000,36.1000,A,0.0000,0.0000,32.6600,99388,162.5269,67187,-0.0013,0.0011,0.7036,-0.0021,-0.0008,-0.0059,66209,-0.0902,1.2100,-0.3699,0.0035,-0.0174,0.0145,66209,130714030,796877061,84430,0,-1,1,0.00,0.00,0.00,0,
22:6:17:16:40:4:495,1.3000,85.0000,36.1000,A,0.0000,0.0000,32.6600,99386,162.6960,67309,-0.0012,0.0013,0.7037,0.0012,0.0027,-0.0062,66209,-0.0902,1.2100,-0.3699,0.0035,-0.0174,0.0145,66209,130714030,796877061,84430,0,-1,1,0.00,0.00,0.00,0,nan,544.2230,nan,544.1412,nan,544.2230,nan,544.1412,nan,544.2230,nan,544.1412,nan,544.2230,nan,544.1412,nan,544.2230,nan,544.1412,nan,544.2230,nan,544.1412,nan,544.2230,nan,544.1412,nan,544.2230,nan,544.1412,0.0000,0.0000,0.0000,0.0000,0.0000,0.0000,0.0000,0.0000,0.0000,0.0000,0.0000,0.0000,0.0000,0.0000,0.0000,0.0000,0.0000,0.0000,0.0000,0.0000,0.0000,0.0000,0.0000,0.0000,0.0000,0.0000,0.0000,0.0000,0.0000,0.0000,0.0000,0.0000,nan,544.2230,nan,544.1412,nan,544.2230,nan,544.1412,nan,544.2230,nan,544.1412,nan,544.2230,nan,544.1412,nan,544.2230,nan,544.1412,nan,544.2230,nan,544.1412,nan,544.2230,nan,544.1412,nan,544.2230,nan,544.1412,0.0000,0.0000,0.0000,0.0000,0.0000,0.0000,0.0000,0.0000,0.0000,0.0000,0.0000,0.0000,0.0000,0.0000,0.0000,0.0000,0.0000,0.0000,0.0000,0.0000,0.0000,0.0000,0.0000,0.0000,0.0000,0.0000,0.0000,0.0000,0.0000,0.0000,0.0000,0.0000,nan,544.2230,nan,544.1412,nan,544.2230,nan,544.1412,nan,544.2230,nan,544.1412,nan,544.2230,nan,544.1412,nan,544.2230,nan,544.1412,nan,544.2230,nan,544.1412,nan,544.2230,nan,544.1412,nan,544.2230,nan,544.1412,0.0000,0.0000,0.0000,0.0000,0.0000,0.0000,0.0000,0.0000,0.0000,0.0000,0.0000,0.0000,0.0000,0.0000,0.0000,0.0000,0.0000,0.0000,0.0000,0.0000,0.0000,0.0000,0.0000,0.0000,0.0000,0.0000,0.0000,0.0000,0.0000,0.0000,0.0000,0.0000,nan,544.2230,nan,544.1412,nan,544.2230,nan,544.1412,nan,544.2230,nan,544.1412,nan,544.2230,nan,544.1412,nan,544.2230,nan,544.1412,nan,544.2230,nan,544.1412,nan,544.2230,nan,544.1412,nan,544.2230,nan,544.1412,0.0000,0.0000,0.0000,0.0000,0.0000,0.0000,0.0000,0.0000,0.0000,0.0000,0.0000,0.0000,0.0000,0.0000,0.0000,0.0000,0.0000,0.0000,0.0000,0.0000,0.0000,0.0000,0.0000,0.0000,0.0000,0.0000,0.0000,0.0000,0.0000,0.0000,0.0000,0.0000,nan,544.2230,nan,544.1412,nan,544.2230,nan,544.1412,nan,544.2230,nan,544.1412,nan,544.2230,nan,544.1412,nan,544.2230,nan,544.1412,nan,544.2230,nan,544.1412,nan,544.2230,nan,544.1412,nan,544.2230,nan,544.1412,0.0000,0.0000,0.0000,0.0000,0.0000,0.0000,0.0000,0.0000,0.0000,0.0000,0.0000,0.0000,0.0000,0.0000,0.0000,0.0000,0.0000,0.0000,0.0000,0.0000,0.0000,0.0000,0.0000,0.0000,0.0000,0.0000,0.0000,0.0000,0.0000,0.0000,0.0000,0.0000,nan,544.2230,nan,544.1412,nan,544.2230,nan,544.1412,nan,544.2230,nan,544.1412,nan,544.2230,nan,544.1412,nan,544.2230,nan,544.1412,nan,544.2230,nan,544.1412,nan,544.2230,nan,544.1412,nan,544.2230,nan,544.1412,0.0000,0.0000,0.0000,0.0000,0.0000,0.0000,0.0000,0.0000,0.0000,0.0000,0.0000,0.0000,0.0000,0.0000,0.0000,0.0000,0.0000,0.0000,0.0000,0.0000,0.0000,0.0000,0.0000,0.0000,0.0000,0.0000,0.0000,0.0000,0.0000,0.0000,0.0000,0.0000,nan,544.2230,nan,544.1412,nan,544.2230,nan,544.1412,nan,544.2230,nan,544.1412,nan,544.2230,nan,544.1412,nan,544.2230,nan,544.1412,nan,544.2230,nan,544.1412,nan,544.2230,nan,544.1412,nan,544.2230,nan,544.1412,0.0000,0.0000,0.0000,0.0000,0.0000,0.0000,0.0000,0.0000,0.0000,0.0000,0.0000,0.0000,0.0000,0.0000,0.0000,0.0000,0.0000,0.0000,0.0000,0.0000,0.0000,0.0000,0.0000,0.0000,0.0000,0.0000,0.0000,0.0000,0.0000,0.0000,0.0000,0.0000,nan,544.2230,nan,544.1412,nan,544.2230,nan,544.1412,nan,544.2230,nan,544.1412,nan,544.2230,nan,544.1412,nan,544.2230,nan,544.1412,nan,544.2230,nan,544.1412,nan,544.2230,nan,544.1412,nan,544.2230,nan,544.1412,0.0000,0.0000,0.0000,0.0000,0.0000,0.0000,0.0000,0.0000,0.0000,0.0000,0.0000,0.0000,0.0000,0.0000,0.0000,0.0000,0.0000,0.0000,0.0000,0.0000,0.0000,0.0000,0.0000,0.0000,0.0000,0.0000,0.0000,0.0000,0.0000,0.0000,0.0000,0.0000,nan,353.2035,nan,473.0941,nan,nan,nan,473.0941,nan,473.2077,nan,588.6469,nan,473.2077,nan,473.0941,nan,544.2230,nan,544.1412,nan,473.2077,nan,473.0941,nan,473.2077,nan,nan,nan,473.2077,nan,nan,0.0000,0.0000,0.0000,0.0000,0.0000,0.0000,0.0000,0.0000,0.0000,0.0000,0.0000,0.0000,0.0000,0.0000,0.0000,0.0000,0.0000,0.0000,0.0000,0.0000,0.0000,0.0000,0.0000,0.0000,0.0000,0.0000,0.0000,0.0000,0.0000,0.0000,0.0000,0.0000,136.8333,nan,122.5197,nan,165.1686,nan,nan,nan,nan,nan,nan,353.0961,1077.6278,353.2035,24.6336,nan,147.8849,nan,121.4697,nan,nan,293.3668,121.4697,nan,683.2744,nan,nan,50.9944,nan,nan,nan,nan,0.0000,0.0000,0.0000,0.0000,0.0000,0.0000,0.0000,0.0000,0.0000,0.0000,0.0000,0.0000,0.0000,0.0000,0.0000,0.0000,0.0000,0.0000,0.0000,0.0000,0.0000,0.0000,0.0000,0.0000,0.0000,0.0000,0.0000,0.0000,0.0000,0.0000,0.0000,0.0000,802.8868,51.3213,nan,nan,202.2430,189.9290,nan,189.8843,137.5874,nan,123.7909,nan,97.5329,nan,157.3339,nan,121.4697,nan,211.0733,nan,215.6209,292.8723,nan,189.8843,377.5218,476.2292,124.3603,nan,122.2103,nan,172.0482,nan,0.0000,0.0000,0.0000,0.0000,0.0000,0.0000,0.0000,0.0000,0.0000,0.0000,0.0000,0.0000,0.0000,0.0000,0.0000,0.0000,0.0000,0.0000,0.0000,0.0000,0.0000,0.0000,0.0000,0.0000,0.0000,0.0000,0.0000,0.0000,0.0000,0.0000,0.0000,0.0000,121.5650,nan,nan,nan,215.5409,189.9290,720.8510,197.5604,-116.2245,nan,124.9387,nan,172.5433,nan,66.8115,nan,89.6818,nan,nan,nan,165.3802,51.3213,123.7802,nan,254.4149,190.0654,184.9816,nan,nan,nan,24.5670,nan,0.0000,0.0000,0.0000,0.0000,0.0000,0.0000,0.0000,0.0000,0.0000,0.0000,0.0000,0.0000,0.0000,0.0000,0.0000,0.0000,0.0000,0.0000,0.0000,0.0000,0.0000,0.0000,0.0000,0.0000,0.0000,0.0000,0.0000,0.0000,0.0000,0.0000,0.0000,0.0000,
22:6:17:16:40:4:659,83.0000,0.0000,0.0000,A,0.0000,0.0000,32.6400,99388,162.5269,67309,-0.0012,0.0013,0.7037,0.0012,0.0027,-0.0062,66209,-0.0902,1.2100,-0.3699,0.0035,-0.0174,0.0145,66209,130714030,796877061,84430,0,-1,1,0.00,0.00,0.00,0,
22:6:17:16:40:4:756,83.0000,0.0000,0.0000,A,0.0000,0.0000,32.6500,99387,162.6114,67309,-0.0012,0.0013,0.7037,0.0012,0.0027,-0.0062,66209,-0.0902,1.2100,-0.3699,0.0035,-0.0174,0.0145,66209,130714030,796877061,84430,0,-1,1,0.00,0.00,0.00,0,
22:6:17:16:40:4:869,76.0000,0.0000,0.0000,A,0.0000,0.0000,32.6500,99385,162.7806,67309,-0.0012,0.0013,0.7037,0.0012,0.0027,-0.0062,66209,-0.0902,1.2100,-0.3699,0.0035,-0.0174,0.0145,66209,130714030,796877061,84430,0,-1,1,0.00,0.00,0.00,0,
22:6:17:16:40:4:966,76.0000,0.0000,0.0000,A,0.0000,0.0000,32.6500,99385,162.7806,67309,-0.0012,0.0013,0.7037,0.0012,0.0027,-0.0062,66209,-0.0902,1.2100,-0.3699,0.0035,-0.0174,0.0145,66209,130714030,796877061,84430,0,-1,1,0.00,0.00,0.00,0,
22:6:17:16:40:5:79,2.0000,0.0000,0.0000,A,0.0000,0.0000,32.6500,99388,162.5269,67309,-0.0012,0.0013,0.7037,0.0012,0.0027,-0.0062,66209,-0.0902,1.2100,-0.3699,0.0035,-0.0174,0.0145,66209,130714030,796877061,84430,0,-1,1,0.00,0.00,0.00,0,
22:6:17:16:40:5:175,2.0000,0.0000,0.0000,A,0.0000,0.0000,32.6500,99384,162.8651,67309,-0.0012,0.0013,0.7037,0.0012,0.0027,-0.0062,66209,-0.0902,1.2100,-0.3699,0.0035,-0.0174,0.0145,66209,130714030,796877061,84430,0,-1,1,0.00,0.00,0.00,0,nan,544.2230,nan,544.1412,nan,544.2230,nan,544.1412,nan,544.2230,nan,544.1412,nan,544.2230,nan,544.1412,nan,544.2230,nan,544.1412,nan,544.2230,nan,544.1412,nan,544.2230,nan,544.1412,nan,544.2230,nan,544.1412,0.0000,0.0000,0.0000,0.0000,0.0000,0.0000,0.0000,0.0000,0.0000,0.0000,0.0000,0.0000,0.0000,0.0000,0.0000,0.0000,0.0000,0.0000,0.0000,0.0000,0.0000,0.0000,0.0000,0.0000,0.0000,0.0000,0.0000,0.0000,0.0000,0.0000,0.0000,0.0000,nan,544.2230,nan,544.1412,nan,544.2230,nan,544.1412,nan,544.2230,nan,544.1412,nan,544.2230,nan,544.1412,nan,544.2230,nan,544.1412,nan,544.2230,nan,544.1412,nan,544.2230,nan,544.1412,nan,544.2230,nan,544.1412,0.0000,0.0000,0.0000,0.0000,0.0000,0.0000,0.0000,0.0000,0.0000,0.0000,0.0000,0.0000,0.0000,0.0000,0.0000,0.0000,0.0000,0.0000,0.0000,0.0000,0.0000,0.0000,0.0000,0.0000,0.0000,0.0000,0.0000,0.0000,0.0000,0.0000,0.0000,0.0000,nan,544.2230,nan,544.1412,nan,544.2230,nan,544.1412,nan,544.2230,nan,544.1412,nan,544.2230,nan,544.1412,nan,544.2230,nan,544.1412,nan,544.2230,nan,544.1412,nan,544.2230,nan,544.1412,nan,544.2230,nan,544.1412,0.0000,0.0000,0.0000,0.0000,0.0000,0.0000,0.0000,0.0000,0.0000,0.0000,0.0000,0.0000,0.0000,0.0000,0.0000,0.0000,0.0000,0.0000,0.0000,0.0000,0.0000,0.0000,0.0000,0.0000,0.0000,0.0000,0.0000,0.0000,0.0000,0.0000,0.0000,0.0000,nan,544.2230,nan,544.1412,nan,544.2230,nan,544.1412,nan,544.2230,nan,544.1412,nan,544.2230,nan,544.1412,nan,544.2230,nan,544.1412,nan,544.2230,nan,544.1412,nan,544.2230,nan,544.1412,nan,544.2230,nan,544.1412,0.0000,0.0000,0.0000,0.0000,0.0000,0.0000,0.0000,0.0000,0.0000,0.0000,0.0000,0.0000,0.0000,0.0000,0.0000,0.0000,0.0000,0.0000,0.0000,0.0000,0.0000,0.0000,0.0000,0.0000,0.0000,0.0000,0.0000,0.0000,0.0000,0.0000,0.0000,0.0000,nan,544.2230,nan,544.1412,nan,544.2230,nan,544.1412,nan,544.2230,nan,544.1412,nan,544.2230,nan,544.1412,nan,544.2230,nan,544.1412,nan,544.2230,nan,544.1412,nan,544.2230,nan,544.1412,nan,544.2230,nan,544.1412,0.0000,0.0000,0.0000,0.0000,0.0000,0.0000,0.0000,0.0000,0.0000,0.0000,0.0000,0.0000,0.0000,0.0000,0.0000,0.0000,0.0000,0.0000,0.0000,0.0000,0.0000,0.0000,0.0000,0.0000,0.0000,0.0000,0.0000,0.0000,0.0000,0.0000,0.0000,0.0000,nan,544.2230,nan,544.1412,nan,544.2230,nan,544.1412,nan,544.2230,nan,544.1412,nan,544.2230,nan,544.1412,nan,544.2230,nan,544.1412,nan,544.2230,nan,544.1412,nan,544.2230,nan,544.1412,nan,544.2230,nan,544.1412,0.0000,0.0000,0.0000,0.0000,0.0000,0.0000,0.0000,0.0000,0.0000,0.0000,0.0000,0.0000,0.0000,0.0000,0.0000,0.0000,0.0000,0.0000,0.0000,0.0000,0.0000,0.0000,0.0000,0.0000,0.0000,0.0000,0.0000,0.0000,0.0000,0.0000,0.0000,0.0000,nan,544.2230,nan,544.1412,nan,544.2230,nan,544.1412,nan,544.2230,nan,544.1412,nan,544.2230,nan,544.1412,nan,544.2230,nan,544.1412,nan,544.2230,nan,544.1412,nan,544.2230,nan,544.1412,nan,544.2230,nan,544.1412,0.0000,0.0000,0.0000,0.0000,0.0000,0.0000,0.0000,0.0000,0.0000,0.0000,0.0000,0.0000,0.0000,0.0000,0.0000,0.0000,0.0000,0.0000,0.0000,0.0000,0.0000,0.0000,0.0000,0.0000,0.0000,0.0000,0.0000,0.0000,0.0000,0.0000,0.0000,0.0000,nan,544.2230,nan,544.1412,nan,544.2230,nan,544.1412,nan,544.2230,nan,544.1412,nan,544.2230,nan,544.1412,nan,544.2230,nan,544.1412,nan,544.2230,nan,544.1412,nan,544.2230,nan,544.1412,nan,544.2230,nan,544.1412,0.0000,0.0000,0.0000,0.0000,0.0000,0.0000,0.0000,0.0000,0.0000,0.0000,0.0000,0.0000,0.0000,0.0000,0.0000,0.0000,0.0000,0.0000,0.0000,0.0000,0.0000,0.0000,0.0000,0.0000,0.0000,0.0000,0.0000,0.0000,0.0000,0.0000,0.0000,0.0000,nan,353.2035,nan,473.0941,nan,nan,nan,473.0941,nan,473.2077,nan,588.6469,nan,473.2077,nan,473.0941,nan,544.2230,nan,544.1412,nan,473.2077,nan,473.0941,nan,473.2077,nan,nan,nan,473.2077,nan,nan,0.0000,0.0000,0.0000,0.0000,0.0000,0.0000,0.0000,0.0000,0.0000,0.0000,0.0000,0.0000,0.0000,0.0000,0.0000,0.0000,0.0000,0.0000,0.0000,0.0000,0.0000,0.0000,0.0000,0.0000,0.0000,0.0000,0.0000,0.0000,0.0000,0.0000,0.0000,0.0000,136.8333,nan,122.5197,nan,165.1686,nan,nan,nan,nan,nan,nan,353.0961,1077.6278,353.2035,24.6336,nan,147.8849,nan,121.4697,nan,nan,293.3668,121.4697,nan,683.2744,nan,nan,50.9944,nan,nan,nan,nan,0.0000,0.0000,0.0000,0.0000,0.0000,0.0000,0.0000,0.0000,0.0000,0.0000,0.0000,0.0000,0.0000,0.0000,0.0000,0.0000,0.0000,0.0000,0.0000,0.0000,0.0000,0.0000,0.0000,0.0000,0.0000,0.0000,0.0000,0.0000,0.0000,0.0000,0.0000,0.0000,802.8868,51.3213,nan,nan,202.2430,189.9290,nan,189.8843,137.5874,nan,123.7909,nan,97.5329,nan,157.3339,nan,121.4697,nan,211.0733,nan,215.6209,292.8723,nan,189.8843,377.5218,476.2292,124.3603,nan,122.2103,nan,172.0482,nan,0.0000,0.0000,0.0000,0.0000,0.0000,0.0000,0.0000,0.0000,0.0000,0.0000,0.0000,0.0000,0.0000,0.0000,0.0000,0.0000,0.0000,0.0000,0.0000,0.0000,0.0000,0.0000,0.0000,0.0000,0.0000,0.0000,0.0000,0.0000,0.0000,0.0000,0.0000,0.0000,121.5650,nan,nan,nan,215.5409,189.9290,720.8510,197.5604,-116.2245,nan,124.9387,nan,172.5433,nan,66.8115,nan,89.6818,nan,nan,nan,165.3802,51.3213,123.7802,nan,254.4149,190.0654,184.9816,nan,nan,nan,24.5670,nan,0.0000,0.0000,0.0000,0.0000,0.0000,0.0000,0.0000,0.0000,0.0000,0.0000,0.0000,0.0000,0.0000,0.0000,0.0000,0.0000,0.0000,0.0000,0.0000,0.0000,0.0000,0.0000,0.0000,0.0000,0.0000,0.0000,0.0000,0.0000,0.0000,0.0000,0.0000,0.0000,
22:6:17:16:40:5:337,1.9000,72.0000,35.8000,A,0.0000,0.0000,32.6400,99387,162.6114,67309,-0.0012,0.0013,0.7037,0.0012,0.0027,-0.0062,66209,-0.0902,1.2100,-0.3699,0.0035,-0.0174,0.0145,66209,130714030,796877061,84430,0,-1,1,0.00,0.00,0.00,0,
22:6:17:16:40:5:434,1.9000,72.0000,35.8000,A,0.0000,0.0000,32.6400,99385,162.7806,67309,-0.0012,0.0013,0.7037,0.0012,0.0027,-0.0062,66209,-0.0902,1.2100,-0.3699,0.0035,-0.0174,0.0145,66209,130714030,796877061,84430,0,-1,1,0.00,0.00,0.00,0,
22:6:17:16:40:5:547,2.0000,84.0000,35.8000,A,0.0000,0.0000,32.6400,99388,162.5269,67309,-0.0012,0.0013,0.7037,0.0012,0.0027,-0.0062,66209,-0.0902,1.2100,-0.3699,0.0035,-0.0174,0.0145,66209,130714030,796877061,84430,0,-1,1,0.00,0.00,0.00,0,
22:6:17:16:40:5:644,2.0000,84.0000,35.8000,A,0.0000,0.0000,32.6400,99384,162.8651,67309,-0.0012,0.0013,0.7037,0.0012,0.0027,-0.0062,66209,-0.0902,1.2100,-0.3699,0.0035,-0.0174,0.0145,66209,130714030,796877061,84430,0,-1,1,0.00,0.00,0.00,0,
22:6:17:16:40:5:754,0.4000,143.0000,36.0000,A,0.0000,0.0000,32.6400,99386,162.6960,67309,-0.0012,0.0013,0.7037,0.0012,0.0027,-0.0062,66209,-0.0902,1.2100,-0.3699,0.0035,-0.0174,0.0145,66209,130714030,796877061,84430,0,-1,1,0.00,0.00,0.00,0,
22:6:17:16:40:5:855,0.4000,143.0000,36.0000,A,0.0000,0.0000,32.6400,99387,162.6114,67309,-0.0012,0.0013,0.7037,0.0012,0.0027,-0.0062,66209,-0.0902,1.2100,-0.3699,0.0035,-0.0174,0.0145,66209,130714030,796877061,84430,0,-1,1,0.00,0.00,0.00,0,
22:6:17:16:40:5:965,0.7000,74.0000,36.1000,A,0.0000,0.0000,32.6400,99386,162.6960,67309,-0.0012,0.0013,0.7037,0.0012,0.0027,-0.0062,66209,-0.0902,1.2100,-0.3699,0.0035,-0.0174,0.0145,66209,130714030,796877061,84430,0,-1,1,0.00,0.00,0.00,0,nan,544.2230,nan,544.1412,nan,544.2230,nan,544.1412,nan,544.2230,nan,544.1412,nan,544.2230,nan,544.1412,nan,544.2230,nan,544.1412,nan,544.2230,nan,544.1412,nan,544.2230,nan,544.1412,nan,544.2230,nan,544.1412,0.0000,0.0000,0.0000,0.0000,0.0000,0.0000,0.0000,0.0000,0.0000,0.0000,0.0000,0.0000,0.0000,0.0000,0.0000,0.0000,0.0000,0.0000,0.0000,0.0000,0.0000,0.0000,0.0000,0.0000,0.0000,0.0000,0.0000,0.0000,0.0000,0.0000,0.0000,0.0000,nan,544.2230,nan,544.1412,nan,544.2230,nan,544.1412,nan,544.2230,nan,544.1412,nan,544.2230,nan,544.1412,nan,544.2230,nan,544.1412,nan,544.2230,nan,544.1412,nan,544.2230,nan,544.1412,nan,544.2230,nan,544.1412,0.0000,0.0000,0.0000,0.0000,0.0000,0.0000,0.0000,0.0000,0.0000,0.0000,0.0000,0.0000,0.0000,0.0000,0.0000,0.0000,0.0000,0.0000,0.0000,0.0000,0.0000,0.0000,0.0000,0.0000,0.0000,0.0000,0.0000,0.0000,0.0000,0.0000,0.0000,0.0000,nan,544.2230,nan,544.1412,nan,544.2230,nan,544.1412,nan,544.2230,nan,544.1412,nan,544.2230,nan,544.1412,nan,544.2230,nan,544.1412,nan,544.2230,nan,544.1412,nan,544.2230,nan,544.1412,nan,544.2230,nan,544.1412,0.0000,0.0000,0.0000,0.0000,0.0000,0.0000,0.0000,0.0000,0.0000,0.0000,0.0000,0.0000,0.0000,0.0000,0.0000,0.0000,0.0000,0.0000,0.0000,0.0000,0.0000,0.0000,0.0000,0.0000,0.0000,0.0000,0.0000,0.0000,0.0000,0.0000,0.0000,0.0000,nan,544.2230,nan,544.1412,nan,544.2230,nan,544.1412,nan,544.2230,nan,544.1412,nan,544.2230,nan,544.1412,nan,544.2230,nan,544.1412,nan,544.2230,nan,544.1412,nan,544.2230,nan,544.1412,nan,544.2230,nan,544.1412,0.0000,0.0000,0.0000,0.0000,0.0000,0.0000,0.0000,0.0000,0.0000,0.0000,0.0000,0.0000,0.0000,0.0000,0.0000,0.0000,0.0000,0.0000,0.0000,0.0000,0.0000,0.0000,0.0000,0.0000,0.0000,0.0000,0.0000,0.0000,0.0000,0.0000,0.0000,0.0000,nan,544.2230,nan,544.1412,nan,544.2230,nan,544.1412,nan,544.2230,nan,544.1412,nan,544.2230,nan,544.1412,nan,544.2230,nan,544.1412,nan,544.2230,nan,544.1412,nan,544.2230,nan,544.1412,nan,544.2230,nan,544.1412,0.0000,0.0000,0.0000,0.0000,0.0000,0.0000,0.0000,0.0000,0.0000,0.0000,0.0000,0.0000,0.0000,0.0000,0.0000,0.0000,0.0000,0.0000,0.0000,0.0000,0.0000,0.0000,0.0000,0.0000,0.0000,0.0000,0.0000,0.0000,0.0000,0.0000,0.0000,0.0000,nan,544.2230,nan,544.1412,nan,544.2230,nan,544.1412,nan,544.2230,nan,544.1412,nan,544.2230,nan,544.1412,nan,544.2230,nan,544.1412,nan,544.2230,nan,544.1412,nan,544.2230,nan,544.1412,nan,544.2230,nan,544.1412,0.0000,0.0000,0.0000,0.0000,0.0000,0.0000,0.0000,0.0000,0.0000,0.0000,0.0000,0.0000,0.0000,0.0000,0.0000,0.0000,0.0000,0.0000,0.0000,0.0000,0.0000,0.0000,0.0000,0.0000,0.0000,0.0000,0.0000,0.0000,0.0000,0.0000,0.0000,0.0000,nan,544.2230,nan,544.1412,nan,544.2230,nan,544.1412,nan,544.2230,nan,544.1412,nan,544.2230,nan,544.1412,nan,544.2230,nan,544.1412,nan,544.2230,nan,544.1412,nan,544.2230,nan,544.1412,nan,544.2230,nan,544.1412,0.0000,0.0000,0.0000,0.0000,0.0000,0.0000,0.0000,0.0000,0.0000,0.0000,0.0000,0.0000,0.0000,0.0000,0.0000,0.0000,0.0000,0.0000,0.0000,0.0000,0.0000,0.0000,0.0000,0.0000,0.0000,0.0000,0.0000,0.0000,0.0000,0.0000,0.0000,0.0000,nan,544.2230,nan,544.1412,nan,544.2230,nan,544.1412,nan,544.2230,nan,544.1412,nan,544.2230,nan,544.1412,nan,544.2230,nan,544.1412,nan,544.2230,nan,544.1412,nan,544.2230,nan,544.1412,nan,544.2230,nan,544.1412,0.0000,0.0000,0.0000,0.0000,0.0000,0.0000,0.0000,0.0000,0.0000,0.0000,0.0000,0.0000,0.0000,0.0000,0.0000,0.0000,0.0000,0.0000,0.0000,0.0000,0.0000,0.0000,0.0000,0.0000,0.0000,0.0000,0.0000,0.0000,0.0000,0.0000,0.0000,0.0000,nan,353.2035,nan,473.0941,nan,nan,nan,473.0941,nan,473.2077,nan,588.6469,nan,473.2077,nan,473.0941,nan,544.2230,nan,544.1412,nan,473.2077,nan,473.0941,nan,473.2077,nan,nan,nan,473.2077,nan,nan,0.0000,0.0000,0.0000,0.0000,0.0000,0.0000,0.0000,0.0000,0.0000,0.0000,0.0000,0.0000,0.0000,0.0000,0.0000,0.0000,0.0000,0.0000,0.0000,0.0000,0.0000,0.0000,0.0000,0.0000,0.0000,0.0000,0.0000,0.0000,0.0000,0.0000,0.0000,0.0000,136.8333,nan,122.5197,nan,165.1686,nan,nan,nan,nan,nan,nan,353.0961,1077.6278,353.2035,24.6336,nan,147.8849,nan,121.4697,nan,nan,293.3668,121.4697,nan,683.2744,nan,nan,50.9944,nan,nan,nan,nan,0.0000,0.0000,0.0000,0.0000,0.0000,0.0000,0.0000,0.0000,0.0000,0.0000,0.0000,0.0000,0.0000,0.0000,0.0000,0.0000,0.0000,0.0000,0.0000,0.0000,0.0000,0.0000,0.0000,0.0000,0.0000,0.0000,0.0000,0.0000,0.0000,0.0000,0.0000,0.0000,802.8868,51.3213,nan,nan,202.2430,189.9290,nan,189.8843,137.5874,nan,123.7909,nan,97.5329,nan,157.3339,nan,121.4697,nan,211.0733,nan,215.6209,292.8723,nan,189.8843,377.5218,476.2292,124.3603,nan,122.2103,nan,172.0482,nan,0.0000,0.0000,0.0000,0.0000,0.0000,0.0000,0.0000,0.0000,0.0000,0.0000,0.0000,0.0000,0.0000,0.0000,0.0000,0.0000,0.0000,0.0000,0.0000,0.0000,0.0000,0.0000,0.0000,0.0000,0.0000,0.0000,0.0000,0.0000,0.0000,0.0000,0.0000,0.0000,121.5650,nan,nan,nan,215.5409,189.9290,720.8510,197.5604,-116.2245,nan,124.9387,nan,172.5433,nan,66.8115,nan,89.6818,nan,nan,nan,165.3802,51.3213,123.7802,nan,254.4149,190.0654,184.9816,nan,nan,nan,24.5670,nan,0.0000,0.0000,0.0000,0.0000,0.0000,0.0000,0.0000,0.0000,0.0000,0.0000,0.0000,0.0000,0.0000,0.0000,0.0000,0.0000,0.0000,0.0000,0.0000,0.0000,0.0000,0.0000,0.0000,0.0000,0.0000,0.0000,0.0000,0.0000,0.0000,0.0000,0.0000,0.0000,
22:6:17:16:40:6:115,0.7000,74.0000,36.1000,A,0.0000,0.0000,32.6300,99384,162.8651,67309,-0.0012,0.0013,0.7037,0.0012,0.0027,-0.0062,66209,-0.0902,1.2100,-0.3699,0.0035,-0.0174,0.0145,66209,130714030,796877061,84430,0,-1,1,0.00,0.00,0.00,0,
22:6:17:16:40:6:225,0.0000,74.0000,36.1000,A,0.0000,0.0000,32.6300,99387,162.6114,67309,-0.0012,0.0013,0.7037,0.0012,0.0027,-0.0062,66209,-0.0902,1.2100,-0.3699,0.0035,-0.0174,0.0145,66209,130714030,796877061,84430,0,-1,1,0.00,0.00,0.00,0,
22:6:17:16:40:6:326,0.0000,74.0000,36.1000,A,0.0000,0.0000,32.6300,99386,162.6960,67309,-0.0012,0.0013,0.7037,0.0012,0.0027,-0.0062,66209,-0.0902,1.2100,-0.3699,0.0035,-0.0174,0.0145,66209,130714030,796877061,84430,0,-1,1,0.00,0.00,0.00,0,
22:6:17:16:40:6:436,1.0000,114.0000,36.1000,A,0.0000,0.0000,32.6400,99388,162.5269,67309,-0.0012,0.0013,0.7037,0.0012,0.0027,-0.0062,66209,-0.0902,1.2100,-0.3699,0.0035,-0.0174,0.0145,66209,130714030,796877061,84430,0,-1,1,0.00,0.00,0.00,0,
22:6:17:16:40:6:537,1.0000,114.0000,36.1000,A,0.0000,0.0000,32.6400,99389,162.4423,67309,-0.0012,0.0013,0.7037,0.0012,0.0027,-0.0062,66209,-0.0902,1.2100,-0.3699,0.0035,-0.0174,0.0145,66209,130714030,796877061,84430,0,-1,1,0.00,0.00,0.00,0,
