Timestamp,Wind speed,Wind angle,Acoustic temperature windsensor,Temperature validity,Temperature_aht10,Relative humidity_aht10,Temperature_ms5611,Pressure_ms5611,Absolute_altitude_ms5611,timestamp_pix_attitude,Roll,Pitch,Yaw,Roll speed,Pitch speed,Yaw speed,timestamp_pix_loc_pos,x,y,z,vx,vy,vz,timestamp_pix_gps,pix_lat,pix_lon,pix_alt,pix_gps_vx,pix_gps_vy,pix_gps_vz,latitude,longitude,altitude_gps,relative_altitude_gps,Pixel_0,Pixel_1,Pixel_2,Pixel_3,Pixel_4,Pixel_5,Pixel_6,Pixel_7,Pixel_8,Pixel_9,Pixel_10,Pixel_11,Pixel_12,Pixel_13,Pixel_14,Pixel_15,Pixel_16,Pixel_17,Pixel_18,Pixel_19,Pixel_20,Pixel_21,Pixel_22,Pixel_23,Pixel_24,Pixel_25,Pixel_26,Pixel_27,Pixel_28,Pixel_29,Pixel_30,Pixel_31,Pixel_32,Pixel_33,Pixel_34,Pixel_35,Pixel_36,Pixel_37,Pixel_38,Pixel_39,Pixel_40,Pixel_41,Pixel_42,Pixel_43,Pixel_44,Pixel_45,Pixel_46,Pixel_47,Pixel_48,Pixel_49,Pixel_50,Pixel_51,Pixel_52,Pixel_53,Pixel_54,Pixel_55,Pixel_56,Pixel_57,Pixel_58,Pixel_59,Pixel_60,Pixel_61,Pixel_62,Pixel_63,Pixel_64,Pixel_65,Pixel_66,Pixel_67,Pixel_68,Pixel_69,Pixel_70,Pixel_71,Pixel_72,Pixel_73,Pixel_74,Pixel_75,Pixel_76,Pixel_77,Pixel_78,Pixel_79,Pixel_80,Pixel_81,Pixel_82,Pixel_83,Pixel_84,Pixel_85,Pixel_86,Pixel_87,Pixel_88,Pixel_89,Pixel_90,Pixel_91,Pixel_92,Pixel_93,Pixel_94,Pixel_95,Pixel_96,Pixel_97,Pixel_98,Pixel_99,Pixel_100,Pixel_101,Pixel_102,Pixel_103,Pixel_104,Pixel_105,Pixel_106,Pixel_107,Pixel_108,Pixel_109,Pixel_110,Pixel_111,Pixel_112,Pixel_113,Pixel_114,Pixel_115,Pixel_116,Pixel_117,Pixel_118,Pixel_119,Pixel_120,Pixel_121,Pixel_122,Pixel_123,Pixel_124,Pixel_125,Pixel_126,Pixel_127,Pixel_128,Pixel_129,Pixel_130,Pixel_131,Pixel_132,Pixel_133,Pixel_134,Pixel_135,Pixel_136,Pixel_137,Pixel_138,Pixel_139,Pixel_140,Pixel_141,Pixel_142,Pixel_143,Pixel_144,Pixel_145,Pixel_146,Pixel_147,Pixel_148,Pixel_149,Pixel_150,Pixel_151,Pixel_152,Pixel_153,Pixel_154,Pixel_155,Pixel_156,Pixel_157,Pixel_158,Pixel_159,Pixel_160,Pixel_161,Pixel_162,Pixel_163,Pixel_164,Pixel_165,Pixel_166,Pixel_167,Pixel_168,Pixel_169,Pixel_170,Pixel_171,Pixel_172,Pixel_173,Pixel_174,Pixel_175,Pixel_176,Pixel_177,Pixel_178,Pixel_179,Pixel_180,Pixel_181,Pixel_182,Pixel_183,Pixel_184,Pixel_185,Pixel_186,Pixel_187,Pixel_188,Pixel_189,Pixel_190,Pixel_191,Pixel_192,Pixel_193,Pixel_194,Pixel_195,Pixel_196,Pixel_197,Pixel_198,Pixel_199,Pixel_200,Pixel_201,Pixel_202,Pixel_203,Pixel_204,Pixel_205,Pixel_206,Pixel_207,Pixel_208,Pixel_209,Pixel_210,Pixel_211,Pixel_212,Pixel_213,Pixel_214,Pixel_215,Pixel_216,Pixel_217,Pixel_218,Pixel_219,Pixel_220,Pixel_221,Pixel_222,Pixel_223,Pixel_224,Pixel_225,Pixel_226,Pixel_227,Pixel_228,Pixel_229,Pixel_230,Pixel_231,Pixel_232,Pixel_233,Pixel_234,Pixel_235,Pixel_236,Pixel_237,Pixel_238,Pixel_239,Pixel_240,Pixel_241,Pixel_242,Pixel_243,Pixel_244,Pixel_245,Pixel_246,Pixel_247,Pixel_248,Pixel_249,Pixel_250,Pixel_251,Pixel_252,Pixel_253,Pixel_254,Pixel_255,Pixel_256,Pixel_257,Pixel_258,Pixel_259,Pixel_260,Pixel_261,Pixel_262,Pixel_263,Pixel_264,Pixel_265,Pixel_266,Pixel_267,Pixel_268,Pixel_269,Pixel_270,Pixel_271,Pixel_272,Pixel_273,Pixel_274,Pixel_275,Pixel_276,Pixel_277,Pixel_278,Pixel_279,Pixel_280,Pixel_281,Pixel_282,Pixel_283,Pixel_284,Pixel_285,Pixel_286,Pixel_287,Pixel_288,Pixel_289,Pixel_290,Pixel_291,Pixel_292,Pixel_293,Pixel_294,Pixel_295,Pixel_296,Pixel_297,Pixel_298,Pixel_299,Pixel_300,Pixel_301,Pixel_302,Pixel_303,Pixel_304,Pixel_305,Pixel_306,Pixel_307,Pixel_308,Pixel_309,Pixel_310,Pixel_311,Pixel_312,Pixel_313,Pixel_314,Pixel_315,Pixel_316,Pixel_317,Pixel_318,Pixel_319,Pixel_320,Pixel_321,Pixel_322,Pixel_323,Pixel_324,Pixel_325,Pixel_326,Pixel_327,Pixel_328,Pixel_329,Pixel_330,Pixel_331,Pixel_332,Pixel_333,Pixel_334,Pixel_335,Pixel_336,Pixel_337,Pixel_338,Pixel_339,Pixel_340,Pixel_341,Pixel_342,Pixel_343,Pixel_344,Pixel_345,Pixel_346,Pixel_347,Pixel_348,Pixel_349,Pixel_350,Pixel_351,Pixel_352,Pixel_353,Pixel_354,Pixel_355,Pixel_356,Pixel_357,Pixel_358,Pixel_359,Pixel_360,Pixel_361,Pixel_362,Pixel_363,Pixel_364,Pixel_365,Pixel_366,Pixel_367,Pixel_368,Pixel_369,Pixel_370,Pixel_371,Pixel_372,Pixel_373,Pixel_374,Pixel_375,Pixel_376,Pixel_377,Pixel_378,Pixel_379,Pixel_380,Pixel_381,Pixel_382,Pixel_383,Pixel_384,Pixel_385,Pixel_386,Pixel_387,Pixel_388,Pixel_389,Pixel_390,Pixel_391,Pixel_392,Pixel_393,Pixel_394,Pixel_395,Pixel_396,Pixel_397,Pixel_398,Pixel_399,Pixel_400,Pixel_401,Pixel_402,Pixel_403,Pixel_404,Pixel_405,Pixel_406,Pixel_407,Pixel_408,Pixel_409,Pixel_410,Pixel_411,Pixel_412,Pixel_413,Pixel_414,Pixel_415,Pixel_416,Pixel_417,Pixel_418,Pixel_419,Pixel_420,Pixel_421,Pixel_422,Pixel_423,Pixel_424,Pixel_425,Pixel_426,Pixel_427,Pixel_428,Pixel_429,Pixel_430,Pixel_431,Pixel_432,Pixel_433,Pixel_434,Pixel_435,Pixel_436,Pixel_437,Pixel_438,Pixel_439,Pixel_440,Pixel_441,Pixel_442,Pixel_443,Pixel_444,Pixel_445,Pixel_446,Pixel_447,Pixel_448,Pixel_449,Pixel_450,Pixel_451,Pixel_452,Pixel_453,Pixel_454,Pixel_455,Pixel_456,Pixel_457,Pixel_458,Pixel_459,Pixel_460,Pixel_461,Pixel_462,Pixel_463,Pixel_464,Pixel_465,Pixel_466,Pixel_467,Pixel_468,Pixel_469,Pixel_470,Pixel_471,Pixel_472,Pixel_473,Pixel_474,Pixel_475,Pixel_476,Pixel_477,Pixel_478,Pixel_479,Pixel_480,Pixel_481,Pixel_482,Pixel_483,Pixel_484,Pixel_485,Pixel_486,Pixel_487,Pixel_488,Pixel_489,Pixel_490,Pixel_491,Pixel_492,Pixel_493,Pixel_494,Pixel_495,Pixel_496,Pixel_497,Pixel_498,Pixel_499,Pixel_500,Pixel_501,Pixel_502,Pixel_503,Pixel_504,Pixel_505,Pixel_506,Pixel_507,Pixel_508,Pixel_509,Pixel_510,Pixel_511,Pixel_512,Pixel_513,Pixel_514,Pixel_515,Pixel_516,Pixel_517,Pixel_518,Pixel_519,Pixel_520,Pixel_521,Pixel_522,Pixel_523,Pixel_524,Pixel_525,Pixel_526,Pixel_527,Pixel_528,Pixel_529,Pixel_530,Pixel_531,Pixel_532,Pixel_533,Pixel_534,Pixel_535,Pixel_536,Pixel_537,Pixel_538,Pixel_539,Pixel_540,Pixel_541,Pixel_542,Pixel_543,Pixel_544,Pixel_545,Pixel_546,Pixel_547,Pixel_548,Pixel_549,Pixel_550,Pixel_551,Pixel_552,Pixel_553,Pixel_554,Pixel_555,Pixel_556,Pixel_557,Pixel_558,Pixel_559,Pixel_560,Pixel_561,Pixel_562,Pixel_563,Pixel_564,Pixel_565,Pixel_566,Pixel_567,Pixel_568,Pixel_569,Pixel_570,Pixel_571,Pixel_572,Pixel_573,Pixel_574,Pixel_575,Pixel_576,Pixel_577,Pixel_578,Pixel_579,Pixel_580,Pixel_581,Pixel_582,Pixel_583,Pixel_584,Pixel_585,Pixel_586,Pixel_587,Pixel_588,Pixel_589,Pixel_590,Pixel_591,Pixel_592,Pixel_593,Pixel_594,Pixel_595,Pixel_596,Pixel_597,Pixel_598,Pixel_599,Pixel_600,Pixel_601,Pixel_602,Pixel_603,Pixel_604,Pixel_605,Pixel_606,Pixel_607,Pixel_608,Pixel_609,Pixel_610,Pixel_611,Pixel_612,Pixel_613,Pixel_614,Pixel_615,Pixel_616,Pixel_617,Pixel_618,Pixel_619,Pixel_620,Pixel_621,Pixel_622,Pixel_623,Pixel_624,Pixel_625,Pixel_626,Pixel_627,Pixel_628,Pixel_629,Pixel_630,Pixel_631,Pixel_632,Pixel_633,Pixel_634,Pixel_635,Pixel_636,Pixel_637,Pixel_638,Pixel_639,Pixel_640,Pixel_641,Pixel_642,Pixel_643,Pixel_644,Pixel_645,Pixel_646,Pixel_647,Pixel_648,Pixel_649,Pixel_650,Pixel_651,Pixel_652,Pixel_653,Pixel_654,Pixel_655,Pixel_656,Pixel_657,Pixel_658,Pixel_659,Pixel_660,Pixel_661,Pixel_662,Pixel_663,Pixel_664,Pixel_665,Pixel_666,Pixel_667,Pixel_668,Pixel_669,Pixel_670,Pixel_671,Pixel_672,Pixel_673,Pixel_674,Pixel_675,Pixel_676,Pixel_677,Pixel_678,Pixel_679,Pixel_680,Pixel_681,Pixel_682,Pixel_683,Pixel_684,Pixel_685,Pixel_686,Pixel_687,Pixel_688,Pixel_689,Pixel_690,Pixel_691,Pixel_692,Pixel_693,Pixel_694,Pixel_695,Pixel_696,Pixel_697,Pixel_698,Pixel_699,Pixel_700,Pixel_701,Pixel_702,Pixel_703,Pixel_704,Pixel_705,Pixel_706,Pixel_707,Pixel_708,Pixel_709,Pixel_710,Pixel_711,Pixel_712,Pixel_713,Pixel_714,Pixel_715,Pixel_716,Pixel_717,Pixel_718,Pixel_719,Pixel_720,Pixel_721,Pixel_722,Pixel_723,Pixel_724,Pixel_725,Pixel_726,Pixel_727,Pixel_728,Pixel_729,Pixel_730,Pixel_731,Pixel_732,Pixel_733,Pixel_734,Pixel_735,Pixel_736,Pixel_737,Pixel_738,Pixel_739,Pixel_740,Pixel_741,Pixel_742,Pixel_743,Pixel_744,Pixel_745,Pixel_746,Pixel_747,Pixel_748,Pixel_749,Pixel_750,Pixel_751,Pixel_752,Pixel_753,Pixel_754,Pixel_755,Pixel_756,Pixel_757,Pixel_758,Pixel_759,Pixel_760,Pixel_761,Pixel_762,Pixel_763,Pixel_764,Pixel_765,Pixel_766,Pixel_767,
22:6:17:21:32:45:716,0.0000,0.0000,0.0000,,29.4197,83.6523,29.2100,99662,139.3816,0,0.0000,0.0000,0.0000,0.0000,0.0000,0.0000,0,0.0000,0.0000,0.0000,0.0000,0.0000,0.0000,0,0,0,0,0,0,0,0.00,0.00,0.00,0,
22:6:17:21:32:45:820,0.0000,0.0000,0.0000,,29.4680,83.6572,29.2300,99662,139.3816,0,0.0000,0.0000,0.0000,0.0000,0.0000,0.0000,0,0.0000,0.0000,0.0000,0.0000,0.0000,0.0000,0,0,0,0,0,0,0,0.00,0.00,0.00,0,
22:6:17:21:32:45:939,0.0000,0.0000,0.0000,,29.5002,83.6705,29.2400,99661,139.4660,0,0.0000,0.0000,0.0000,0.0000,0.0000,0.0000,0,0.0000,0.0000,0.0000,0.0000,0.0000,0.0000,0,0,0,0,0,0,0,0.00,0.00,0.00,0,
22:6:17:21:32:46:42,0.0000,0.0000,0.0000,,29.5275,83.6740,29.2500,99662,139.3816,0,0.0000,0.0000,0.0000,0.0000,0.0000,0.0000,0,0.0000,0.0000,0.0000,0.0000,0.0000,0.0000,0,0,0,0,0,0,0,0.00,0.00,0.00,0,
22:6:17:21:32:46:158,0.0000,0.0000,0.0000,,29.5420,83.6819,29.2600,99662,139.3816,0,0.0000,0.0000,0.0000,0.0000,0.0000,0.0000,0,0.0000,0.0000,0.0000,0.0000,0.0000,0.0000,0,0,0,0,0,0,0,0.00,0.00,0.00,0,
22:6:17:21:32:46:265,0.0000,0.0000,0.0000,,29.5593,83.6798,29.2700,99663,139.2972,0,0.0000,0.0000,0.0000,0.0000,0.0000,0.0000,0,0.0000,0.0000,0.0000,0.0000,0.0000,0.0000,0,0,0,0,0,0,0,0.00,0.00,0.00,0,
22:6:17:21:32:46:381,0.0000,0.0000,0.0000,,29.5671,83.6644,29.2700,99660,139.5504,0,0.0000,0.0000,0.0000,0.0000,0.0000,0.0000,0,0.0000,0.0000,0.0000,0.0000,0.0000,0.0000,0,0,0,0,0,0,0,0.00,0.00,0.00,0,
22:6:17:21:32:46:488,0.0000,0.0000,0.0000,,29.5830,83.6974,29.2700,99660,139.5504,0,0.0000,0.0000,0.0000,0.0000,0.0000,0.0000,0,0.0000,0.0000,0.0000,0.0000,0.0000,0.0000,0,0,0,0,0,0,0,0.00,0.00,0.00,0,
22:6:17:21:32:46:604,0.0000,0.0000,0.0000,,29.5889,83.6902,29.2700,99660,139.5504,0,0.0000,0.0000,0.0000,0.0000,0.0000,0.0000,0,0.0000,0.0000,0.0000,0.0000,0.0000,0.0000,0,0,0,0,0,0,0,0.00,0.00,0.00,0,30.9774,30.9873,30.9244,30.7788,30.7598,31.4229,30.7373,30.4541,30.9472,31.2451,30.5749,31.1176,30.4385,30.7340,30.5843,30.5980,30.7960,30.5884,30.7799,30.2351,30.4115,30.6003,30.5989,30.7937,30.7986,30.7608,30.7650,30.3325,30.8269,30.5435,30.7850,30.9100,31.1947,30.9967,30.9929,30.9787,30.9960,31.0117,31.0103,30.6155,30.9800,30.8469,30.8314,30.6606,30.6360,30.1892,30.8581,30.7152,30.7980,30.7126,30.5013,30.7028,30.6320,30.4056,31.2180,30.7354,31.3897,30.7413,30.8435,30.7275,30.9935,31.2019,30.8205,31.0473,30.7694,31.2763,30.5046,30.8333,30.6003,30.6400,30.7282,30.5394,30.7910,30.7435,30.5946,30.6063,30.4966,30.5735,30.8201,30.4637,30.6300,30.6536,30.2997,30.4722,30.4835,30.6384,30.6592,30.4801,30.8195,30.8305,30.6373,30.4512,30.6400,30.6292,31.0329,31.1595,31.4238,30.7941,30.3713,31.0000,31.1881,30.4326,30.4488,30.8405,30.9944,30.6872,30.6829,30.6980,30.5088,30.5503,30.5628,30.9246,30.9892,30.5983,30.5332,30.5803,30.8625,30.7870,30.7148,30.7756,30.9869,30.7646,30.8686,30.9522,30.5984,30.5971,30.8455,31.0519,30.7627,30.4640,30.5476,30.2787,30.5815,30.7004,30.6083,30.7328,30.6152,30.7530,30.4761,30.7787,30.8231,30.6144,30.8179,30.6467,30.6615,30.4858,30.9805,30.3279,30.6616,30.6413,30.5114,30.4824,30.4995,30.4744,30.8471,30.9031,30.8739,30.8549,30.8211,30.9462,30.9830,30.4487,30.5925,30.6220,30.8249,30.8505,30.3369,30.8495,30.8120,30.1948,30.8793,30.5594,30.8695,30.6059,30.5983,30.5970,31.0081,30.4588,30.5786,30.6087,31.1903,30.6317,30.4098,30.6018,31.0272,30.4557,30.7008,30.8111,31.0813,30.4160,30.6351,31.0670,30.8034,30.8537,30.7705,30.8880,30.6438,30.9048,30.4369,30.5819,30.6791,30.6079,30.8191,30.8105,30.6903,30.6378,30.8255,30.4856,30.3466,30.8077,30.3540,30.6810,30.5438,30.8303,30.8558,30.7075,30.8735,30.4869,30.5183,30.5295,30.6732,30.8839,30.6651,30.7353,31.0564,30.4390,30.7042,30.6717,30.8457,30.8821,30.7358,30.5606,30.7083,30.6177,30.7674,30.6031,30.7381,30.7887,30.6103,30.6041,30.8783,30.6341,30.7770,30.7903,30.7485,30.4852,30.4181,30.6247,30.7449,30.6518,31.1101,30.7961,30.8877,30.8341,30.8918,30.8625,30.8255,30.6611,30.7922,30.9106,30.6882,30.7376,30.6618,30.6176,30.3747,30.9341,30.5061,30.8129,30.6977,30.6595,30.5143,30.6924,30.5419,30.5079,30.5293,30.5368,30.2602,30.6970,30.7130,30.7457,30.8730,30.5537,30.5112,30.5271,30.7249,30.6929,31.0427,30.3621,30.6455,30.3042,30.5111,30.9040,30.5810,30.5852,30.4316,30.4298,30.5854,30.6038,30.4679,30.6158,30.9223,30.6580,30.8040,30.6487,31.0704,30.5102,30.7753,30.6586,30.9212,30.6858,30.6380,30.9918,30.7543,30.5100,30.7600,30.6325,30.9190,30.4675,31.3054,30.8833,30.8380,31.0619,30.6072,30.9504,30.6668,30.5525,30.5109,30.6076,30.8377,30.6344,30.6865,30.6869,30.5375,30.9669,30.7343,30.5231,30.7235,30.8586,30.5634,30.5715,30.5779,30.7083,30.7122,30.8634,30.5594,30.5700,30.3906,30.5819,30.9050,30.7281,30.8715,30.7709,30.8912,30.7127,30.7641,30.5382,30.5850,30.5829,30.4512,30.7672,30.7544,30.3379,31.1217,30.9520,31.0788,30.6562,30.9818,30.4874,30.7686,30.5209,30.6600,30.5021,31.0777,30.5111,30.4725,30.6572,30.7721,30.5317,30.9748,30.8592,30.7699,30.6843,30.9696,31.1035,30.9019,30.6691,30.6762,30.7431,30.5055,30.9345,30.5318,30.4678,30.8791,30.7997,30.7209,30.6749,30.7453,30.5198,30.5928,30.5391,30.8813,31.0353,30.5849,30.5912,30.5838,30.8919,30.7370,30.7438,30.7346,30.7488,30.9024,30.5765,30.5651,30.9368,30.9218,31.1792,30.9550,30.5635,30.8005,30.5719,30.7690,30.9691,30.6554,30.6246,30.7972,30.6583,30.6754,30.9606,30.9770,30.5337,30.5442,30.9810,30.9504,30.7076,30.5235,30.8410,30.8084,30.7052,30.9892,30.6838,30.7772,30.7178,30.8480,30.8570,30.7961,30.8987,30.8153,30.9182,30.7041,30.9389,30.8982,30.9460,30.7411,30.7865,30.9004,30.4750,30.7512,30.8481,30.9122,30.8695,30.9275,30.8423,30.9184,30.8669,30.4299,30.7097,30.7576,30.9220,30.4336,30.9129,31.0675,30.7636,31.0839,30.9065,30.7487,30.5970,30.7731,30.7553,30.7018,30.7927,30.8058,30.6135,30.4753,30.4277,30.8425,30.6696,31.1957,30.6578,30.6625,30.5261,30.5586,31.1602,30.8648,31.0071,30.7312,30.8609,30.5484,30.7295,30.5568,30.8684,30.9826,30.2784,30.7160,30.7016,30.9903,30.7080,30.7057,30.9176,31.0073,30.3695,30.8349,31.3332,30.7226,30.6966,30.7640,31.1731,30.7447,30.9675,30.9279,30.8747,30.5930,30.6898,30.7358,30.7258,30.7713,31.0099,30.7715,31.0670,30.7632,30.7233,30.6140,30.9369,30.6353,30.9137,30.7695,30.6023,30.9620,30.7430,30.7754,30.7718,30.9936,30.9272,31.1422,31.0121,31.2328,31.0065,30.8845,30.8055,30.8689,30.8504,30.7293,31.0256,31.0271,30.7033,30.8820,31.0280,30.8911,30.7199,30.9181,30.8826,30.8251,30.8821,30.7341,31.0388,30.7308,30.7475,30.9064,30.7244,31.0020,30.9524,31.0708,31.0860,31.0259,31.1046,30.8666,31.1685,31.0005,31.1743,30.7662,30.8381,30.9841,31.0012,30.9561,31.0538,30.7995,31.0389,30.9558,31.0701,30.8008,31.0659,30.7857,31.2501,30.7823,30.7596,30.9577,31.2598,30.7831,30.9275,30.7811,30.8108,31.1492,30.9376,30.9727,31.4967,30.9769,30.9266,31.3720,31.4186,30.6674,31.2707,30.7232,31.2407,30.7533,30.6890,30.9776,31.0498,30.9359,30.9183,30.9390,30.5543,30.9117,30.7603,30.9231,31.0633,31.0526,30.9338,31.0841,31.0618,30.7477,30.6081,30.7733,31.0691,31.1977,31.3205,31.3032,31.3142,31.2444,30.9334,31.3144,31.2284,30.6703,31.1967,31.2164,31.0380,31.0381,30.6479,30.9957,31.0771,30.6630,30.8830,30.9820,31.0839,31.1680,30.9170,31.1487,31.1055,30.9841,30.9252,30.9725,31.1220,31.1706,30.9372,30.8163,31.1469,30.9767,31.1143,30.9892,30.9615,31.2137,31.1372,31.4095,31.2800,30.7849,30.9049,30.7806,31.0817,30.8288,30.7722,30.6188,30.9088,30.9698,30.7676,30.6798,31.0877,30.8100,30.9540,30.9651,31.4240,31.0661,30.8235,30.9978,30.9409,31.1128,31.1243,30.8152,31.2887,30.9466,30.9922,31.3425,31.5134,31.2961,31.1682,31.5729,31.4891,30.8514,31.0006,31.0375,31.0641,31.2150,31.2319,30.8340,31.1004,31.0174,31.2515,31.0180,31.1059,30.6592,30.7440,31.1820,30.9621,30.9691,31.1015,31.1818,31.1373,30.8382,30.9346,31.0045,30.9596,31.1972,31.1317,31.4446,31.7794,31.2687,31.1573,31.6908,31.7614,30.9571,30.8156,30.9733,31.0678,30.9002,30.8881,30.7872,31.4638,30.8952,30.7407,30.9479,31.2113,31.0452,30.9271,30.9457,31.2163,31.1950,31.2159,31.1181,31.3806,31.0672,30.8819,31.2819,31.4488,31.2048,31.2573,31.3116,31.0781,31.6633,31.2842,31.5469,32.1188,
22:6:17:21:32:46:770,0.0000,0.0000,0.0000,,29.5696,83.6762,29.2700,99662,139.3816,0,0.0000,0.0000,0.0000,0.0000,0.0000,0.0000,0,0.0000,0.0000,0.0000,0.0000,0.0000,0.0000,0,0,0,0,0,0,0,0.00,0.00,0.00,0,
22:6:17:21:32:46:890,0.0000,0.0000,0.0000,,29.5856,83.6911,29.2700,99662,139.3816,0,0.0000,0.0000,0.0000,0.0000,0.0000,0.0000,0,0.0000,0.0000,0.0000,0.0000,0.0000,0.0000,0,0,0,0,0,0,0,0.00,0.00,0.00,0,
22:6:17:21:32:46:993,0.0000,0.0000,0.0000,,29.6015,83.6822,29.2700,99661,139.4660,0,0.0000,0.0000,0.0000,0.0000,0.0000,0.0000,0,0.0000,0.0000,0.0000,0.0000,0.0000,0.0000,0,0,0,0,0,0,0,0.00,0.00,0.00,0,
22:6:17:21:32:47:112,0.0000,0.0000,0.0000,,29.6017,83.6716,29.2800,99660,139.5504,0,0.0000,0.0000,0.0000,0.0000,0.0000,0.0000,0,0.0000,0.0000,0.0000,0.0000,0.0000,0.0000,0,0,0,0,0,0,0,0.00,0.00,0.00,0,
22:6:17:21:32:47:215,0.0000,0.0000,0.0000,,29.6124,83.6805,29.2800,99662,139.3816,0,0.0000,0.0000,0.0000,0.0000,0.0000,0.0000,0,0.0000,0.0000,0.0000,0.0000,0.0000,0.0000,0,0,0,0,0,0,0,0.00,0.00,0.00,0,
22:6:17:21:32:47:331,0.0000,0.0000,0.0000,,29.6143,83.6740,29.2800,99661,139.4660,0,0.0000,0.0000,0.0000,0.0000,0.0000,0.0000,0,0.0000,0.0000,0.0000,0.0000,0.0000,0.0000,0,0,0,0,0,0,0,0.00,0.00,0.00,0,
22:6:17:21:32:47:438,0.0000,0.0000,0.0000,,29.6211,83.6745,29.2800,99661,139.4660,0,0.0000,0.0000,0.0000,0.0000,0.0000,0.0000,0,0.0000,0.0000,0.0000,0.0000,0.0000,0.0000,0,0,0,0,0,0,0,0.00,0.00,0.00,0,
22:6:17:21:32:47:554,0.0000,0.0000,0.0000,,29.6211,83.6879,29.2800,99662,139.3816,0,0.0000,0.0000,0.0000,0.0000,0.0000,0.0000,0,0.0000,0.0000,0.0000,0.0000,0.0000,0.0000,0,0,0,0,0,0,0,0.00,0.00,0.00,0,
22:6:17:21:32:47:661,0.0000,0.0000,0.0000,,29.6270,83.6764,29.2800,99663,139.2972,0,0.0000,0.0000,0.0000,0.0000,0.0000,0.0000,0,0.0000,0.0000,0.0000,0.0000,0.0000,0.0000,0,0,0,0,0,0,0,0.00,0.00,0.00,0,31.6176,31.1585,31.2966,30.9382,31.1099,30.5205,31.0793,30.7852,31.0883,30.6111,30.9038,30.6789,31.1241,30.6651,30.9034,30.5294,30.9374,30.3393,30.9211,30.7205,31.1095,30.5313,30.9315,30.9204,31.3336,30.4874,31.1196,30.6995,31.1920,30.4746,31.1710,30.8417,30.8860,30.9077,31.1518,31.1212,30.7253,30.9501,31.1408,30.9529,31.0989,30.8037,31.1312,30.9838,30.3899,31.0441,30.6159,30.6801,30.7303,31.0297,30.6151,31.3825,30.5638,30.9103,30.7793,31.2608,31.3224,30.8853,30.9859,31.0844,30.4897,30.9035,30.9916,31.4336,31.3767,31.2080,31.0788,30.5553,31.1372,30.7671,31.0591,30.8437,31.1098,30.6745,30.7350,30.5376,31.1439,30.5047,30.6197,30.9059,30.9412,30.4140,30.9550,30.4034,30.9697,30.7429,30.6216,30.7701,30.9614,30.7613,30.9774,30.7865,31.1963,30.5604,30.9510,30.8625,30.9016,31.1571,30.9408,31.3475,30.7333,30.7668,30.9441,30.7992,30.7515,30.6538,30.6162,31.0096,30.4408,31.0242,30.9988,30.9002,30.5850,30.7406,30.8050,31.0627,30.6250,30.7592,31.0011,30.9185,30.9195,31.0948,30.9969,30.8980,30.5310,31.3503,31.2234,30.9731,31.1242,31.0296,30.6897,30.6108,31.2954,30.8173,30.5695,30.6642,30.5846,30.8545,30.7845,30.7102,31.1270,30.5453,31.1217,30.7423,30.6390,30.4165,30.9566,30.5907,30.8029,30.4048,30.8238,30.7625,30.9922,30.5836,30.9895,30.6477,31.4065,30.5848,31.1801,31.0946,30.7007,31.0083,30.5263,31.1575,30.9440,30.9921,30.6237,30.9908,30.4048,30.8436,30.4816,31.0373,30.6402,30.7479,31.0145,30.9011,30.6159,30.4402,30.8390,31.0786,30.6279,30.9395,30.6808,31.0887,30.7862,30.5991,30.4481,30.9547,31.0139,31.1513,30.7821,31.2127,31.3650,30.3767,30.9121,31.2080,31.1471,30.6603,30.9277,30.5132,30.9839,30.7027,30.9596,30.7419,30.9908,30.4102,31.1251,30.9017,30.6463,30.7388,30.6552,30.7740,31.0023,30.7614,31.1652,30.4688,31.0154,30.4177,30.8386,30.6422,31.1901,30.6236,31.2189,31.0852,30.7814,30.7838,30.4449,31.0062,30.4204,30.8504,31.0147,31.0435,30.6405,30.7598,30.8621,30.9052,30.6700,30.6173,30.8593,30.9059,30.6530,31.0932,30.8682,30.9323,30.6804,30.9487,30.5183,31.2694,30.8422,30.7949,31.0436,30.7586,31.0061,30.9783,30.8255,31.4200,31.1717,30.7921,30.9338,30.8423,31.0021,30.4957,30.4625,30.7165,30.8382,30.7009,30.8064,30.5843,30.8386,30.5904,30.9698,30.7795,30.8368,30.5947,30.8305,30.7834,30.8735,30.4717,31.1786,30.5138,31.1819,30.6515,31.0067,30.8174,31.2348,30.2482,31.1855,30.8980,30.5783,30.8444,30.2566,31.0467,30.5130,30.8993,30.3644,30.9030,30.5175,30.7459,30.7185,31.2338,30.8544,30.9535,30.7369,31.0980,30.8499,30.6524,30.8671,30.9569,30.5405,30.6725,30.4096,31.1342,30.8523,30.9844,30.8688,30.9541,31.0333,30.9826,31.0418,31.0285,30.9813,30.5975,30.7488,31.0651,30.9805,30.4833,30.4844,30.7068,31.1391,30.4059,31.1446,30.6178,30.8336,30.5872,31.1827,30.7685,30.8648,30.6345,31.0164,30.6595,30.8756,30.3201,30.6909,30.4678,31.1940,30.8315,31.0467,30.6859,30.8680,30.6588,31.4079,30.9011,30.6247,30.8562,30.6976,30.8645,30.6881,30.8978,30.5508,30.9094,30.6863,30.9540,30.5809,31.0938,30.7021,30.7982,31.0674,30.7853,30.5486,30.9704,30.7477,30.8007,30.8544,30.8121,30.7294,31.1248,30.8678,30.8397,31.0780,31.0026,30.8807,31.1896,30.9029,31.0518,31.2460,30.2049,30.6324,30.4909,30.9978,30.8657,31.0089,30.7304,31.0204,30.4104,31.0213,30.7648,31.0396,30.7573,31.1927,30.6257,31.0221,30.6635,30.8816,30.6786,31.1916,30.5105,30.7178,30.8384,31.0409,30.6795,31.0445,30.8560,31.0617,30.6891,31.0656,30.9149,30.2873,31.0983,30.7341,30.8972,30.3515,30.7766,30.4211,30.9317,30.7292,30.8007,30.9251,30.9447,30.7559,30.9809,30.7819,30.9688,30.7312,31.0005,30.6114,30.8274,31.0509,30.6929,30.7624,31.1516,30.8723,31.0242,30.9534,31.1734,30.9058,30.6874,30.9417,31.2594,31.0482,30.6765,30.8557,30.6948,30.8834,30.5489,31.0422,31.0692,31.2162,30.7789,31.0536,30.6476,30.9161,30.6199,31.0596,30.4890,30.8776,30.4881,30.7429,30.6975,30.8886,30.6892,31.0464,30.8575,31.3910,30.6699,31.0650,30.8757,31.0940,30.5060,31.2363,30.9229,30.5375,31.3349,30.7794,31.1188,30.7749,30.9806,30.9634,31.2965,30.7561,30.9867,30.8068,31.1486,30.9499,30.6896,31.1222,31.1571,30.7864,31.0237,30.9570,31.3194,30.7587,31.1911,30.9747,31.0072,30.7569,31.0185,31.1581,31.2349,30.9399,31.0512,30.9637,31.2813,31.2726,30.6277,31.0960,31.1046,31.0630,30.3813,31.0701,30.9718,31.0582,30.7823,30.7149,30.6568,31.0671,30.7862,31.0672,30.8411,31.3733,30.8111,30.9142,30.7113,31.2482,30.8446,31.0757,30.8630,31.1047,30.5040,31.2715,30.8801,31.4992,30.6735,31.4836,31.1431,30.5552,31.1508,30.8185,31.1359,30.4491,30.6507,30.8319,30.8397,30.7979,30.8463,30.9776,31.4901,30.8229,30.8625,30.8515,31.1814,30.9139,31.0248,30.6673,31.3373,30.8197,31.0487,31.0039,31.0318,30.7698,31.2647,31.0041,30.8775,30.7762,31.2491,31.1961,31.5130,31.3562,31.1054,31.1038,31.1456,30.7705,30.7532,30.9261,30.8146,31.1063,30.9699,31.0979,30.8384,31.1015,30.6857,31.2499,31.0226,31.0822,30.5329,31.0997,31.0282,31.0876,30.5358,30.9236,30.9113,31.2922,30.5244,30.9371,31.0635,31.3077,30.8575,31.3123,31.1426,30.6004,31.4156,30.6575,31.1972,30.5063,30.8331,31.2554,31.1932,30.7044,30.7378,31.1981,31.1871,31.0038,31.2158,31.3387,31.2062,30.8275,31.0769,30.8572,31.2049,30.8420,31.3921,31.2107,31.2126,30.6205,31.2947,31.5936,30.9088,31.1774,31.2699,31.0449,31.5848,31.2427,30.7126,31.1622,30.9695,31.0006,30.7629,31.1389,31.1848,31.3132,30.8138,31.1246,31.0154,31.1501,30.6861,31.2910,31.0369,31.4548,30.5309,31.2810,31.0536,31.3136,30.3683,31.1315,31.2498,31.2930,30.6861,31.6910,31.0815,31.7425,31.0683,31.3416,31.4292,30.2851,31.4680,30.7153,31.2267,30.7617,31.2870,30.9101,31.5828,30.5621,30.9117,31.2842,31.3988,30.9042,31.2589,31.0637,31.4041,30.9987,31.1306,31.2616,31.0847,31.2126,31.1017,31.0940,31.2591,30.8788,30.9582,31.2765,31.6581,31.2294,31.3141,31.7208,31.8551,31.4434,31.3714,31.3940,31.2014,31.1636,30.9694,31.1670,31.2168,31.3387,30.8285,31.1614,31.2139,31.6532,30.6747,31.1534,31.2294,31.4512,30.8640,31.4952,31.2406,31.1545,31.0389,31.5089,31.4381,31.5226,30.8764,31.5889,31.7118,31.6155,30.8810,31.6141,31.4668,30.6651,31.4059,30.9082,31.4229,31.0308,31.0358,31.2906,31.4263,30.8282,31.4193,30.8818,31.5329,30.8058,31.2430,31.3957,31.3610,30.9580,31.1930,31.2238,31.1819,30.8269,31.2005,31.0354,31.7768,31.1381,31.4033,31.2462,31.6215,31.5974,31.6391,31.9270,31.8144,
22:6:17:21:32:47:840,0.0000,0.0000,0.0000,,29.5971,83.6623,29.2700,99664,139.2128,0,0.0000,0.0000,0.0000,0.0000,0.0000,0.0000,0,0.0000,0.0000,0.0000,0.0000,0.0000,0.0000,0,0,0,0,0,0,0,0.00,0.00,0.00,0,
22:6:17:21:32:47:943,0.0000,0.0000,0.0000,,29.6160,83.6669,29.2800,99660,139.5504,0,0.0000,0.0000,0.0000,0.0000,0.0000,0.0000,0,0.0000,0.0000,0.0000,0.0000,0.0000,0.0000,0,0,0,0,0,0,0,0.00,0.00,0.00,0,
22:6:17:21:32:48:63,0.0000,0.0000,0.0000,,29.6173,83.6529,29.2800,99664,139.2128,0,0.0000,0.0000,0.0000,0.0000,0.0000,0.0000,0,0.0000,0.0000,0.0000,0.0000,0.0000,0.0000,0,0,0,0,0,0,0,0.00,0.00,0.00,0,
22:6:17:21:32:48:166,0.0000,0.0000,0.0000,,29.6270,83.6571,29.2800,99662,139.3816,0,0.0000,0.0000,0.0000,0.0000,0.0000,0.0000,0,0.0000,0.0000,0.0000,0.0000,0.0000,0.0000,0,0,0,0,0,0,0,0.00,0.00,0.00,0,
22:6:17:21:32:48:285,0.0000,0.0000,0.0000,,29.6249,83.6247,29.2800,99663,139.2972,0,0.0000,0.0000,0.0000,0.0000,0.0000,0.0000,0,0.0000,0.0000,0.0000,0.0000,0.0000,0.0000,0,0,0,0,0,0,0,0.00,0.00,0.00,0,
22:6:17:21:32:48:388,0.0000,0.0000,0.0000,,29.6354,83.6628,29.2800,99660,139.5504,0,0.0000,0.0000,0.0000,0.0000,0.0000,0.0000,0,0.0000,0.0000,0.0000,0.0000,0.0000,0.0000,0,0,0,0,0,0,0,0.00,0.00,0.00,0,
22:6:17:21:32:48:504,0.0000,0.0000,0.0000,,29.6343,83.6284,29.2800,99662,139.3816,0,0.0000,0.0000,0.0000,0.0000,0.0000,0.0000,0,0.0000,0.0000,0.0000,0.0000,0.0000,0.0000,0,0,0,0,0,0,0,0.00,0.00,0.00,0,
22:6:17:21:32:48:611,0.0000,0.0000,0.0000,,29.6408,83.6448,29.2900,99662,139.3816,0,0.0000,0.0000,0.0000,0.0000,0.0000,0.0000,0,0.0000,0.0000,0.0000,0.0000,0.0000,0.0000,0,0,0,0,0,0,0,0.00,0.00,0.00,0,
22:6:17:21:32:48:727,0.0000,0.0000,0.0000,,29.6412,83.6334,29.2900,99663,139.2972,0,0.0000,0.0000,0.0000,0.0000,0.0000,0.0000,0,0.0000,0.0000,0.0000,0.0000,0.0000,0.0000,0,0,0,0,0,0,0,0.00,0.00,0.00,0,31.7716,31.0318,30.9732,31.2767,31.2241,31.2592,30.9855,31.2947,30.8041,30.9124,31.3710,31.5309,31.0299,30.5968,30.6310,31.1833,31.1987,30.9912,30.8271,31.2009,31.0153,31.0138,30.8376,31.2276,31.2397,31.2134,30.6007,31.0296,31.0980,31.0436,31.0770,31.2017,31.4837,31.0446,31.2642,31.0261,31.2456,31.0588,31.2529,31.0530,31.2119,30.5230,31.2432,30.7069,31.2144,30.7707,30.9037,30.5841,31.0183,30.7591,31.0888,30.5694,31.4016,30.6337,31.4499,30.9742,31.2437,30.9884,31.5150,30.9885,31.4753,30.8072,31.3415,31.3377,31.5141,31.7679,30.7692,31.0871,31.0430,31.0747,30.9658,30.9560,31.1938,31.1419,30.9916,31.3409,31.0497,30.9567,30.5249,30.8483,31.0167,31.0371,30.6898,30.6887,30.8753,31.2019,30.7066,31.0614,31.0510,31.2547,30.6856,31.5035,31.1023,31.2923,30.8568,31.4340,31.2434,31.0620,31.2642,30.6345,31.2343,31.0550,31.2428,31.4340,31.0399,30.5583,31.2444,30.9145,30.8863,30.4295,31.2785,31.1373,31.0344,30.8122,31.4227,31.1368,30.9080,30.6632,31.1138,30.9987,31.2134,30.8121,31.1099,30.8020,31.2584,30.8490,31.5578,30.8768,31.0301,31.1433,31.0062,30.9232,31.0109,31.1156,30.4751,31.1365,30.6617,31.1373,30.8577,31.1615,30.8695,30.6581,30.7006,31.0185,30.7078,30.6922,30.6978,31.0337,31.0408,30.6852,30.7292,31.3958,30.8973,30.8747,31.0837,31.3203,31.1178,31.1006,30.8704,31.4250,31.2446,30.9124,31.0483,31.2588,30.8708,31.0792,31.0883,30.8957,31.0264,30.5793,31.4192,30.9417,31.0757,30.6520,31.1269,30.4806,31.3763,30.6658,31.2781,30.8191,31.0712,31.0089,31.1306,30.8209,30.8998,30.6784,31.1175,30.8588,31.3197,31.0554,31.3208,31.1167,31.2712,31.3044,31.0136,31.1263,31.0529,30.7731,30.8337,31.1421,31.0530,30.8153,30.5390,31.0149,31.0557,30.8395,30.8718,30.8526,31.0267,31.1713,30.8809,30.7248,30.9079,30.7123,30.7345,31.2592,30.9207,31.0490,31.0994,30.9370,30.9088,31.1196,30.9194,31.6160,31.1034,30.8901,30.7508,31.1020,31.0698,30.7551,31.2997,31.1180,30.7535,30.6639,31.2973,30.8095,30.7834,30.9912,31.2871,30.6501,31.0803,30.8391,30.9808,30.9963,31.2681,30.5316,31.1320,30.8392,31.2866,30.8701,31.5074,30.8435,31.1200,31.2582,31.3421,30.9118,30.8741,30.9050,31.0293,31.1414,30.7355,31.1262,30.8788,30.9960,30.7436,30.8135,30.7122,31.1758,31.0575,31.0120,30.5605,31.2025,30.8961,30.7074,30.8958,31.0529,30.9353,30.7408,30.7599,31.1151,31.0872,30.9322,30.7357,30.9307,30.7732,30.7378,30.8910,31.6132,31.2965,30.7483,31.4934,30.9510,30.7991,30.6317,30.9831,30.4760,31.4287,30.4869,30.9898,30.9798,31.1231,30.7041,31.4692,30.6947,30.9631,30.8651,31.1383,31.0173,30.9666,30.7323,31.4860,30.8767,31.1324,30.7229,30.9817,30.8582,31.1472,30.8867,31.3525,30.7336,30.8865,30.9085,30.6547,30.9946,31.0581,30.7697,30.7257,31.3211,31.0448,30.6780,30.5738,31.2070,30.8941,31.0105,30.9348,31.0374,30.9220,31.2115,30.7661,31.2423,31.0923,30.7523,30.5962,30.9074,30.9353,31.2750,30.6099,30.9718,31.1326,31.3183,30.7229,31.0151,30.9381,30.5625,31.3696,30.5850,30.9727,30.6295,30.9965,30.9802,30.9597,30.8583,31.1675,30.9982,30.9699,30.7024,31.3320,30.8452,30.9654,30.8747,31.0150,30.7049,30.9677,30.8746,31.1652,30.7038,30.9818,30.7437,31.1907,31.2497,31.1730,30.7323,31.4057,30.9558,31.1515,31.1068,30.7243,30.9704,30.7283,30.8090,30.7468,31.3375,30.9260,30.8434,30.7677,31.3509,30.7920,30.7167,30.7927,31.0480,31.0797,31.3809,30.9424,31.1038,30.9420,31.2472,30.9448,31.2773,31.1102,30.9572,30.9502,31.3165,30.9675,30.8033,31.3579,31.4205,31.2017,31.0025,31.0326,30.8013,30.9895,30.5126,31.0355,30.8359,30.8429,30.5452,31.0378,30.8490,31.4810,30.8852,31.1984,31.0274,30.9959,30.9048,30.8790,31.0433,31.3191,30.7518,31.1950,31.0560,31.1486,31.0915,31.4110,30.7313,31.1969,30.7691,31.6327,30.9675,31.1544,31.3686,31.1317,31.1727,30.9615,31.1666,30.7816,31.1813,31.2828,31.0511,30.8019,31.2193,31.2798,31.0392,30.8126,30.9107,30.7831,31.0576,30.6483,31.4316,30.9506,30.9571,30.9521,31.1330,31.1315,31.1180,30.7968,30.9891,30.9998,30.8003,30.9467,31.4333,31.0540,31.0471,31.0775,31.0231,31.0611,30.8847,31.0763,30.8704,30.8700,30.7320,31.2339,30.8991,30.9107,30.9005,31.2348,30.9075,30.9005,30.7761,31.0697,31.0697,31.0284,31.0955,31.2507,30.7487,31.2014,30.7554,31.4442,30.9656,31.2318,30.5972,31.2728,31.1854,31.1780,30.9397,30.8130,31.2176,30.9687,31.3549,30.9758,31.5804,30.9639,31.3796,30.9450,31.0906,31.2810,31.3629,30.9734,31.2682,31.1229,30.9244,30.8198,31.2940,30.9969,30.9580,30.8172,31.3046,31.0100,30.7876,31.0008,31.6985,31.2240,30.7878,31.1919,31.4560,31.0778,31.0549,30.9320,31.0402,31.0916,30.5545,31.1138,30.7437,30.9119,30.7503,30.7660,31.0751,30.9373,30.9223,31.2715,30.9295,31.0275,30.7723,31.2527,30.7730,31.4042,31.2689,31.2817,31.2639,31.2126,31.0005,31.4699,30.9580,31.4368,30.9691,31.5076,31.0192,31.2617,31.4196,31.0097,31.2587,31.0331,30.8668,30.8317,31.4386,30.8476,31.2464,30.8410,31.2773,31.0073,31.1101,30.9947,31.4534,31.3038,31.1178,31.0055,31.4672,31.1558,31.1328,30.9978,31.3637,31.1977,31.3252,31.3783,31.1770,31.4009,31.5454,31.6258,31.8794,31.1400,31.1194,30.9663,30.9134,30.8008,30.9159,31.3693,31.0975,30.9828,30.9659,31.1485,31.0915,30.9582,30.9640,31.4515,31.1106,31.2562,31.1374,31.2911,31.1093,31.1188,30.9766,31.4919,31.1169,31.0748,31.1983,31.1722,31.1797,31.4799,31.3652,31.9711,31.6967,31.1482,31.0345,31.0682,31.8699,30.9064,31.2443,31.0448,31.4737,30.8811,31.0966,31.3647,31.6311,31.0560,31.1229,31.0328,31.3135,31.1965,31.2936,31.0207,31.4979,31.3861,30.9818,31.3814,31.3631,31.1990,31.1593,31.4116,31.5710,31.2640,31.1828,31.2478,31.7618,31.0504,30.9547,31.4301,30.7336,31.2414,31.0060,31.2018,30.9571,31.1869,30.9850,31.0632,31.3033,31.0186,31.0018,31.5053,31.3087,31.2776,31.1964,31.5402,31.1542,31.3275,31.0058,31.5523,31.1634,31.1681,31.0413,31.7650,31.5627,31.7320,31.2181,31.6222,31.7586,31.3498,31.7047,31.3003,31.7250,30.8734,31.2770,30.8840,31.6987,31.2448,31.4729,30.8902,31.6791,31.2198,30.9576,31.0593,31.6772,31.1876,31.4822,31.2308,31.1822,31.2323,31.1528,31.4152,31.7330,31.2468,31.3629,31.3014,32.2169,31.7239,31.2033,31.7429,31.8087,31.0085,31.3098,31.4501,31.3260,31.3434,31.1329,31.4056,31.3297,31.3007,31.1456,31.1745,31.6136,31.2653,31.6540,31.5101,31.4336,31.0729,30.9290,31.5096,31.4298,31.2878,31.2777,31.6912,31.3169,31.4370,30.9334,31.7526,31.3276,31.7130,31.3356,32.0423,32.1725,
22:6:17:21:32:48:896,0.0000,0.0000,0.0000,,29.6124,83.6296,29.2800,99662,139.3816,0,0.0000,0.0000,0.0000,0.0000,0.0000,0.0000,0,0.0000,0.0000,0.0000,0.0000,0.0000,0.0000,0,0,0,0,0,0,0,0.00,0.00,0.00,0,
22:6:17:21:32:49:12,0.0000,0.0000,0.0000,,29.6228,83.6328,29.2800,99659,139.6347,0,0.0000,0.0000,0.0000,0.0000,0.0000,0.0000,0,0.0000,0.0000,0.0000,0.0000,0.0000,0.0000,0,0,0,0,0,0,0,0.00,0.00,0.00,0,
22:6:17:21:32:49:115,0.0000,0.0000,0.0000,,29.6377,83.6472,29.2800,99662,139.3816,0,0.0000,0.0000,0.0000,0.0000,0.0000,0.0000,0,0.0000,0.0000,0.0000,0.0000,0.0000,0.0000,0,0,0,0,0,0,0,0.00,0.00,0.00,0,
22:6:17:21:32:49:235,0.0000,0.0000,0.0000,,29.6337,83.6290,29.2900,99659,139.6347,0,0.0000,0.0000,0.0000,0.0000,0.0000,0.0000,0,0.0000,0.0000,0.0000,0.0000,0.0000,0.0000,0,0,0,0,0,0,0,0.00,0.00,0.00,0,
22:6:17:21:32:49:338,0.0000,0.0000,0.0000,,29.6402,83.6100,29.2900,99662,139.3816,0,0.0000,0.0000,0.0000,0.0000,0.0000,0.0000,0,0.0000,0.0000,0.0000,0.0000,0.0000,0.0000,0,0,0,0,0,0,0,0.00,0.00,0.00,0,
22:6:17:21:32:49:458,0.0000,0.0000,0.0000,,29.6368,83.6203,29.2900,99662,139.3816,0,0.0000,0.0000,0.0000,0.0000,0.0000,0.0000,0,0.0000,0.0000,0.0000,0.0000,0.0000,0.0000,0,0,0,0,0,0,0,0.00,0.00,0.00,0,
22:6:17:21:32:49:561,0.0000,0.0000,0.0000,,29.6448,83.6166,29.2900,99658,139.7191,0,0.0000,0.0000,0.0000,0.0000,0.0000,0.0000,0,0.0000,0.0000,0.0000,0.0000,0.0000,0.0000,0,0,0,0,0,0,0,0.00,0.00,0.00,0,
22:6:17:21:32:49:677,0.0000,0.0000,0.0000,,29.6444,83.6104,29.2900,99662,139.3816,0,0.0000,0.0000,0.0000,0.0000,0.0000,0.0000,0,0.0000,0.0000,0.0000,0.0000,0.0000,0.0000,0,0,0,0,0,0,0,0.00,0.00,0.00,0,31.3943,31.5174,31.7780,31.2843,31.1329,31.0587,31.3017,31.5007,30.5385,31.2969,31.2997,31.1696,31.1459,30.9668,31.1033,31.1911,30.9590,30.8199,31.3103,31.3920,30.9463,31.0216,31.3348,31.2353,31.3562,30.8133,30.9306,31.0372,31.6573,30.8240,31.4366,31.2090,31.0075,31.3944,31.4951,31.5878,31.0500,31.1761,31.4563,31.1699,31.0334,31.0103,31.0679,31.0054,31.2221,30.8882,31.4363,31.2334,30.8511,30.7004,30.7356,31.2253,31.0480,30.7520,31.2715,31.0925,31.2514,30.7089,31.5223,31.5315,31.0479,31.1498,31.8197,31.6983,31.4007,31.3288,31.3170,31.0947,31.3564,31.0826,31.2710,31.1497,30.9536,30.7954,31.1065,30.8311,30.9970,30.9646,30.8120,31.0261,31.1322,30.8756,31.1474,31.0409,31.3348,30.8638,31.0024,30.7114,31.3507,31.0730,31.0003,31.3104,31.2198,30.8883,31.4258,31.4414,31.2509,31.1800,31.2714,31.5749,31.0483,30.7886,31.4365,31.3683,31.0477,30.8501,31.0802,31.2009,30.7281,30.8793,30.9516,30.9216,30.8745,30.9295,31.4303,31.0842,31.2539,31.1216,30.9450,31.1165,31.4017,30.7435,31.1173,31.1190,31.2660,30.5621,31.7858,31.4476,31.1475,31.3620,31.3271,30.9310,30.9364,30.9381,31.1303,30.9646,30.7774,31.1452,30.9731,31.1694,31.1481,31.1588,30.9796,31.0263,31.1507,30.8627,30.9778,31.0416,31.1563,30.6932,31.1859,31.0566,31.0139,31.0602,31.3885,31.3280,31.4297,31.1084,30.9883,31.2163,31.2521,31.0310,31.0557,31.1795,30.8786,31.0138,31.0958,31.0122,30.6955,30.8648,31.0974,30.7226,31.0836,30.9312,30.9738,31.0841,31.2228,30.6223,30.9592,31.2635,31.0790,30.9611,31.1382,31.2822,31.2535,30.6213,31.1250,31.3439,31.3273,31.3709,31.1157,31.2374,31.3883,30.9058,30.9345,31.1341,30.9886,30.6053,30.7744,31.3216,31.0052,30.6595,30.9807,30.8621,31.0119,30.8476,31.1462,31.1829,30.8256,30.8594,30.8363,31.2164,31.0235,31.0437,31.3546,30.9290,31.2036,30.5389,31.2159,31.1258,31.2128,30.9367,31.0376,31.6234,31.1110,30.8062,30.9506,31.4106,30.7205,30.8719,31.1349,31.4046,30.7614,30.9422,30.9823,31.0863,30.9496,30.7951,31.1372,31.0866,31.2449,31.1145,30.9884,31.1132,30.9600,30.9702,30.8060,31.1241,30.9641,31.3295,31.3395,31.1425,31.1277,31.1894,31.3494,31.6500,31.1948,31.1124,30.9561,31.1492,31.1959,30.6165,30.8248,31.0039,30.8594,30.8215,30.9870,31.1837,31.1729,30.8656,30.8334,30.8996,31.1650,31.0267,31.0114,30.9036,30.8947,31.0605,31.2002,30.9605,31.2035,30.7732,31.0289,30.9385,31.0744,30.9327,31.4086,31.4207,31.1030,31.0645,30.9401,31.2523,30.9786,30.9209,30.9907,31.0895,30.9584,30.9299,30.8389,31.0965,31.2861,31.1280,31.1674,31.1192,30.9710,31.1360,30.9873,31.1342,30.9745,30.5380,31.0129,31.3175,31.1403,30.5091,31.1644,31.1543,31.3363,31.0057,31.3598,31.2509,31.2034,30.9164,31.1465,31.3689,31.0022,30.6042,30.8418,31.1619,30.9997,30.6860,31.0073,30.8977,31.0095,31.1736,31.0504,31.0453,31.0377,31.2195,30.8818,31.0938,30.8968,31.2365,30.8752,31.0784,31.2156,31.1181,31.0690,30.9796,31.2494,31.3261,31.2347,31.6166,30.9457,30.8788,31.0048,30.8865,30.9805,30.9194,30.5047,31.2634,31.1271,30.9754,31.1751,30.9573,31.1320,30.9735,30.8825,31.1174,30.6699,30.9917,31.0227,31.1342,30.8200,30.8336,31.0114,30.9841,30.8258,31.0264,31.0286,31.1966,31.3585,30.8515,31.4131,30.8790,31.2696,30.9181,31.2132,30.9782,31.0198,30.9863,31.0306,31.1807,31.0418,31.0112,31.0427,31.2010,31.0610,31.0308,31.3665,31.0559,31.1951,30.7848,31.0582,31.2675,31.2130,30.6320,31.2213,30.9593,31.0626,31.1288,31.0669,31.3243,30.9076,31.1678,30.8951,31.0365,31.4081,31.1212,31.2249,31.1012,30.8229,30.7984,31.3759,30.9532,30.8507,31.1404,31.0454,31.1238,31.0305,30.8499,30.9022,31.2983,31.0037,30.8713,31.0412,31.3158,31.0171,30.8693,31.0428,31.3357,31.3189,31.0465,31.2467,31.3686,31.0276,30.8884,31.4481,31.2838,31.2722,30.9913,31.0638,31.1805,31.0782,30.6698,31.0642,30.8584,31.0766,31.0592,31.3891,31.0743,31.2431,31.0472,30.9286,31.0728,31.2043,30.7614,30.9208,31.1294,31.2226,30.8106,31.2309,31.3030,31.0829,31.2927,31.4344,30.9969,31.2947,30.8081,31.2598,31.4408,31.0615,31.1661,31.0848,31.3232,30.8967,31.0027,31.0838,30.9881,31.0390,30.8496,31.2414,31.1702,31.2239,31.1708,31.2423,31.4858,30.7553,31.0454,31.3875,31.1870,31.1921,31.2130,31.2583,31.0293,30.7138,31.0410,31.4517,31.6027,30.8837,30.8959,31.2801,31.7002,30.8909,30.9475,31.3071,31.2254,31.0856,31.1913,31.2614,31.2580,31.2414,31.0652,30.8990,31.2585,31.2428,31.0617,31.2434,31.2761,31.3949,30.9324,30.9361,31.1456,31.2701,30.9660,31.4254,31.1483,31.2919,30.7955,31.2946,31.3543,30.9796,31.1643,31.5077,31.4635,31.0852,31.1743,31.5012,30.9721,31.0992,30.8448,30.9525,31.1907,31.0811,31.0303,31.0980,31.3526,30.9451,31.0399,31.2790,31.2034,31.1918,31.0468,31.2603,31.3593,31.2555,31.3866,31.2892,31.2182,31.0560,30.9518,31.3015,31.4291,31.2626,31.2729,31.5149,31.3393,31.3812,31.0263,31.3213,31.0787,31.1507,31.0535,31.2940,31.2764,31.1289,30.9278,30.9578,31.4478,31.4404,31.1181,31.4328,31.1434,31.1043,30.9689,31.4424,31.3122,31.1099,30.9799,31.2828,31.5404,31.1455,31.3330,31.4955,31.1847,31.3316,31.3623,31.7438,31.8868,31.1473,31.6398,30.7785,31.2207,30.9876,30.8561,31.2047,31.5566,31.1540,31.0842,31.3184,31.3721,30.9659,30.9257,31.4589,31.5461,31.4209,31.4113,31.1382,31.5532,31.1265,30.9347,31.4993,31.2353,31.2521,31.1471,31.5366,31.1164,31.2995,31.2942,32.1802,31.6104,31.4810,31.6630,31.3856,31.6814,31.0248,31.0685,31.1625,31.3056,31.1677,30.9354,31.1475,31.4716,31.1729,31.2920,31.1497,31.3213,31.3136,31.1397,31.3038,31.5057,31.5034,30.8235,31.3267,31.3708,31.4894,31.5250,31.5292,31.5786,31.3824,31.3886,31.7915,31.7692,31.2728,31.0758,31.2372,31.4488,30.8844,30.9418,31.3868,31.4298,30.8548,31.2728,31.2382,31.4218,31.1876,31.2817,31.1841,31.5900,30.9554,31.1535,31.5475,31.4377,31.3351,31.4575,31.5597,31.6294,31.5230,31.6994,31.7722,31.6825,31.7393,31.5368,31.6292,31.8816,31.4701,31.4933,32.0509,31.5278,31.3840,31.2848,31.5680,31.5223,31.3625,31.3042,31.3619,31.5110,31.5069,30.9655,31.3484,31.3503,31.4741,31.1541,31.6890,31.3615,31.3500,31.3337,31.5328,31.5590,31.7283,31.1847,31.8075,31.8328,31.6411,31.4178,31.6406,32.0417,31.0153,31.4327,31.6692,31.4489,31.3506,31.0612,31.0337,31.4514,31.1296,31.4440,31.5363,31.3809,31.4445,31.4366,31.5172,31.7211,31.4200,31.3847,31.5167,31.5496,31.2953,31.3978,31.6983,31.4383,31.4443,31.2419,31.3682,31.4494,31.9231,31.2501,31.8269,31.6147,
22:6:17:21:32:49:845,0.0000,0.0000,0.0000,,29.6211,83.6030,29.2800,99661,139.4660,0,0.0000,0.0000,0.0000,0.0000,0.0000,0.0000,0,0.0000,0.0000,0.0000,0.0000,0.0000,0.0000,0,0,0,0,0,0,0,0.00,0.00,0.00,0,
22:6:17:21:32:49:961,0.0000,0.0000,0.0000,,29.6307,83.6036,29.2800,99660,139.5504,0,0.0000,0.0000,0.0000,0.0000,0.0000,0.0000,0,0.0000,0.0000,0.0000,0.0000,0.0000,0.0000,0,0,0,0,0,0,0,0.00,0.00,0.00,0,
22:6:17:21:32:50:68,0.0000,0.0000,0.0000,,29.6385,83.6131,29.2900,99660,139.5504,0,0.0000,0.0000,0.0000,0.0000,0.0000,0.0000,0,0.0000,0.0000,0.0000,0.0000,0.0000,0.0000,0,0,0,0,0,0,0,0.00,0.00,0.00,0,
22:6:17:21:32:50:184,0.0000,0.0000,0.0000,,29.6381,83.5958,29.2900,99659,139.6347,0,0.0000,0.0000,0.0000,0.0000,0.0000,0.0000,0,0.0000,0.0000,0.0000,0.0000,0.0000,0.0000,0,0,0,0,0,0,0,0.00,0.00,0.00,0,
22:6:17:21:32:50:287,0.0000,0.0000,0.0000,,29.6476,83.6074,29.2900,99661,139.4660,0,0.0000,0.0000,0.0000,0.0000,0.0000,0.0000,0,0.0000,0.0000,0.0000,0.0000,0.0000,0.0000,0,0,0,0,0,0,0,0.00,0.00,0.00,0,
22:6:17:21:32:50:407,0.0000,0.0000,0.0000,,29.6467,83.6060,29.2900,99660,139.5504,0,0.0000,0.0000,0.0000,0.0000,0.0000,0.0000,0,0.0000,0.0000,0.0000,0.0000,0.0000,0.0000,0,0,0,0,0,0,0,0.00,0.00,0.00,0,
22:6:17:21:32:50:510,0.0000,0.0000,0.0000,,29.6520,83.6062,29.2900,99662,139.3816,0,0.0000,0.0000,0.0000,0.0000,0.0000,0.0000,0,0.0000,0.0000,0.0000,0.0000,0.0000,0.0000,0,0,0,0,0,0,0,0.00,0.00,0.00,0,
22:6:17:21:32:50:629,0.0000,0.0000,0.0000,,29.6473,83.5967,29.2900,99657,139.8035,0,0.0000,0.0000,0.0000,0.0000,0.0000,0.0000,0,0.0000,0.0000,0.0000,0.0000,0.0000,0.0000,0,0,0,0,0,0,0,0.00,0.00,0.00,0,
22:6:17:21:32:50:732,0.0000,0.0000,0.0000,,29.6551,83.5875,29.2900,99662,139.3816,0,0.0000,0.0000,0.0000,0.0000,0.0000,0.0000,0,0.0000,0.0000,0.0000,0.0000,0.0000,0.0000,0,0,0,0,0,0,0,0.00,0.00,0.00,0,31.6563,31.0525,31.5637,31.0705,31.3551,31.0723,31.3165,31.1170,31.1252,30.9340,31.1278,31.1831,30.7987,30.7999,30.9399,31.0244,31.1520,30.6541,31.1418,31.0382,30.7759,31.0352,31.1593,31.2482,30.5842,30.8264,31.3692,31.2660,31.4512,30.8363,31.6912,31.4644,31.0197,30.9448,31.5068,31.8233,31.6714,30.9866,31.2727,31.1844,30.8604,31.0249,31.2635,31.0200,31.4129,30.9029,31.4493,31.2481,31.0400,30.8906,31.1095,31.4189,30.8806,30.9470,31.2841,31.2977,31.0722,30.9224,31.3267,31.5455,31.2782,30.7190,31.5958,31.7115,31.1836,31.5657,31.1163,31.1078,31.1746,30.9010,31.0959,31.1633,31.3241,30.8094,30.9466,31.1902,30.8436,30.9787,30.9980,30.8698,30.9777,30.8897,31.1625,30.8824,31.0064,30.8776,31.0174,30.9036,31.3657,31.0864,31.4085,31.5238,31.2344,30.9009,31.4401,31.4528,31.0354,31.1941,31.2835,31.7940,30.8676,30.8031,31.0764,31.3829,31.0614,30.6899,30.9213,31.2157,30.7420,30.5610,31.2994,31.1028,30.8886,30.7769,31.1065,30.9291,30.9298,31.1363,31.1344,31.1311,31.2347,30.5704,31.1298,31.3309,30.8702,30.7795,31.5768,31.6849,31.1621,31.1648,31.3418,30.7446,31.3325,31.1376,31.3244,31.1581,30.6210,30.8189,30.9882,31.1833,31.0003,30.8449,31.1581,31.0402,30.8392,30.8769,30.9930,30.8902,31.0056,30.8743,31.0309,30.8962,31.2039,30.8961,31.2153,31.1549,31.4443,31.1214,31.4334,31.2280,30.8347,31.0453,30.8634,31.1940,30.8922,31.2105,31.1087,31.2036,31.0482,30.8796,31.1106,31.0734,30.7757,30.9461,31.1480,30.7751,31.2370,31.1186,31.1360,31.6047,31.0931,31.1409,31.1514,31.2969,31.2674,30.9863,31.1377,31.3582,30.9568,30.9922,31.1277,31.2509,31.1938,30.7157,31.5338,31.3415,31.1841,30.6195,31.3129,30.9920,31.0205,30.5097,31.1587,30.7151,31.0272,30.8619,31.3205,30.7129,31.1572,30.8737,31.1708,30.9079,30.8803,30.7344,31.2020,30.7732,31.2189,30.8982,31.4079,31.1389,31.0406,31.1406,31.2570,31.0097,30.7083,31.0220,31.3466,31.2342,30.9126,30.8865,31.1479,31.2497,30.7752,30.7959,30.9956,31.1012,31.1218,30.9665,30.9930,31.1016,31.2591,30.9710,31.3177,30.9685,31.1321,30.9850,30.9861,31.3059,31.1434,30.8316,31.1767,31.1569,31.1410,31.2035,31.1601,31.4581,31.2095,30.9267,31.1602,31.3492,31.0391,31.1484,30.8399,31.1848,30.8747,30.8359,31.1614,31.0382,31.3445,30.8800,31.0060,31.2243,31.0268,30.8855,31.0267,31.0747,31.0667,30.7629,31.0534,31.1366,31.2187,30.7870,31.0438,30.7723,30.9058,30.5715,31.2233,31.4328,30.9142,30.2862,30.9524,31.0833,30.9922,30.9356,31.1717,31.1043,30.9721,30.6191,31.0107,31.2699,30.9896,30.8360,31.1808,30.9805,31.1377,31.1509,31.3178,31.3048,30.8323,30.8645,31.1866,31.3322,31.3200,30.6897,31.1772,30.9909,31.3496,31.3895,31.5692,31.2647,31.4172,30.9302,30.7858,31.0162,30.8452,30.7920,31.1918,31.0086,30.8543,30.8595,30.8636,31.2291,31.0248,30.8777,31.2192,30.9026,31.0531,31.0796,31.2085,30.9512,31.0680,31.0922,31.0529,30.7654,31.2308,31.1320,31.0839,31.1651,30.7256,31.1580,31.2493,31.4311,30.9586,31.0903,31.3893,31.0842,30.8233,30.9341,31.0171,31.2782,30.9815,30.9902,30.8727,31.2875,30.9919,30.8343,31.0484,31.1324,30.9874,31.1599,31.0360,31.1490,31.3001,31.0066,30.8629,31.1612,30.8397,30.8764,31.3805,31.0395,31.0157,31.2269,31.2312,31.4831,31.2842,31.1285,30.8562,30.8085,30.8598,31.0005,31.2130,31.1946,30.8973,31.1850,31.0579,31.2150,31.2292,30.7391,31.0766,30.9150,30.9065,30.9505,31.2284,31.1256,31.0730,31.1139,31.0760,31.1360,31.0778,31.3062,31.2542,31.1640,31.0992,30.8244,31.2972,31.6354,31.0224,31.3303,30.8669,31.1158,30.6617,30.6452,31.0558,31.1324,30.5449,30.9962,30.7419,31.1387,31.0444,31.1693,31.0674,31.4669,30.8665,31.1872,31.0545,31.1752,30.8757,30.8841,30.8958,31.1882,31.1702,31.0609,31.4313,31.0374,31.2177,31.0801,31.4603,31.6881,31.0864,31.0051,31.4480,31.0114,31.0931,30.8524,31.2451,30.8722,30.7685,31.0735,31.2474,31.0882,31.2582,31.0615,31.0963,31.0867,31.2196,30.7756,30.7796,31.2984,31.3937,30.8247,31.0833,31.1544,31.2632,30.9727,31.4492,31.1833,31.1317,31.0010,31.2743,31.8476,31.0738,31.1802,30.7270,31.5192,31.0818,30.6811,31.0964,31.1681,30.8913,30.7052,31.0973,31.3386,31.3900,31.0325,31.2554,31.6537,31.0752,31.0601,31.2455,31.3559,31.0499,31.0742,30.9459,31.2062,31.0580,31.0554,31.2918,31.6171,31.4298,30.7309,31.2921,31.5168,30.7021,30.7623,31.3218,31.2389,31.1004,31.0334,31.2763,31.1063,31.2565,31.0794,30.9139,31.1123,30.9496,31.0759,31.1040,31.2899,31.2543,30.7895,31.1093,30.8460,30.9717,31.1383,31.1128,30.9974,31.3069,30.9785,31.6613,31.3673,31.3566,30.9933,31.3242,31.4754,31.0973,31.3854,31.1385,31.1731,30.9363,30.8592,31.1335,31.3692,31.0945,31.0448,31.1106,31.3672,30.9587,30.8990,30.9847,31.3739,31.2055,30.9047,31.2730,31.5296,31.1125,31.0855,31.3019,31.0687,30.9049,30.9662,31.4897,31.0912,31.4571,31.2868,31.5266,31.3528,31.1851,31.2405,31.5288,31.2797,31.1652,31.2459,31.1364,31.2899,30.9793,31.1052,31.2973,31.6238,30.9800,30.9768,31.6083,31.4748,31.5922,31.1398,30.9764,31.4885,31.1249,31.1545,31.1295,31.3849,31.3299,31.1753,31.5101,31.5624,31.1587,31.3753,31.5547,31.4839,31.1588,31.2532,30.9846,31.4223,30.8207,30.8702,31.0446,31.2302,31.0033,31.0986,31.3307,31.3866,30.9790,31.0965,31.6315,31.4019,31.2772,31.2698,31.3110,31.5676,31.1399,31.1093,31.3442,31.2496,31.2652,31.5029,31.7267,31.4973,30.9352,31.4988,31.9896,31.8322,31.2826,31.4697,31.3997,31.4977,30.8575,31.4492,31.1770,31.3189,31.1823,30.9492,31.4961,31.3175,31.1877,31.3059,31.4924,31.4979,31.4924,30.9914,31.3185,31.3535,31.3514,31.1694,31.3414,31.5547,31.5040,31.3595,31.7294,31.4034,31.5891,31.4012,31.8055,31.7807,30.8524,31.2980,31.4476,31.2647,31.0786,31.3249,31.0423,31.4439,31.2069,31.1181,31.4175,31.2684,31.0390,31.2960,31.5247,31.6043,31.4628,31.1679,31.3950,31.6166,31.1807,31.3054,31.5717,31.4701,31.0145,31.1759,31.2219,31.5074,31.3636,31.3524,32.0659,31.8947,31.7057,31.7253,31.8547,31.3351,31.5934,31.2981,31.3941,31.7193,31.1990,31.3177,31.5528,31.8755,31.3516,31.1479,31.1914,31.5309,31.3192,31.5036,31.7036,31.5459,31.3648,31.0007,31.3668,31.0251,31.7426,31.3837,31.6280,31.8449,31.6550,31.6368,32.0960,32.0529,31.2503,31.4454,31.4663,31.6686,31.1648,31.2687,31.2337,31.6492,30.9627,31.4578,31.3702,31.5710,30.9403,31.2812,31.8711,31.7349,31.4322,31.2308,31.6991,31.7347,31.8232,31.2385,31.1683,31.8154,31.6395,31.4419,32.1599,32.2525,31.5278,31.4708,32.2801,32.0827,
22:6:17:21:32:50:911,0.0000,0.0000,0.0000,,29.6211,83.5902,29.2800,99660,139.5504,0,0.0000,0.0000,0.0000,0.0000,0.0000,0.0000,0,0.0000,0.0000,0.0000,0.0000,0.0000,0.0000,0,0,0,0,0,0,0,0.00,0.00,0.00,0,
22:6:17:21:32:51:18,0.0000,0.0000,0.0000,,29.6385,83.5769,29.2800,99660,139.5504,0,0.0000,0.0000,0.0000,0.0000,0.0000,0.0000,0,0.0000,0.0000,0.0000,0.0000,0.0000,0.0000,0,0,0,0,0,0,0,0.00,0.00,0.00,0,
22:6:17:21:32:51:134,0.0000,0.0000,0.0000,,29.6381,83.5815,29.2800,99660,139.5504,0,0.0000,0.0000,0.0000,0.0000,0.0000,0.0000,0,0.0000,0.0000,0.0000,0.0000,0.0000,0.0000,0,0,0,0,0,0,0,0.00,0.00,0.00,0,
22:6:17:21:32:51:237,0.0000,0.0000,0.0000,,29.6440,83.5941,29.2900,99661,139.4660,0,0.0000,0.0000,0.0000,0.0000,0.0000,0.0000,0,0.0000,0.0000,0.0000,0.0000,0.0000,0.0000,0,0,0,0,0,0,0,0.00,0.00,0.00,0,
22:6:17:21:32:51:357,0.0000,0.0000,0.0000,,29.6452,83.5919,29.2900,99662,139.3816,0,0.0000,0.0000,0.0000,0.0000,0.0000,0.0000,0,0.0000,0.0000,0.0000,0.0000,0.0000,0.0000,0,0,0,0,0,0,0,0.00,0.00,0.00,0,
22:6:17:21:32:51:460,0.0000,0.0000,0.0000,,29.6549,83.5767,29.2900,99660,139.5504,0,0.0000,0.0000,0.0000,0.0000,0.0000,0.0000,0,0.0000,0.0000,0.0000,0.0000,0.0000,0.0000,0,0,0,0,0,0,0,0.00,0.00,0.00,0,
22:6:17:21:32:51:580,0.0000,0.0000,0.0000,,29.6499,83.5922,29.2900,99663,139.2972,0,0.0000,0.0000,0.0000,0.0000,0.0000,0.0000,0,0.0000,0.0000,0.0000,0.0000,0.0000,0.0000,0,0,0,0,0,0,0,0.00,0.00,0.00,0,
22:6:17:21:32:51:683,0.0000,0.0000,0.0000,,29.6545,83.5693,29.2900,99661,139.4660,0,0.0000,0.0000,0.0000,0.0000,0.0000,0.0000,0,0.0000,0.0000,0.0000,0.0000,0.0000,0.0000,0,0,0,0,0,0,0,0.00,0.00,0.00,0,32.1630,31.3047,31.5767,31.5362,31.3684,31.2942,31.3301,31.3289,31.1390,31.5123,31.1417,31.1966,30.9941,30.9948,31.3101,31.2180,31.5210,31.2058,31.1556,31.2352,31.3452,30.8644,31.3632,31.0665,31.5805,31.0436,30.9582,31.0617,31.0219,31.0757,31.2223,31.4754,31.5155,31.4208,31.2948,31.3930,31.6844,30.7955,31.6769,31.1977,31.2467,31.2228,31.4589,31.0335,31.2495,31.0941,31.2875,31.0848,31.4031,30.9040,31.1225,31.2532,31.0756,30.7797,31.2968,31.3108,31.4707,31.3329,31.5468,31.5579,31.2908,31.3970,31.6072,31.0040,31.6590,31.5790,30.9138,31.1208,31.5812,31.3050,30.9193,31.1769,31.1605,31.0008,30.9605,31.2039,31.1948,30.9927,30.8414,31.2231,31.3314,31.2427,30.8345,31.0680,31.0206,30.8914,31.0313,31.0955,31.1961,31.4787,31.4220,31.1347,31.4534,31.9398,31.2278,31.6919,30.8194,31.6458,31.2955,31.6024,31.0748,31.0082,31.2757,31.7600,31.2502,31.2274,30.9344,31.0593,30.9219,30.9078,31.1456,31.1166,30.7347,30.7906,31.2882,31.2823,31.1129,30.9796,31.4993,30.9684,31.4289,31.1448,31.1424,31.5410,31.2917,31.1979,31.8093,31.2480,31.3934,31.1784,31.1506,31.1572,31.1561,31.1516,30.9798,31.1719,31.1498,31.3436,31.0023,31.5351,31.3406,31.0234,31.1724,30.8902,31.1808,31.0533,31.0072,31.0691,31.0199,30.8883,30.8746,30.9095,31.3925,31.2646,31.2289,31.5396,31.6520,31.1344,31.2313,31.4559,31.0627,31.4725,31.0802,31.2072,31.0926,30.8594,31.4728,31.0405,31.0621,30.8933,30.7933,31.2549,31.1118,31.2834,31.1614,30.7889,31.2512,30.8117,30.9860,31.2921,31.2717,30.9894,31.1645,31.3104,31.2812,30.9995,31.1505,31.3712,31.3535,31.2012,31.3522,31.2626,31.4162,31.1367,31.1580,31.3550,31.3783,31.1602,31.1528,31.1778,30.8712,30.8520,30.8472,31.3714,31.2008,31.1920,31.0165,31.0497,31.0138,30.8879,31.0255,31.4048,30.8946,30.9103,30.8799,31.2942,31.3995,30.7392,31.2446,30.9710,31.4279,31.3441,31.0656,31.2306,30.9291,31.0350,31.3591,31.0562,30.9261,31.0732,31.1610,31.0935,30.7891,30.9709,31.1704,30.9552,30.9778,30.9804,31.3217,31.4341,31.4298,31.1432,31.0152,31.3013,30.9881,30.8382,31.3324,31.3195,31.1574,31.0159,31.1895,31.1700,31.1543,31.2162,31.3738,31.4700,31.4257,30.9405,31.1738,31.1763,31.3965,30.9903,30.8541,31.3654,31.0496,31.0144,30.8570,31.3710,31.0461,31.0488,30.7054,31.2382,31.0413,30.8998,30.8813,30.9313,31.2376,30.6209,31.0675,31.3124,31.3997,30.9679,31.0576,31.1440,30.9194,31.1461,31.2366,31.0438,30.9270,31.0919,31.1520,30.9127,30.6618,31.1205,31.0167,31.1181,31.3049,31.1211,31.1824,31.2839,31.3142,31.0034,31.1942,31.1480,31.3041,31.3184,31.0141,31.1628,31.0025,31.0337,31.3600,31.5070,31.1682,31.1997,31.1900,31.1818,31.1814,31.4023,31.5814,31.2767,31.2319,31.7322,31.1750,31.2133,31.0314,30.8063,31.0387,31.0225,31.1899,31.0327,31.0366,31.2432,31.0393,31.0473,31.3869,31.3859,31.0677,31.0939,30.9114,30.8083,31.2380,31.1064,31.0671,31.1055,31.0812,31.1458,30.9267,31.1783,31.0985,30.9895,31.2625,31.4433,31.1699,31.3001,31.2157,30.9144,30.8368,31.1197,31.1961,30.9593,30.9954,31.0040,31.0439,31.3013,31.1601,31.0023,31.6701,30.9908,31.0016,31.1737,31.3580,31.0069,31.1590,31.1783,30.8761,31.1748,31.0176,31.0542,31.3932,31.3953,31.3850,31.2396,31.4377,30.9046,31.4973,31.1423,31.0559,31.5534,31.0487,31.1837,31.0597,31.0435,31.2307,31.1993,31.0721,31.5441,31.3962,31.0595,31.0909,31.2385,31.2248,30.9648,30.7771,31.1394,31.2425,30.9724,31.0901,31.1496,31.0920,31.3200,30.9227,31.5238,31.1127,31.3723,31.5037,31.2567,31.0350,30.9530,31.4339,31.1290,31.0240,30.8265,31.0686,30.8170,30.8782,31.1688,31.3873,31.1525,31.0582,30.8785,31.2325,31.1729,31.0318,31.0505,30.9131,31.4994,31.3546,30.8976,31.2286,31.2016,31.1839,31.0741,31.4440,31.0504,31.4076,31.0927,31.2801,31.3094,31.2996,31.4042,31.0919,31.3897,31.2789,31.0348,31.0931,31.0515,31.1060,31.0878,31.1045,31.1021,31.4248,31.3815,31.1105,30.9463,31.2339,30.9420,31.1060,31.0016,30.9395,31.1475,30.9345,31.3301,31.4422,31.3203,31.2896,31.1964,31.5000,31.0143,31.2875,31.2669,31.2862,31.0005,31.1087,31.3507,31.0949,31.1982,31.4405,31.1815,31.2272,30.7187,31.4240,31.3523,31.0986,31.1992,31.4205,31.3607,31.2417,31.0737,31.4135,31.2152,31.0637,31.2411,31.4465,31.0571,31.0716,31.0685,31.4768,31.1125,31.6199,30.9224,31.6929,31.3312,31.3241,31.1732,31.1474,31.4386,31.4645,31.3907,30.9519,31.2855,31.2704,31.2549,30.9277,31.2862,31.4259,31.3992,30.9633,31.1467,31.5801,30.9608,31.1232,31.3292,31.1427,31.1523,31.1266,31.1752,31.4853,30.9922,31.1461,31.5564,31.5507,31.1906,31.3371,31.4873,31.5152,31.2007,31.3374,31.1859,31.3002,30.8723,31.3143,31.0542,31.1078,31.0581,31.2852,31.2207,31.1278,31.0680,31.4577,31.3873,31.3755,31.0748,31.4429,31.3873,31.1261,31.0987,31.1505,31.5728,31.2470,31.1473,31.6776,31.6315,31.6512,30.9307,31.9319,31.1652,31.4079,31.8540,31.3485,31.4804,31.3563,31.6159,30.9771,31.4735,31.1573,31.1193,31.1488,31.3124,31.3109,30.9909,31.4616,31.3296,31.2911,31.3104,31.3110,31.5020,31.3008,31.3290,31.1430,31.2291,31.5128,31.3600,31.3452,31.3928,31.3589,31.3882,31.7706,31.7031,31.1703,31.2653,30.9957,31.2472,31.3701,31.0618,31.2288,31.2432,31.1798,31.4346,31.6672,31.2371,30.9922,31.1097,31.6440,31.2562,31.6044,31.1269,31.4835,31.4180,31.1533,31.1224,31.5242,31.4309,31.1086,31.5157,31.9165,31.6928,31.5122,31.1286,31.5958,31.6353,31.0820,31.2760,31.4121,31.7072,31.4141,31.2795,31.3672,31.8587,31.1956,31.1321,31.1756,31.4985,31.5214,31.3198,31.5060,31.6743,31.6698,31.1673,31.4979,31.5322,31.5318,31.1830,31.5264,31.7384,31.5173,31.3728,31.3704,31.2278,31.7939,31.6116,31.3930,32.0091,31.2944,31.3096,31.4581,31.4746,31.0905,31.5215,31.4098,31.1029,31.2195,31.4683,31.5966,31.4489,31.3744,31.3089,31.5368,31.4542,31.4759,31.3431,31.4073,31.7938,31.3611,31.4843,31.7554,31.4827,31.3751,31.7259,31.7953,31.7082,31.5696,31.5618,32.0767,32.3398,31.4950,31.9568,31.6563,31.9621,31.4106,31.3114,31.0294,31.7322,31.2120,31.1544,31.0356,31.5372,31.7045,31.3301,31.5475,31.3766,31.3327,31.1812,31.5465,31.3876,31.2059,31.3606,31.5602,31.7661,31.5739,31.3967,31.8339,32.2486,32.0699,31.6492,32.3277,32.5142,31.4849,31.4559,32.1117,31.6799,31.1758,31.6674,31.4334,31.6610,31.1530,31.2928,31.3812,31.7591,31.4686,31.4627,31.8825,31.5792,31.4445,31.5780,31.7105,31.7468,31.3199,31.4234,31.7206,31.8273,31.4679,31.4533,31.7804,32.0666,31.7420,31.4815,32.5108,31.8651,
22:6:17:21:32:51:862,0.0000,0.0000,0.0000,,29.6249,83.5645,29.2800,99660,139.5504,0,0.0000,0.0000,0.0000,0.0000,0.0000,0.0000,0,0.0000,0.0000,0.0000,0.0000,0.0000,0.0000,0,0,0,0,0,0,0,0.00,0.00,0.00,0,
22:6:17:21:32:51:969,0.0000,0.0000,0.0000,,29.6385,83.5730,29.2900,99662,139.3816,0,0.0000,0.0000,0.0000,0.0000,0.0000,0.0000,0,0.0000,0.0000,0.0000,0.0000,0.0000,0.0000,0,0,0,0,0,0,0,0.00,0.00,0.00,0,
22:6:17:21:32:52:85,0.0000,0.0000,0.0000,,29.6408,83.5695,29.2900,99662,139.3816,0,0.0000,0.0000,0.0000,0.0000,0.0000,0.0000,0,0.0000,0.0000,0.0000,0.0000,0.0000,0.0000,0,0,0,0,0,0,0,0.00,0.00,0.00,0,
22:6:17:21:32:52:192,0.0000,0.0000,0.0000,,29.6494,83.5610,29.2900,99661,139.4660,0,0.0000,0.0000,0.0000,0.0000,0.0000,0.0000,0,0.0000,0.0000,0.0000,0.0000,0.0000,0.0000,0,0,0,0,0,0,0,0.00,0.00,0.00,0,
22:6:17:21:32:52:308,0.0000,0.0000,0.0000,,29.6473,83.5582,29.2900,99663,139.2972,0,0.0000,0.0000,0.0000,0.0000,0.0000,0.0000,0,0.0000,0.0000,0.0000,0.0000,0.0000,0.0000,0,0,0,0,0,0,0,0.00,0.00,0.00,0,
22:6:17:21:32:52:411,0.0000,0.0000,0.0000,,29.6562,83.5524,29.2900,99660,139.5504,0,0.0000,0.0000,0.0000,0.0000,0.0000,0.0000,0,0.0000,0.0000,0.0000,0.0000,0.0000,0.0000,0,0,0,0,0,0,0,0.00,0.00,0.00,0,
22:6:17:21:32:52:531,0.0000,0.0000,0.0000,,29.6494,83.5424,29.2900,99660,139.5504,0,0.0000,0.0000,0.0000,0.0000,0.0000,0.0000,0,0.0000,0.0000,0.0000,0.0000,0.0000,0.0000,0,0,0,0,0,0,0,0.00,0.00,0.00,0,
22:6:17:21:32:52:634,0.0000,0.0000,0.0000,,29.6598,83.5587,29.2900,99660,139.5504,0,0.0000,0.0000,0.0000,0.0000,0.0000,0.0000,0,0.0000,0.0000,0.0000,0.0000,0.0000,0.0000,0,0,0,0,0,0,0,0.00,0.00,0.00,0,
