Timestamp,Wind speed,Wind angle,Acoustic temperature windsensor,Temperature validity,Temperature_aht10,Relative humidity_aht10,Temperature_ms5611,Pressure_ms5611,Absolute_altitude_ms5611,timestamp_pix_attitude,Roll,Pitch,Yaw,Roll speed,Pitch speed,Yaw speed,timestamp_pix_loc_pos,x,y,z,vx,vy,vz,timestamp_pix_gps,pix_lat,pix_lon,pix_alt,pix_gps_vx,pix_gps_vy,pix_gps_vz,latitude,longitude,altitude_gps,relative_altitude_gps,Pixel_0,Pixel_1,Pixel_2,Pixel_3,Pixel_4,Pixel_5,Pixel_6,Pixel_7,Pixel_8,Pixel_9,Pixel_10,Pixel_11,Pixel_12,Pixel_13,Pixel_14,Pixel_15,Pixel_16,Pixel_17,Pixel_18,Pixel_19,Pixel_20,Pixel_21,Pixel_22,Pixel_23,Pixel_24,Pixel_25,Pixel_26,Pixel_27,Pixel_28,Pixel_29,Pixel_30,Pixel_31,Pixel_32,Pixel_33,Pixel_34,Pixel_35,Pixel_36,Pixel_37,Pixel_38,Pixel_39,Pixel_40,Pixel_41,Pixel_42,Pixel_43,Pixel_44,Pixel_45,Pixel_46,Pixel_47,Pixel_48,Pixel_49,Pixel_50,Pixel_51,Pixel_52,Pixel_53,Pixel_54,Pixel_55,Pixel_56,Pixel_57,Pixel_58,Pixel_59,Pixel_60,Pixel_61,Pixel_62,Pixel_63,Pixel_64,Pixel_65,Pixel_66,Pixel_67,Pixel_68,Pixel_69,Pixel_70,Pixel_71,Pixel_72,Pixel_73,Pixel_74,Pixel_75,Pixel_76,Pixel_77,Pixel_78,Pixel_79,Pixel_80,Pixel_81,Pixel_82,Pixel_83,Pixel_84,Pixel_85,Pixel_86,Pixel_87,Pixel_88,Pixel_89,Pixel_90,Pixel_91,Pixel_92,Pixel_93,Pixel_94,Pixel_95,Pixel_96,Pixel_97,Pixel_98,Pixel_99,Pixel_100,Pixel_101,Pixel_102,Pixel_103,Pixel_104,Pixel_105,Pixel_106,Pixel_107,Pixel_108,Pixel_109,Pixel_110,Pixel_111,Pixel_112,Pixel_113,Pixel_114,Pixel_115,Pixel_116,Pixel_117,Pixel_118,Pixel_119,Pixel_120,Pixel_121,Pixel_122,Pixel_123,Pixel_124,Pixel_125,Pixel_126,Pixel_127,Pixel_128,Pixel_129,Pixel_130,Pixel_131,Pixel_132,Pixel_133,Pixel_134,Pixel_135,Pixel_136,Pixel_137,Pixel_138,Pixel_139,Pixel_140,Pixel_141,Pixel_142,Pixel_143,Pixel_144,Pixel_145,Pixel_146,Pixel_147,Pixel_148,Pixel_149,Pixel_150,Pixel_151,Pixel_152,Pixel_153,Pixel_154,Pixel_155,Pixel_156,Pixel_157,Pixel_158,Pixel_159,Pixel_160,Pixel_161,Pixel_162,Pixel_163,Pixel_164,Pixel_165,Pixel_166,Pixel_167,Pixel_168,Pixel_169,Pixel_170,Pixel_171,Pixel_172,Pixel_173,Pixel_174,Pixel_175,Pixel_176,Pixel_177,Pixel_178,Pixel_179,Pixel_180,Pixel_181,Pixel_182,Pixel_183,Pixel_184,Pixel_185,Pixel_186,Pixel_187,Pixel_188,Pixel_189,Pixel_190,Pixel_191,Pixel_192,Pixel_193,Pixel_194,Pixel_195,Pixel_196,Pixel_197,Pixel_198,Pixel_199,Pixel_200,Pixel_201,Pixel_202,Pixel_203,Pixel_204,Pixel_205,Pixel_206,Pixel_207,Pixel_208,Pixel_209,Pixel_210,Pixel_211,Pixel_212,Pixel_213,Pixel_214,Pixel_215,Pixel_216,Pixel_217,Pixel_218,Pixel_219,Pixel_220,Pixel_221,Pixel_222,Pixel_223,Pixel_224,Pixel_225,Pixel_226,Pixel_227,Pixel_228,Pixel_229,Pixel_230,Pixel_231,Pixel_232,Pixel_233,Pixel_234,Pixel_235,Pixel_236,Pixel_237,Pixel_238,Pixel_239,Pixel_240,Pixel_241,Pixel_242,Pixel_243,Pixel_244,Pixel_245,Pixel_246,Pixel_247,Pixel_248,Pixel_249,Pixel_250,Pixel_251,Pixel_252,Pixel_253,Pixel_254,Pixel_255,Pixel_256,Pixel_257,Pixel_258,Pixel_259,Pixel_260,Pixel_261,Pixel_262,Pixel_263,Pixel_264,Pixel_265,Pixel_266,Pixel_267,Pixel_268,Pixel_269,Pixel_270,Pixel_271,Pixel_272,Pixel_273,Pixel_274,Pixel_275,Pixel_276,Pixel_277,Pixel_278,Pixel_279,Pixel_280,Pixel_281,Pixel_282,Pixel_283,Pixel_284,Pixel_285,Pixel_286,Pixel_287,Pixel_288,Pixel_289,Pixel_290,Pixel_291,Pixel_292,Pixel_293,Pixel_294,Pixel_295,Pixel_296,Pixel_297,Pixel_298,Pixel_299,Pixel_300,Pixel_301,Pixel_302,Pixel_303,Pixel_304,Pixel_305,Pixel_306,Pixel_307,Pixel_308,Pixel_309,Pixel_310,Pixel_311,Pixel_312,Pixel_313,Pixel_314,Pixel_315,Pixel_316,Pixel_317,Pixel_318,Pixel_319,Pixel_320,Pixel_321,Pixel_322,Pixel_323,Pixel_324,Pixel_325,Pixel_326,Pixel_327,Pixel_328,Pixel_329,Pixel_330,Pixel_331,Pixel_332,Pixel_333,Pixel_334,Pixel_335,Pixel_336,Pixel_337,Pixel_338,Pixel_339,Pixel_340,Pixel_341,Pixel_342,Pixel_343,Pixel_344,Pixel_345,Pixel_346,Pixel_347,Pixel_348,Pixel_349,Pixel_350,Pixel_351,Pixel_352,Pixel_353,Pixel_354,Pixel_355,Pixel_356,Pixel_357,Pixel_358,Pixel_359,Pixel_360,Pixel_361,Pixel_362,Pixel_363,Pixel_364,Pixel_365,Pixel_366,Pixel_367,Pixel_368,Pixel_369,Pixel_370,Pixel_371,Pixel_372,Pixel_373,Pixel_374,Pixel_375,Pixel_376,Pixel_377,Pixel_378,Pixel_379,Pixel_380,Pixel_381,Pixel_382,Pixel_383,Pixel_384,Pixel_385,Pixel_386,Pixel_387,Pixel_388,Pixel_389,Pixel_390,Pixel_391,Pixel_392,Pixel_393,Pixel_394,Pixel_395,Pixel_396,Pixel_397,Pixel_398,Pixel_399,Pixel_400,Pixel_401,Pixel_402,Pixel_403,Pixel_404,Pixel_405,Pixel_406,Pixel_407,Pixel_408,Pixel_409,Pixel_410,Pixel_411,Pixel_412,Pixel_413,Pixel_414,Pixel_415,Pixel_416,Pixel_417,Pixel_418,Pixel_419,Pixel_420,Pixel_421,Pixel_422,Pixel_423,Pixel_424,Pixel_425,Pixel_426,Pixel_427,Pixel_428,Pixel_429,Pixel_430,Pixel_431,Pixel_432,Pixel_433,Pixel_434,Pixel_435,Pixel_436,Pixel_437,Pixel_438,Pixel_439,Pixel_440,Pixel_441,Pixel_442,Pixel_443,Pixel_444,Pixel_445,Pixel_446,Pixel_447,Pixel_448,Pixel_449,Pixel_450,Pixel_451,Pixel_452,Pixel_453,Pixel_454,Pixel_455,Pixel_456,Pixel_457,Pixel_458,Pixel_459,Pixel_460,Pixel_461,Pixel_462,Pixel_463,Pixel_464,Pixel_465,Pixel_466,Pixel_467,Pixel_468,Pixel_469,Pixel_470,Pixel_471,Pixel_472,Pixel_473,Pixel_474,Pixel_475,Pixel_476,Pixel_477,Pixel_478,Pixel_479,Pixel_480,Pixel_481,Pixel_482,Pixel_483,Pixel_484,Pixel_485,Pixel_486,Pixel_487,Pixel_488,Pixel_489,Pixel_490,Pixel_491,Pixel_492,Pixel_493,Pixel_494,Pixel_495,Pixel_496,Pixel_497,Pixel_498,Pixel_499,Pixel_500,Pixel_501,Pixel_502,Pixel_503,Pixel_504,Pixel_505,Pixel_506,Pixel_507,Pixel_508,Pixel_509,Pixel_510,Pixel_511,Pixel_512,Pixel_513,Pixel_514,Pixel_515,Pixel_516,Pixel_517,Pixel_518,Pixel_519,Pixel_520,Pixel_521,Pixel_522,Pixel_523,Pixel_524,Pixel_525,Pixel_526,Pixel_527,Pixel_528,Pixel_529,Pixel_530,Pixel_531,Pixel_532,Pixel_533,Pixel_534,Pixel_535,Pixel_536,Pixel_537,Pixel_538,Pixel_539,Pixel_540,Pixel_541,Pixel_542,Pixel_543,Pixel_544,Pixel_545,Pixel_546,Pixel_547,Pixel_548,Pixel_549,Pixel_550,Pixel_551,Pixel_552,Pixel_553,Pixel_554,Pixel_555,Pixel_556,Pixel_557,Pixel_558,Pixel_559,Pixel_560,Pixel_561,Pixel_562,Pixel_563,Pixel_564,Pixel_565,Pixel_566,Pixel_567,Pixel_568,Pixel_569,Pixel_570,Pixel_571,Pixel_572,Pixel_573,Pixel_574,Pixel_575,Pixel_576,Pixel_577,Pixel_578,Pixel_579,Pixel_580,Pixel_581,Pixel_582,Pixel_583,Pixel_584,Pixel_585,Pixel_586,Pixel_587,Pixel_588,Pixel_589,Pixel_590,Pixel_591,Pixel_592,Pixel_593,Pixel_594,Pixel_595,Pixel_596,Pixel_597,Pixel_598,Pixel_599,Pixel_600,Pixel_601,Pixel_602,Pixel_603,Pixel_604,Pixel_605,Pixel_606,Pixel_607,Pixel_608,Pixel_609,Pixel_610,Pixel_611,Pixel_612,Pixel_613,Pixel_614,Pixel_615,Pixel_616,Pixel_617,Pixel_618,Pixel_619,Pixel_620,Pixel_621,Pixel_622,Pixel_623,Pixel_624,Pixel_625,Pixel_626,Pixel_627,Pixel_628,Pixel_629,Pixel_630,Pixel_631,Pixel_632,Pixel_633,Pixel_634,Pixel_635,Pixel_636,Pixel_637,Pixel_638,Pixel_639,Pixel_640,Pixel_641,Pixel_642,Pixel_643,Pixel_644,Pixel_645,Pixel_646,Pixel_647,Pixel_648,Pixel_649,Pixel_650,Pixel_651,Pixel_652,Pixel_653,Pixel_654,Pixel_655,Pixel_656,Pixel_657,Pixel_658,Pixel_659,Pixel_660,Pixel_661,Pixel_662,Pixel_663,Pixel_664,Pixel_665,Pixel_666,Pixel_667,Pixel_668,Pixel_669,Pixel_670,Pixel_671,Pixel_672,Pixel_673,Pixel_674,Pixel_675,Pixel_676,Pixel_677,Pixel_678,Pixel_679,Pixel_680,Pixel_681,Pixel_682,Pixel_683,Pixel_684,Pixel_685,Pixel_686,Pixel_687,Pixel_688,Pixel_689,Pixel_690,Pixel_691,Pixel_692,Pixel_693,Pixel_694,Pixel_695,Pixel_696,Pixel_697,Pixel_698,Pixel_699,Pixel_700,Pixel_701,Pixel_702,Pixel_703,Pixel_704,Pixel_705,Pixel_706,Pixel_707,Pixel_708,Pixel_709,Pixel_710,Pixel_711,Pixel_712,Pixel_713,Pixel_714,Pixel_715,Pixel_716,Pixel_717,Pixel_718,Pixel_719,Pixel_720,Pixel_721,Pixel_722,Pixel_723,Pixel_724,Pixel_725,Pixel_726,Pixel_727,Pixel_728,Pixel_729,Pixel_730,Pixel_731,Pixel_732,Pixel_733,Pixel_734,Pixel_735,Pixel_736,Pixel_737,Pixel_738,Pixel_739,Pixel_740,Pixel_741,Pixel_742,Pixel_743,Pixel_744,Pixel_745,Pixel_746,Pixel_747,Pixel_748,Pixel_749,Pixel_750,Pixel_751,Pixel_752,Pixel_753,Pixel_754,Pixel_755,Pixel_756,Pixel_757,Pixel_758,Pixel_759,Pixel_760,Pixel_761,Pixel_762,Pixel_763,Pixel_764,Pixel_765,Pixel_766,Pixel_767,
22:6:17:21:39:4:570,0.0000,0.0000,0.0000,,0.0000,0.0000,29.1000,99673,138.4535,0,0.0000,0.0000,0.0000,0.0000,0.0000,0.0000,0,0.0000,0.0000,0.0000,0.0000,0.0000,0.0000,0,0,0,0,0,0,0,0.00,0.00,0.00,0,
22:6:17:21:39:4:663,0.0000,0.0000,0.0000,,0.0000,0.0000,29.1100,99675,138.2847,0,0.0000,0.0000,0.0000,0.0000,0.0000,0.0000,0,0.0000,0.0000,0.0000,0.0000,0.0000,0.0000,0,0,0,0,0,0,0,0.00,0.00,0.00,0,
22:6:17:21:39:4:772,0.0000,0.0000,0.0000,,0.0000,0.0000,29.1300,99673,138.4535,0,0.0000,0.0000,0.0000,0.0000,0.0000,0.0000,0,0.0000,0.0000,0.0000,0.0000,0.0000,0.0000,0,0,0,0,0,0,0,0.00,0.00,0.00,0,
22:6:17:21:39:4:864,0.0000,0.0000,0.0000,,0.0000,0.0000,29.1400,99672,138.5379,0,0.0000,0.0000,0.0000,0.0000,0.0000,0.0000,0,0.0000,0.0000,0.0000,0.0000,0.0000,0.0000,0,0,0,0,0,0,0,0.00,0.00,0.00,0,
22:6:17:21:39:4:956,0.0000,0.0000,0.0000,,0.0000,0.0000,29.1500,99676,138.2004,0,0.0000,0.0000,0.0000,0.0000,0.0000,0.0000,0,0.0000,0.0000,0.0000,0.0000,0.0000,0.0000,0,0,0,0,0,0,0,0.00,0.00,0.00,0,
22:6:17:21:39:5:65,0.0000,0.0000,0.0000,,0.0000,0.0000,29.1500,99673,138.4535,0,0.0000,0.0000,0.0000,0.0000,0.0000,0.0000,0,0.0000,0.0000,0.0000,0.0000,0.0000,0.0000,0,0,0,0,0,0,0,0.00,0.00,0.00,0,
22:6:17:21:39:5:157,0.0000,0.0000,0.0000,,0.0000,0.0000,29.1600,99675,138.2847,0,0.0000,0.0000,0.0000,0.0000,0.0000,0.0000,0,0.0000,0.0000,0.0000,0.0000,0.0000,0.0000,0,0,0,0,0,0,0,0.00,0.00,0.00,0,
22:6:17:21:39:5:266,0.0000,0.0000,0.0000,,0.0000,0.0000,29.1600,99675,138.2847,0,0.0000,0.0000,0.0000,0.0000,0.0000,0.0000,0,0.0000,0.0000,0.0000,0.0000,0.0000,0.0000,0,0,0,0,0,0,0,0.00,0.00,0.00,0,
22:6:17:21:39:5:358,0.0000,0.0000,0.0000,,0.0000,0.0000,29.1600,99672,138.5379,0,0.0000,0.0000,0.0000,0.0000,0.0000,0.0000,0,0.0000,0.0000,0.0000,0.0000,0.0000,0.0000,0,0,0,0,0,0,0,0.00,0.00,0.00,0,
22:6:17:21:39:5:450,0.0000,0.0000,0.0000,,0.0000,0.0000,29.1700,99676,138.2004,0,0.0000,0.0000,0.0000,0.0000,0.0000,0.0000,0,0.0000,0.0000,0.0000,0.0000,0.0000,0.0000,0,0,0,0,0,0,0,0.00,0.00,0.00,0,
22:6:17:21:39:5:559,0.0000,0.0000,0.0000,,0.0000,0.0000,29.1700,99675,138.2847,0,0.0000,0.0000,0.0000,0.0000,0.0000,0.0000,0,0.0000,0.0000,0.0000,0.0000,0.0000,0.0000,0,0,0,0,0,0,0,0.00,0.00,0.00,0,595.3777,25.2398,602.5009,25.7063,604.8785,26.3960,607.8985,26.3677,609.3970,26.5027,609.9528,26.6095,609.0926,26.2642,612.5509,26.5108,610.0092,26.3190,609.8541,26.4754,608.7372,26.2643,607.5607,26.3432,604.9496,26.3926,603.2006,25.8138,597.0897,25.6621,593.7518,25.2916,25.1351,602.9206,25.7213,605.6938,25.7965,607.5358,26.3502,609.4175,26.0503,610.1141,26.5378,611.1045,26.7514,609.1127,27.0230,609.5595,26.5863,610.4587,26.5925,609.8340,26.3269,606.4045,26.5107,604.9545,26.3607,602.4397,26.4320,599.5208,26.0166,595.3868,26.5720,588.3931,597.6346,25.9968,604.7742,26.2148,605.1073,25.9812,611.2472,26.1938,610.7798,26.5047,613.0632,26.6066,610.5034,26.2606,610.8245,26.6674,611.7515,26.8452,611.3297,26.2980,609.7930,26.8019,607.5561,26.5901,607.0235,26.4179,603.0283,26.7222,599.8201,26.0158,596.7620,25.7942,25.6132,604.3609,25.9291,607.5449,25.9467,609.7083,26.6757,610.8790,26.2400,611.5922,26.7003,612.4186,26.5735,612.5408,26.7894,610.5619,26.5181,609.9510,26.7565,609.8616,26.5389,608.1622,26.6698,607.1183,26.3287,604.6305,26.4158,602.0248,26.0044,598.4685,26.2776,591.5949,601.2087,25.5543,605.9000,25.7552,607.8444,26.3559,610.4933,26.6555,611.9630,26.6022,612.4568,26.6462,612.3610,26.5357,613.0441,26.7502,611.6912,26.5937,612.7878,26.7475,611.1414,26.5282,609.0117,26.8233,607.3320,26.2181,604.6003,26.5444,601.4324,26.0980,598.6721,25.9757,26.0453,603.7167,26.2359,608.5681,26.2585,610.3212,27.0237,611.6926,26.4983,612.5592,26.6406,611.4047,26.6597,611.1948,27.0592,611.6063,26.7909,611.0300,26.5102,610.4733,26.9377,609.1091,26.9679,608.2390,26.4769,605.8696,26.3634,603.3986,26.0498,599.8550,25.9459,593.4772,601.4315,25.8678,607.3095,26.4496,607.8178,26.1521,611.6749,26.7679,611.3004,26.3686,613.0828,26.7899,611.9759,26.6386,613.6093,26.9464,613.4067,26.6208,613.0513,26.9798,611.4713,26.7879,609.3864,26.9111,608.1719,26.6530,605.9017,26.0396,603.9669,26.4583,598.3405,26.0802,25.5634,606.1788,26.4780,607.4050,26.2212,610.9269,26.5554,610.6339,26.8227,610.9512,26.8942,611.8341,26.7240,611.7312,26.9382,611.9517,26.7231,611.0189,26.9432,610.8303,26.7341,609.8047,26.4751,608.6408,26.7989,606.3444,26.7172,604.7489,26.5233,600.9670,26.1395,594.9313,601.9188,26.1400,607.6674,26.5663,608.0705,26.2037,610.1613,26.6827,611.1539,26.5268,613.4819,26.9683,612.2882,26.7049,613.7641,26.7319,613.0657,26.5340,611.8266,26.7116,610.0220,26.4018,609.8069,26.8523,608.0740,26.4237,606.6888,26.4353,602.0712,26.1178,601.3707,26.4221,25.4610,604.1938,26.1542,607.2139,26.5652,609.0039,26.6462,610.5613,26.8845,610.9852,26.6220,611.6437,26.7861,611.4677,27.0044,611.8060,26.9784,610.9714,26.9345,610.6560,26.7769,609.5445,26.7711,608.4012,26.8000,606.7927,26.5470,604.9307,26.4183,601.5860,26.4157,596.1796,601.4559,26.3741,607.8455,26.8259,609.0343,26.5394,609.9771,26.4961,611.9826,26.6237,612.6975,27.1649,612.9611,27.0101,611.4205,27.1881,611.8870,26.8952,611.4202,26.9040,610.1895,26.8503,609.7482,26.8108,608.0502,26.9715,606.0673,26.7460,603.7877,26.4089,600.7758,26.0449,26.3662,603.8095,26.4107,607.2842,26.5817,608.7717,26.6872,609.9028,26.5555,610.3167,26.8133,611.0645,26.8043,611.3012,26.9025,611.4307,27.1504,610.7489,26.7037,610.5618,26.6259,609.3973,26.4234,608.5953,26.6756,606.1777,26.8351,604.4679,26.4957,601.6153,26.5029,595.5408,598.1613,26.1843,604.3635,26.2506,607.4973,26.6275,608.9394,26.7218,610.2360,26.7817,610.4132,26.8436,610.9446,26.7365,611.0284,27.2189,611.9396,26.9631,610.6307,27.0899,610.4197,26.5916,609.0048,27.0108,607.4587,26.8299,605.7128,26.7252,603.6141,26.6678,598.5627,25.8901,26.0028,602.2468,26.0797,606.0964,26.3681,607.9745,26.7167,609.3190,26.6011,609.5966,26.9996,610.5992,26.7131,610.4818,26.9291,610.5252,26.8722,610.1237,26.8813,609.5191,26.8300,608.8925,27.3022,607.4774,26.8694,605.6038,26.8368,604.0983,26.5358,600.8936,26.5640,595.2379,598.5422,26.4955,602.7964,26.4652,605.2274,26.4880,607.5546,26.7254,607.5793,26.8280,609.3029,26.9424,609.5953,26.7484,610.0769,26.9254,611.2695,26.9395,609.4380,27.1146,609.6915,26.9512,608.0255,27.0369,606.1381,26.9535,604.3715,26.7491,601.8595,26.0944,599.6552,26.8867,25.8302,600.7339,26.5131,604.2878,26.4696,606.2193,26.7663,607.5755,26.7673,608.3724,27.0495,609.4320,26.7565,609.4766,26.9568,609.1630,26.5804,608.7745,27.0648,608.5594,26.5145,607.5518,27.1456,606.5431,27.0490,604.6995,26.8586,601.0021,26.7416,600.1328,26.5565,593.8713,595.8801,25.9814,598.5787,26.4374,603.9553,26.6213,605.3910,26.6071,607.7880,26.7996,609.2247,27.0235,609.1274,26.8967,609.6301,27.0821,608.5207,26.5627,607.9863,26.9546,606.7684,26.8991,606.3215,26.8506,603.9781,26.5866,602.1793,26.5286,598.0888,26.3918,596.7376,27.1019,25.3819,599.1284,26.7082,602.3867,26.2627,604.4946,26.9400,606.1442,26.6370,606.6409,26.8338,607.1263,26.8966,607.8905,26.8184,607.5618,26.8272,607.3417,27.2258,607.4349,26.8745,605.8738,26.9863,604.9750,26.5696,600.7693,27.0163,600.7958,26.7044,598.0536,26.5546,591.8069,589.9861,26.2195,597.2548,26.6531,600.1013,26.9205,602.9494,26.9013,604.6940,26.7982,605.6698,27.1783,606.3960,26.6139,606.4578,27.0790,607.3820,26.5979,605.9719,27.2006,606.0289,26.3830,604.3043,26.8222,601.7989,26.7539,600.5251,26.8202,597.9435,26.4884,594.1516,26.5761,25.7319,595.4937,26.0554,599.2970,26.4583,601.7402,26.9637,603.6254,26.5048,604.3005,27.0499,605.6370,26.8720,605.8264,27.2213,605.7081,26.8834,605.1791,26.8952,604.8251,26.9948,604.1021,26.9775,603.1984,26.6897,598.6399,27.0378,596.6036,27.0421,595.4331,26.7359,586.1693,584.3353,26.3589,593.0007,26.9522,596.4770,26.4953,599.7668,26.8505,601.5798,26.7326,602.9945,26.7884,603.5365,27.0288,603.6951,26.8688,603.0928,26.6955,603.7601,26.8536,601.2930,26.6530,601.4490,26.8026,601.4021,26.8360,597.5995,26.9633,594.1542,26.4117,590.8295,26.5007,25.3425,591.5021,26.4495,595.5989,26.3021,595.6193,26.5398,600.5158,26.7975,601.5367,27.0541,602.5795,26.5729,602.8280,27.0532,603.1254,26.9620,600.7850,26.7238,602.3577,26.9618,601.2853,26.9696,600.0046,26.8874,595.6357,26.7696,595.5090,26.4174,591.7944,26.8672,582.0143,583.2744,26.2070,588.5067,26.6771,593.5243,26.5803,595.3875,26.9539,598.3450,27.0094,598.7647,27.0557,601.1537,26.5920,600.5123,26.8337,602.7243,26.9632,600.5721,26.9653,599.3216,26.5491,598.2529,27.0233,597.1985,26.5731,592.1182,27.1009,589.2827,26.0924,587.0428,26.8828,25.3485,582.2249,26.4686,584.3064,25.9599,587.6428,26.5540,589.8286,26.6006,591.8695,27.0436,595.3801,26.6610,594.0785,27.2779,596.9365,26.8464,597.0454,27.2819,596.5096,26.8421,595.2762,27.1692,591.0730,26.6618,590.7025,27.0179,587.2573,26.4341,584.2563,26.9437,572.0282,
22:6:17:21:39:5:719,0.0000,0.0000,0.0000,,0.0000,0.0000,29.1600,99672,138.5379,0,0.0000,0.0000,0.0000,0.0000,0.0000,0.0000,0,0.0000,0.0000,0.0000,0.0000,0.0000,0.0000,0,0,0,0,0,0,0,0.00,0.00,0.00,0,
22:6:17:21:39:5:824,0.0000,0.0000,0.0000,,0.0000,0.0000,29.1700,99673,138.4535,0,0.0000,0.0000,0.0000,0.0000,0.0000,0.0000,0,0.0000,0.0000,0.0000,0.0000,0.0000,0.0000,0,0,0,0,0,0,0,0.00,0.00,0.00,0,
22:6:17:21:39:5:920,0.0000,0.0000,0.0000,,0.0000,0.0000,29.1700,99672,138.5379,0,0.0000,0.0000,0.0000,0.0000,0.0000,0.0000,0,0.0000,0.0000,0.0000,0.0000,0.0000,0.0000,0,0,0,0,0,0,0,0.00,0.00,0.00,0,
22:6:17:21:39:6:25,0.0000,0.0000,0.0000,,0.0000,0.0000,29.1700,99677,138.1160,0,0.0000,0.0000,0.0000,0.0000,0.0000,0.0000,0,0.0000,0.0000,0.0000,0.0000,0.0000,0.0000,0,0,0,0,0,0,0,0.00,0.00,0.00,0,
22:6:17:21:39:6:117,0.0000,0.0000,0.0000,,0.0000,0.0000,29.1800,99672,138.5379,0,0.0000,0.0000,0.0000,0.0000,0.0000,0.0000,0,0.0000,0.0000,0.0000,0.0000,0.0000,0.0000,0,0,0,0,0,0,0,0.00,0.00,0.00,0,
22:6:17:21:39:6:226,0.0000,0.0000,0.0000,,0.0000,0.0000,29.1800,99670,138.7066,0,0.0000,0.0000,0.0000,0.0000,0.0000,0.0000,0,0.0000,0.0000,0.0000,0.0000,0.0000,0.0000,0,0,0,0,0,0,0,0.00,0.00,0.00,0,
22:6:17:21:39:6:318,0.0000,0.0000,0.0000,,0.0000,0.0000,29.1800,99674,138.3691,0,0.0000,0.0000,0.0000,0.0000,0.0000,0.0000,0,0.0000,0.0000,0.0000,0.0000,0.0000,0.0000,0,0,0,0,0,0,0,0.00,0.00,0.00,0,
22:6:17:21:39:6:427,0.0000,0.0000,0.0000,,0.0000,0.0000,29.1800,99676,138.2004,0,0.0000,0.0000,0.0000,0.0000,0.0000,0.0000,0,0.0000,0.0000,0.0000,0.0000,0.0000,0.0000,0,0,0,0,0,0,0,0.00,0.00,0.00,0,
22:6:17:21:39:6:520,0.0000,0.0000,0.0000,,0.0000,0.0000,29.1900,99675,138.2847,0,0.0000,0.0000,0.0000,0.0000,0.0000,0.0000,0,0.0000,0.0000,0.0000,0.0000,0.0000,0.0000,0,0,0,0,0,0,0,0.00,0.00,0.00,0,26.8859,27.0061,27.0204,27.6193,27.0571,27.0998,27.3118,27.8667,27.2211,27.7439,27.4474,28.2104,27.7152,27.6535,27.7124,28.0784,27.5508,27.5152,27.8686,28.0699,27.2875,27.6772,27.6409,28.0182,27.1944,27.7176,26.8032,27.4338,26.7588,26.8826,27.2519,27.1009,27.1756,26.8370,27.3905,27.1460,27.1268,27.1450,28.2389,27.4302,27.4796,27.3641,27.7524,27.3901,27.9369,27.2939,27.8354,27.6519,27.7592,27.1339,27.7936,27.8159,28.0905,27.4954,28.1234,27.3722,27.8285,27.3116,27.9949,27.1850,27.4202,26.6751,27.8250,27.0271,26.8296,27.2006,26.9464,27.5669,27.1892,27.2621,27.3960,27.6160,27.3709,27.8696,27.7439,28.1183,27.4953,27.9261,27.8106,27.8117,27.6226,27.9883,27.6347,27.8090,27.2799,27.6092,27.9487,27.9642,27.3352,27.6713,27.2254,27.8266,27.1486,27.5679,26.9273,27.4940,26.8399,27.2040,27.9451,27.3236,27.6227,27.0728,27.9083,27.7509,27.5981,27.4745,28.2067,27.5214,27.8690,27.4044,28.0931,27.9433,27.9984,27.6050,28.2395,27.5669,28.2021,27.5997,28.0305,27.7194,27.9067,26.8616,28.0919,27.5351,27.7565,27.1281,27.9265,27.1746,26.7263,27.7933,27.2900,27.4709,27.6158,27.7740,27.9044,27.6672,27.4223,28.0965,27.6634,28.1343,27.5346,27.8195,27.7005,27.8622,27.8617,28.0308,27.5223,27.8667,27.6815,27.8292,27.6710,27.9871,27.8008,27.7717,27.5120,28.1590,27.2817,27.6162,27.0363,27.5979,27.4336,26.7291,27.5644,27.6278,27.3068,27.5775,28.1976,27.6220,27.9879,27.0215,28.2664,27.9049,27.9253,27.8171,28.3198,27.8084,28.2253,27.3486,27.9590,27.9746,28.2242,27.8215,28.1049,27.7480,27.8201,27.5791,27.9708,27.5113,27.7138,27.1977,27.5421,27.0747,27.5063,27.4027,27.1882,28.1182,27.1855,27.5090,27.5774,27.9217,27.7182,27.6501,27.7071,27.8851,27.9223,27.5598,27.9050,28.3715,27.7429,28.0416,27.7486,28.4051,27.7785,27.8892,27.8635,27.8793,27.7135,27.9879,27.2667,27.8072,27.5361,27.5217,27.3874,27.4388,27.3465,27.2035,27.7421,27.1090,27.7814,27.1531,28.0708,27.5450,27.9266,27.3407,28.1607,27.8265,28.1332,27.7185,28.1811,27.6663,28.1232,27.8667,28.1881,27.8551,28.3042,27.3744,28.1186,27.7996,28.0927,27.4540,27.8961,27.7052,27.7572,26.9154,27.4588,27.1554,27.1565,27.2381,27.0701,27.7986,27.6639,27.7182,27.6538,28.4929,27.4282,27.8106,27.9050,28.5441,27.6268,27.9264,27.9244,28.5924,27.8069,27.6056,27.7564,28.2713,27.4934,27.9542,28.0918,28.2904,27.5392,27.3867,27.6310,28.1808,27.6061,27.5509,27.2012,27.7347,27.6131,27.2839,27.7786,27.6067,27.8998,27.3857,27.9564,27.7861,28.1399,27.4786,28.1951,27.8468,28.4917,27.4515,28.2305,27.9112,28.3448,27.7678,28.3446,28.0651,28.3295,27.4596,28.3604,28.0427,28.0982,27.5243,28.2600,27.9215,28.1892,27.5244,28.1163,27.8613,26.9924,27.4622,27.4763,27.8527,27.4668,27.8782,27.8594,28.3121,27.9013,28.0353,27.7672,28.4099,27.6370,28.3916,27.8444,28.1001,27.6850,27.8028,27.8149,28.1392,27.9815,28.2614,27.7577,27.9198,27.7502,27.7549,27.8908,28.2569,27.6447,27.8082,27.8670,27.9582,27.6675,27.0971,28.0277,27.6145,28.0834,27.7296,28.1538,27.6121,27.9781,27.5701,28.3793,27.7112,28.0281,27.4444,28.2692,27.8948,28.1990,27.7819,27.9294,27.7466,28.0173,27.7419,28.3539,27.6971,27.9610,27.3845,28.5000,27.8340,27.6910,27.0320,28.1807,27.2879,27.2505,27.6731,27.5484,27.8415,27.6350,28.1140,27.5375,28.5131,27.9486,28.0357,27.9541,28.5693,27.8594,27.9489,28.0181,27.9657,28.0070,28.4720,27.8396,28.4784,27.6779,28.1431,27.4675,28.2857,27.7605,28.1119,27.6990,27.8925,27.3191,27.8606,27.5313,27.7865,27.9266,27.1607,27.6926,27.6553,27.8990,27.4659,28.3580,27.8188,27.8592,27.3983,28.4055,28.3630,28.2436,28.1124,28.4462,27.9305,28.0763,27.8349,28.2628,27.9337,28.3755,27.8031,28.3933,27.5570,28.1460,27.7516,28.1736,27.9978,28.4473,27.8288,27.8351,27.5095,27.0567,27.7628,27.7799,28.2365,27.8890,27.9692,27.5827,28.1835,27.7958,28.2412,27.9989,28.4658,27.7340,28.4303,28.0392,28.4583,27.8529,27.9903,28.3269,28.1829,27.6779,28.3297,27.9505,28.1426,27.7685,28.0846,27.8872,28.2681,27.7030,28.0332,27.7016,28.3840,27.5608,27.2331,27.7409,27.6906,27.9847,27.6698,28.0641,28.0137,28.0359,27.5903,28.2892,27.8007,28.1294,27.3392,28.4788,28.1231,27.7999,27.6930,28.6089,27.8114,28.2306,27.8447,28.2548,27.7406,28.6749,27.7124,28.5521,27.8692,28.4770,27.2795,28.2380,27.5129,27.0416,27.4851,27.4168,27.8642,27.6920,27.9536,27.7538,28.2399,27.8066,28.3954,27.9584,28.4431,27.8764,28.2781,27.8820,28.3197,28.0058,27.9642,28.1714,28.5086,28.0303,28.1470,28.1366,28.3031,27.8134,27.9046,27.7137,28.0747,27.7057,27.9949,27.7261,28.1975,27.1413,26.9841,27.7585,27.4776,28.1660,27.1261,28.2535,27.5530,28.0744,27.7470,28.6012,27.9263,28.2881,27.8109,28.1958,27.9700,28.2260,27.6474,28.3058,27.9700,28.1172,28.1405,28.4404,27.9184,28.0285,27.9397,28.7353,28.2077,28.1057,27.6117,28.4584,27.7356,27.2489,27.7376,28.1718,28.2774,27.5496,27.9286,27.7517,29.0876,27.8288,27.7441,27.5046,28.2857,27.7101,28.1630,28.0036,28.3302,28.0200,28.1595,27.6907,28.4761,27.9929,27.8165,27.7809,28.4859,27.7901,27.9110,28.0824,28.2218,27.6466,28.1430,27.7023,28.3523,27.1137,27.2149,27.9396,27.9098,27.6612,27.2411,28.1261,27.8586,28.1285,27.7989,28.4909,27.9182,28.2939,28.0034,28.6462,28.1311,28.2893,28.0201,28.3217,28.0995,28.2696,27.4948,28.4591,28.0672,28.1869,28.1163,28.2341,27.8168,28.6701,27.7589,27.8562,27.6937,27.3213,27.2793,27.3877,28.0382,27.5731,27.9048,27.7499,28.7468,27.8260,28.2208,28.1627,28.4390,27.9038,28.1304,28.1841,28.3166,27.8403,28.2993,27.9902,28.4872,28.0044,28.1210,27.9625,28.4828,27.4069,28.2160,28.0473,28.0134,28.2334,27.9154,27.8734,28.5745,27.1957,27.1722,27.9671,27.6584,27.8974,27.8201,28.2815,27.8416,28.1226,27.9282,28.5336,28.0904,28.0132,28.0014,28.3414,27.9650,28.2542,27.8485,28.5261,28.1284,28.4432,27.9663,28.6604,28.2501,28.4162,27.8904,28.5897,27.9776,28.1001,27.7434,28.4680,27.8787,26.9848,28.0710,27.7202,28.4305,27.4160,28.0511,28.2591,28.7418,27.5823,28.1922,27.9559,28.7739,28.1612,27.7354,27.6351,28.3136,27.7853,28.2733,28.3408,28.1216,27.7964,28.0715,28.0986,28.7907,27.5389,27.9993,27.8640,28.5897,27.8137,27.6565,28.0962,28.5636,27.5103,27.1851,28.0724,27.9685,27.8712,27.4721,28.3954,28.1389,27.9852,27.6452,28.4179,28.1452,28.3555,27.7196,28.2647,28.0393,28.1743,27.8732,28.7907,28.1781,28.3633,27.8355,28.1931,27.9588,28.0797,27.5427,28.5086,27.6426,28.3975,27.5598,28.6045,28.1952,
22:6:17:21:39:6:688,0.0000,0.0000,0.0000,,0.0000,0.0000,29.1700,99674,138.3691,0,0.0000,0.0000,0.0000,0.0000,0.0000,0.0000,0,0.0000,0.0000,0.0000,0.0000,0.0000,0.0000,0,0,0,0,0,0,0,0.00,0.00,0.00,0,
22:6:17:21:39:6:784,0.0000,0.0000,0.0000,,0.0000,0.0000,29.1800,99672,138.5379,0,0.0000,0.0000,0.0000,0.0000,0.0000,0.0000,0,0.0000,0.0000,0.0000,0.0000,0.0000,0.0000,0,0,0,0,0,0,0,0.00,0.00,0.00,0,
22:6:17:21:39:6:889,0.0000,0.0000,0.0000,,0.0000,0.0000,29.1800,99674,138.3691,0,0.0000,0.0000,0.0000,0.0000,0.0000,0.0000,0,0.0000,0.0000,0.0000,0.0000,0.0000,0.0000,0,0,0,0,0,0,0,0.00,0.00,0.00,0,
22:6:17:21:39:6:985,0.0000,0.0000,0.0000,,0.0000,0.0000,29.1900,99674,138.3691,0,0.0000,0.0000,0.0000,0.0000,0.0000,0.0000,0,0.0000,0.0000,0.0000,0.0000,0.0000,0.0000,0,0,0,0,0,0,0,0.00,0.00,0.00,0,
22:6:17:21:39:7:90,0.0000,0.0000,0.0000,,0.0000,0.0000,29.1900,99674,138.3691,0,0.0000,0.0000,0.0000,0.0000,0.0000,0.0000,0,0.0000,0.0000,0.0000,0.0000,0.0000,0.0000,0,0,0,0,0,0,0,0.00,0.00,0.00,0,
22:6:17:21:39:7:182,0.0000,0.0000,0.0000,,0.0000,0.0000,29.1900,99676,138.2004,0,0.0000,0.0000,0.0000,0.0000,0.0000,0.0000,0,0.0000,0.0000,0.0000,0.0000,0.0000,0.0000,0,0,0,0,0,0,0,0.00,0.00,0.00,0,
22:6:17:21:39:7:291,0.0000,0.0000,0.0000,,0.0000,0.0000,29.1900,99674,138.3691,0,0.0000,0.0000,0.0000,0.0000,0.0000,0.0000,0,0.0000,0.0000,0.0000,0.0000,0.0000,0.0000,0,0,0,0,0,0,0,0.00,0.00,0.00,0,
22:6:17:21:39:7:383,0.0000,0.0000,0.0000,,0.0000,0.0000,29.2000,99673,138.4535,0,0.0000,0.0000,0.0000,0.0000,0.0000,0.0000,0,0.0000,0.0000,0.0000,0.0000,0.0000,0.0000,0,0,0,0,0,0,0,0.00,0.00,0.00,0,
22:6:17:21:39:7:492,0.0000,0.0000,0.0000,,0.0000,0.0000,29.2000,99674,138.3691,0,0.0000,0.0000,0.0000,0.0000,0.0000,0.0000,0,0.0000,0.0000,0.0000,0.0000,0.0000,0.0000,0,0,0,0,0,0,0,0.00,0.00,0.00,0,
22:6:17:21:39:7:584,0.0000,0.0000,0.0000,,0.0000,0.0000,29.2000,99676,138.2004,0,0.0000,0.0000,0.0000,0.0000,0.0000,0.0000,0,0.0000,0.0000,0.0000,0.0000,0.0000,0.0000,0,0,0,0,0,0,0,0.00,0.00,0.00,0,27.8205,27.5455,28.1286,27.6665,28.2860,27.7893,27.8860,28.3198,28.1627,28.3686,28.3747,28.4467,28.2477,28.0710,28.0562,28.3099,28.4395,28.2950,27.8436,28.3050,28.3963,28.2896,27.9994,28.0658,28.1637,27.9739,28.0571,28.3665,27.8360,27.3968,27.6682,27.3996,27.7208,27.4807,28.3550,27.7680,28.6295,28.1443,28.0865,27.9934,28.2897,27.9059,28.3604,27.7393,28.3475,28.0034,28.5972,28.1776,28.6984,28.1941,28.7590,27.9796,28.5080,28.2129,28.1713,28.3189,28.4672,27.8859,28.0429,27.5710,27.6919,27.9844,27.8726,27.4463,27.9494,27.7089,27.7752,28.0427,28.3611,28.1090,28.1417,28.2334,28.6222,28.6393,28.0840,28.3422,28.5170,28.3198,27.9733,28.7240,28.6498,28.3823,27.9717,28.3828,28.3215,28.1877,28.4768,27.8295,28.0634,28.1074,27.9961,28.0800,27.9495,27.4046,27.7897,28.0090,28.0582,28.0462,28.4229,27.9098,28.0674,27.8260,28.5268,28.2866,28.1839,28.1724,28.4298,28.3787,28.4245,28.2457,28.6522,28.4456,28.2187,28.1102,28.4593,28.0779,28.7666,28.4583,28.4380,28.4225,28.8757,27.9855,28.1400,28.3082,28.2222,27.7127,28.2007,27.8070,27.7903,28.0575,28.0832,27.9269,28.5566,28.3899,28.0668,28.0826,27.9350,28.6641,28.1664,28.5273,28.1964,28.3699,28.1957,28.4110,28.5230,28.4096,28.3552,27.9148,28.3519,28.2178,28.0081,28.3890,28.1429,28.1823,28.4458,28.2069,28.2457,27.8694,28.0866,28.3090,27.9222,27.9604,28.2382,28.1932,28.3103,28.2988,28.4247,28.3259,28.3814,28.0472,28.4824,28.4097,28.6293,28.4748,28.3684,28.3015,28.7677,28.1674,28.5067,28.4713,28.4410,28.6574,28.6670,28.2631,28.5741,27.9233,28.3961,28.2396,28.9346,28.1700,27.8078,27.9029,28.1005,27.4510,27.9518,28.3639,28.2729,28.0949,27.9181,28.3203,28.5464,28.5316,28.3666,28.4240,28.5706,28.4135,28.3909,28.2558,28.2270,28.5783,28.3982,28.6169,28.1024,28.2670,28.3690,28.6162,28.2172,28.2118,28.3381,28.2246,27.8925,28.5424,27.9737,28.3403,27.8203,27.5753,27.7902,27.8631,28.1940,28.0253,28.2950,28.2299,28.3054,28.1622,28.5376,28.6405,28.5041,28.3596,28.5505,28.1553,28.3323,28.3527,28.0755,28.5060,28.5142,28.0301,28.3368,28.1346,28.4788,28.4909,28.6608,28.2395,28.1857,28.2383,27.9198,28.1700,28.1549,27.6954,28.0098,28.7968,28.7027,28.2941,28.3362,28.5412,28.5732,28.5278,28.5528,28.4303,28.1087,28.6030,28.2459,28.7982,28.5942,28.4467,28.2442,28.4793,28.1363,28.1615,28.4193,28.8334,28.7239,28.1172,28.3347,28.2288,28.5197,28.1717,27.9827,28.3967,28.2784,28.0563,28.2083,27.9594,28.2987,28.2498,28.3473,28.2862,28.1888,28.3055,28.4048,28.1717,28.6986,28.5534,28.7517,28.3872,28.8584,28.4018,28.3932,28.3871,28.5373,28.4166,28.4088,28.3716,28.4856,28.1961,28.8420,28.2683,28.6078,28.0697,28.3658,28.2324,28.3827,28.1163,27.8319,28.2752,28.1571,28.2797,28.0222,28.5305,28.5534,28.4071,28.5753,28.6197,28.5874,28.5979,28.4761,28.3078,28.7751,28.4815,28.6110,28.6652,28.3027,28.3102,28.4172,28.7970,28.4152,28.4764,28.2290,28.3050,28.5410,28.4125,28.0328,28.2081,27.7163,27.8693,28.2656,28.1530,28.4796,28.2445,28.3712,28.6235,28.3525,28.3764,28.4278,28.6777,28.5481,28.5499,28.7823,28.5324,28.4023,28.5700,28.4500,28.8620,28.3830,28.5498,28.4024,28.0273,28.5105,28.2218,28.3758,28.1747,28.2857,27.9398,28.2291,28.4634,28.0331,28.1230,27.9034,28.2628,28.3338,28.5068,28.2136,28.2257,28.4362,28.5715,28.2786,28.7779,28.6448,28.6196,28.3360,28.6439,28.6324,28.5210,28.4760,29.0011,28.7894,28.3504,28.2865,28.6654,28.4257,28.8259,28.3913,28.2948,28.7457,28.4539,28.2916,28.4337,27.9754,28.5237,28.3071,28.1916,28.1257,28.3142,28.5757,28.3178,28.3954,28.5357,28.4539,28.3657,28.6040,28.4305,28.3402,28.5648,28.4332,28.3055,28.6253,28.7306,28.2669,28.2823,28.4417,28.7146,28.8564,28.2497,28.3975,28.5156,28.3162,27.9958,28.6688,28.2795,28.2491,28.2051,28.1340,28.4703,28.2289,28.3602,28.5924,28.4000,28.6170,28.2901,28.4816,28.5140,28.3643,28.4790,28.5120,28.5066,28.4819,28.5030,28.6478,28.3894,28.3189,28.5352,28.2796,28.5214,28.4382,28.4732,28.4057,28.4924,28.5932,28.2645,28.0676,28.4315,27.8145,28.3836,27.9774,28.4137,28.0337,28.1773,28.4503,28.5146,28.4132,28.5633,28.8162,28.7476,28.7995,28.4411,28.6820,28.5998,28.7822,28.4755,28.3416,28.6048,28.5969,28.6347,28.7992,28.2370,28.7243,28.3890,28.6006,28.7403,28.1640,28.1779,28.4848,28.4905,28.4540,28.3439,28.3518,28.1029,28.5724,28.5272,28.2631,28.4568,28.2993,28.2800,28.2860,28.6542,28.5104,28.7982,28.5166,28.5279,28.6457,28.3327,28.4953,28.3978,28.9901,28.8392,28.3003,28.6853,28.1466,28.2980,28.2397,28.3027,28.4273,28.2310,27.8934,28.2449,27.8154,28.1635,28.1891,28.0262,28.2149,28.1682,28.4731,28.5561,28.6162,28.5710,28.4849,28.9049,28.6532,28.4502,28.5565,28.6114,28.7522,28.4507,28.5142,28.6114,28.6451,28.6267,28.4889,28.4179,28.4123,28.6200,28.6049,28.3745,28.7102,28.7180,28.7076,28.1096,28.0655,28.6047,28.1412,28.7075,28.4432,28.8853,28.2690,28.4448,28.4955,28.4591,28.3323,28.6654,28.5208,28.6856,28.6590,28.5404,28.9857,28.5274,28.3460,28.8557,28.8170,28.5206,28.6313,28.8780,28.6470,28.6579,28.2481,28.6417,28.5781,27.9960,28.4952,28.6114,27.5967,27.7959,28.1856,28.6511,28.0757,28.1391,28.5249,28.8929,28.3441,28.6235,28.8690,28.4156,28.5051,28.6452,28.5311,28.6199,28.4985,28.6621,28.6959,28.7628,28.6483,28.1520,28.6781,28.5764,28.5812,28.8058,28.8278,28.7338,28.7189,28.3185,28.7340,28.5073,28.1461,28.1764,28.7730,28.8888,28.6646,28.5150,28.8189,28.6161,28.1641,28.6133,28.3275,28.9983,28.7217,28.3435,28.3487,28.6973,28.5076,28.6774,28.6624,28.5353,28.6806,28.1695,28.6537,28.5307,28.4594,28.6292,28.5938,29.0181,28.4011,28.1659,28.4770,28.6221,27.6861,28.1984,28.6262,28.2324,27.9460,27.9894,28.3292,28.5496,28.6892,28.4393,28.5819,28.7689,28.5551,28.6601,29.0573,28.6307,28.8059,28.6770,28.4065,28.4629,28.4925,28.8108,28.8836,28.7706,28.2883,28.2430,28.8285,28.3397,28.5449,28.3185,28.7335,28.2763,28.0717,29.0136,28.3220,28.4782,28.3853,28.6907,28.2342,29.1642,28.4762,28.7805,28.3028,28.8219,28.6730,28.4721,28.3274,28.8734,28.6433,28.8348,28.8537,28.6939,29.0154,28.4730,28.4492,28.8386,28.6365,28.6164,28.6271,28.8375,28.8085,28.3396,28.9439,28.6110,28.0196,27.8131,28.3371,28.3531,28.1205,28.6348,28.6358,28.6863,28.3977,28.5397,28.6465,29.0328,28.7540,28.5815,29.0118,28.7223,28.9140,28.5550,29.0128,28.5218,28.5877,28.3581,28.6091,28.3159,28.5032,28.4773,28.5563,29.0285,28.2379,28.3712,29.1052,28.6060,
22:6:17:21:39:7:752,0.0000,0.0000,0.0000,,0.0000,0.0000,29.1900,99674,138.3691,0,0.0000,0.0000,0.0000,0.0000,0.0000,0.0000,0,0.0000,0.0000,0.0000,0.0000,0.0000,0.0000,0,0,0,0,0,0,0,0.00,0.00,0.00,0,
22:6:17:21:39:7:848,0.0000,0.0000,0.0000,,0.0000,0.0000,29.1900,99674,138.3691,0,0.0000,0.0000,0.0000,0.0000,0.0000,0.0000,0,0.0000,0.0000,0.0000,0.0000,0.0000,0.0000,0,0,0,0,0,0,0,0.00,0.00,0.00,0,
22:6:17:21:39:7:953,0.0000,0.0000,0.0000,,0.0000,0.0000,29.1900,99675,138.2847,0,0.0000,0.0000,0.0000,0.0000,0.0000,0.0000,0,0.0000,0.0000,0.0000,0.0000,0.0000,0.0000,0,0,0,0,0,0,0,0.00,0.00,0.00,0,
22:6:17:21:39:8:49,0.0000,0.0000,0.0000,,0.0000,0.0000,29.2000,99675,138.2847,0,0.0000,0.0000,0.0000,0.0000,0.0000,0.0000,0,0.0000,0.0000,0.0000,0.0000,0.0000,0.0000,0,0,0,0,0,0,0,0.00,0.00,0.00,0,
22:6:17:21:39:8:154,0.0000,0.0000,0.0000,,0.0000,0.0000,29.2000,99676,138.2004,0,0.0000,0.0000,0.0000,0.0000,0.0000,0.0000,0,0.0000,0.0000,0.0000,0.0000,0.0000,0.0000,0,0,0,0,0,0,0,0.00,0.00,0.00,0,
22:6:17:21:39:8:246,0.0000,0.0000,0.0000,,0.0000,0.0000,29.2000,99674,138.3691,0,0.0000,0.0000,0.0000,0.0000,0.0000,0.0000,0,0.0000,0.0000,0.0000,0.0000,0.0000,0.0000,0,0,0,0,0,0,0,0.00,0.00,0.00,0,
22:6:17:21:39:8:355,0.0000,0.0000,0.0000,,0.0000,0.0000,29.2100,99672,138.5379,0,0.0000,0.0000,0.0000,0.0000,0.0000,0.0000,0,0.0000,0.0000,0.0000,0.0000,0.0000,0.0000,0,0,0,0,0,0,0,0.00,0.00,0.00,0,
22:6:17:21:39:8:448,0.0000,0.0000,0.0000,,0.0000,0.0000,29.2100,99674,138.3691,0,0.0000,0.0000,0.0000,0.0000,0.0000,0.0000,0,0.0000,0.0000,0.0000,0.0000,0.0000,0.0000,0,0,0,0,0,0,0,0.00,0.00,0.00,0,
22:6:17:21:39:8:540,0.0000,0.0000,0.0000,,0.0000,0.0000,29.2100,99676,138.2004,0,0.0000,0.0000,0.0000,0.0000,0.0000,0.0000,0,0.0000,0.0000,0.0000,0.0000,0.0000,0.0000,0,0,0,0,0,0,0,0.00,0.00,0.00,0,
22:6:17:21:39:8:649,0.0000,0.0000,0.0000,,0.0000,0.0000,29.2100,99672,138.5379,0,0.0000,0.0000,0.0000,0.0000,0.0000,0.0000,0,0.0000,0.0000,0.0000,0.0000,0.0000,0.0000,0,0,0,0,0,0,0,0.00,0.00,0.00,0,28.1166,28.0725,28.1703,28.1670,28.3277,28.4651,28.5402,28.1546,28.2044,28.4068,28.2259,28.6725,28.4739,28.1096,28.0978,28.5310,28.6621,28.5155,28.2605,28.3426,28.4383,28.3277,28.0411,28.6971,28.2056,28.2194,28.0989,27.7394,28.1040,27.8981,27.7102,27.9367,27.7574,27.9968,27.9331,28.0367,27.8385,28.1856,28.5233,28.0347,28.5174,28.5117,28.3975,28.3360,28.3858,28.5870,28.6345,28.3995,28.5594,28.2354,28.2472,28.2039,28.3626,28.4379,28.9650,28.3605,28.5054,28.1305,28.0794,28.0467,28.1742,28.2522,27.6660,27.9793,27.9914,28.2051,28.0373,27.8658,28.2024,28.1472,28.3770,28.0819,28.3023,28.4981,27.9471,28.2046,28.7299,28.3584,28.1891,28.5898,28.5194,28.2487,28.3618,28.5955,28.5383,28.5780,28.1543,28.4135,28.4798,28.5318,28.4396,28.5270,28.4122,27.8633,28.0622,28.5106,27.8622,27.8625,28.2441,28.1612,28.6966,28.0630,28.1838,28.5137,28.2223,28.2137,28.6419,28.5930,28.4631,28.2871,28.5201,28.4872,28.5988,28.3220,28.4968,28.2925,28.8054,28.1535,28.4754,28.2850,28.7306,28.2176,28.3752,28.3498,27.8425,28.1686,28.2367,27.8485,28.2782,28.3110,27.9159,27.9646,28.5986,28.4285,28.2915,28.4870,28.3261,28.7030,28.2082,28.3933,28.5702,28.4088,28.4039,28.1158,28.8965,28.2834,28.5641,28.1214,28.5627,28.2564,28.5698,28.2499,28.1851,28.4011,28.2961,28.2443,28.2877,28.3158,27.9085,28.3449,27.5194,27.7899,27.8576,28.0341,28.7281,28.3401,28.2828,28.0070,28.2479,28.6028,28.6875,28.2806,28.5050,28.8447,28.7330,28.5076,28.6426,28.5351,28.7104,28.5129,28.6472,28.5314,28.7046,28.8286,28.7883,28.4993,28.4333,28.4678,28.1926,28.4116,28.2785,27.9444,28.1425,28.1133,28.3914,28.5992,28.4985,28.3123,28.4932,28.0082,28.2560,28.4046,28.4084,28.2991,28.7741,28.4525,28.4327,28.4582,28.5904,28.4548,28.6022,28.8185,28.3057,28.4700,28.7523,28.6543,28.4291,28.0745,28.1993,28.4464,28.3162,28.1923,28.6416,28.3765,28.2812,28.0284,28.2189,27.9047,28.2321,28.2430,28.5081,28.4447,28.6728,28.6944,28.7393,28.3572,28.3823,28.7187,28.5885,28.6838,28.5308,28.7161,28.5960,28.7097,28.7135,28.8861,28.3745,28.5169,28.5178,28.3588,28.5193,28.2810,28.7906,28.6621,28.1623,28.4216,28.4039,28.3443,28.0516,28.8347,28.5702,28.5082,28.2053,28.7491,28.4520,28.7332,28.4327,28.6309,28.9459,28.7985,28.4476,28.3633,28.7920,28.0109,28.4485,28.5176,28.6562,28.3588,28.2963,28.7069,28.7660,28.6645,28.7349,28.4487,28.5619,28.3998,28.2291,28.6371,28.1105,28.0979,28.0540,28.3758,28.8597,28.4656,28.3848,28.4957,28.8757,28.3471,28.4426,28.5363,28.8949,28.4392,28.6322,28.4288,28.8973,28.5998,28.5923,28.4287,28.7344,28.6161,28.2831,28.9058,28.6931,28.2377,28.7016,28.4908,28.4612,28.2998,28.8044,28.2739,28.2219,28.3559,28.2565,28.3134,28.5489,28.1423,28.4052,28.5690,28.7582,28.6074,28.6171,28.3358,28.7863,28.4794,28.3618,28.5054,28.8172,28.8342,28.3365,28.7037,28.5031,28.6717,28.4591,28.6696,28.4574,28.5150,28.2710,28.5179,28.4006,28.4505,27.8736,28.4465,28.5633,28.5132,28.3023,28.1946,28.3446,28.6357,28.4087,28.8339,28.7155,28.7379,28.6258,28.5591,28.7435,28.7477,28.6655,28.5741,28.5951,28.6116,28.4879,28.4287,28.7375,28.5914,28.6041,28.5650,28.5494,28.4306,28.5855,28.2163,28.5050,28.1656,28.4640,28.3044,28.6870,28.3616,28.3246,28.3008,28.3758,28.7172,28.5960,28.5997,28.6402,28.7724,28.9660,28.6560,28.6868,28.8136,28.5332,28.6823,28.9823,28.4065,28.8327,28.5653,28.5160,28.3893,28.6548,28.7036,28.6345,28.6985,28.6087,28.5092,28.4288,28.4918,28.1365,28.2706,28.6217,28.3668,28.3436,28.4183,28.3412,28.5260,28.6129,28.5266,28.4339,28.4157,28.4915,28.5677,28.6426,28.7812,28.6867,28.7628,28.4721,28.6531,28.6630,28.7722,28.4633,28.4811,28.8037,28.9208,29.0596,28.4572,28.4348,28.3813,28.5342,28.3991,28.5096,28.3210,28.0869,28.2436,28.5526,28.6935,28.6213,28.5697,28.4657,28.6063,28.3309,28.8136,28.5236,28.7077,28.7166,28.5180,28.7088,28.5449,28.9885,28.3874,29.0057,28.5857,28.6785,28.5741,28.3216,28.7243,29.1507,28.8507,28.2709,28.8817,28.8156,28.3024,28.1096,28.2658,28.8711,28.2292,28.3900,28.0841,28.7709,28.3897,28.3183,28.7240,28.7787,28.6049,28.6942,28.7892,28.6830,28.1711,28.7195,28.7975,28.8211,28.5171,28.6947,28.6463,28.7936,28.8321,29.0015,28.6089,28.5955,28.6003,28.6377,28.6066,28.5636,28.2194,28.3227,28.5320,28.0832,28.1800,28.0108,28.3311,28.7925,28.5657,28.4771,28.6634,28.8332,28.9746,28.4923,28.8550,29.0213,28.5229,28.5583,28.8850,29.1624,28.6905,28.6977,28.9126,28.8735,28.5567,29.0081,28.5564,29.0266,28.8515,28.4615,28.3400,28.4696,28.2688,28.5419,28.8886,28.0598,28.6069,28.2249,28.6379,28.4311,28.5582,28.5097,28.7645,28.6543,28.6126,28.5219,28.4589,28.6918,28.4918,29.0607,28.8115,29.1076,28.6513,28.7112,28.4943,28.6837,28.9886,28.5262,28.2926,28.6174,28.6618,28.8206,28.4160,28.7476,28.1977,28.7437,28.5569,28.5367,28.6428,28.3806,28.1716,28.6662,28.5615,28.4866,29.0016,28.7043,28.9950,28.7043,28.8689,28.7238,28.7245,28.5373,28.5785,28.8677,28.7254,28.5512,29.0591,29.0234,28.5591,28.5023,28.5723,28.8614,28.6961,28.6533,28.8644,28.6201,28.2288,28.3293,28.4354,27.8495,28.0426,28.2209,28.5017,28.4774,28.1806,28.5615,28.5879,28.5482,28.8291,28.9056,28.7883,28.7051,28.3692,28.7312,28.6615,28.6964,28.5450,28.5699,29.3001,29.0151,28.6823,28.8854,28.4465,28.6190,28.8477,28.8642,28.5891,28.5647,28.7491,28.1479,28.5491,28.4051,28.4254,28.6132,28.7259,28.3380,28.5534,28.5007,29.1894,28.7218,28.4801,28.3695,28.8661,28.4376,28.7102,28.5578,28.9012,28.7166,28.5514,28.5355,28.9098,29.0618,28.8826,29.0447,28.5682,28.5014,28.8490,28.4461,28.2901,28.8355,28.4052,28.7356,28.8795,28.3815,28.2398,28.0490,28.2739,28.7242,28.4075,28.7271,28.7709,28.5541,28.8241,28.6184,28.4692,28.7565,28.8654,28.5931,28.6722,28.6764,28.7188,28.7790,28.5044,28.7007,28.6833,28.9201,28.6356,28.6799,28.4678,28.6738,28.7667,28.7791,28.5617,28.7685,28.3181,28.5681,28.3809,28.3640,28.7241,28.8254,28.9250,28.4684,29.0144,28.8799,28.8187,28.5249,29.0383,28.8878,28.6818,28.7187,28.9110,29.0300,28.8731,28.5483,28.7314,28.8829,28.6871,29.0417,28.8757,28.8637,28.6540,28.6691,28.8738,28.4387,28.1652,28.7601,28.6465,28.0536,28.5315,28.3706,28.6058,28.1560,28.4794,28.6705,28.9157,28.6155,28.9414,28.5012,29.0742,28.7907,29.1393,29.2216,28.9348,28.7786,29.1073,29.0485,28.5633,28.6249,28.7517,29.0113,28.9138,28.7267,28.7087,28.7904,28.8685,28.2733,27.9876,28.9124,28.8805,
22:6:17:21:39:8:805,0.0000,0.0000,0.0000,,0.0000,0.0000,29.2000,99672,138.5379,0,0.0000,0.0000,0.0000,0.0000,0.0000,0.0000,0,0.0000,0.0000,0.0000,0.0000,0.0000,0.0000,0,0,0,0,0,0,0,0.00,0.00,0.00,0,
22:6:17:21:39:8:914,0.0000,0.0000,0.0000,,0.0000,0.0000,29.2000,99676,138.2004,0,0.0000,0.0000,0.0000,0.0000,0.0000,0.0000,0,0.0000,0.0000,0.0000,0.0000,0.0000,0.0000,0,0,0,0,0,0,0,0.00,0.00,0.00,0,
22:6:17:21:39:9:7,0.0000,0.0000,0.0000,,0.0000,0.0000,29.2100,99672,138.5379,0,0.0000,0.0000,0.0000,0.0000,0.0000,0.0000,0,0.0000,0.0000,0.0000,0.0000,0.0000,0.0000,0,0,0,0,0,0,0,0.00,0.00,0.00,0,
22:6:17:21:39:9:99,0.0000,0.0000,0.0000,,0.0000,0.0000,29.2100,99670,138.7066,0,0.0000,0.0000,0.0000,0.0000,0.0000,0.0000,0,0.0000,0.0000,0.0000,0.0000,0.0000,0.0000,0,0,0,0,0,0,0,0.00,0.00,0.00,0,
22:6:17:21:39:9:207,0.0000,0.0000,0.0000,,0.0000,0.0000,29.2100,99672,138.5379,0,0.0000,0.0000,0.0000,0.0000,0.0000,0.0000,0,0.0000,0.0000,0.0000,0.0000,0.0000,0.0000,0,0,0,0,0,0,0,0.00,0.00,0.00,0,
22:6:17:21:39:9:299,0.0000,0.0000,0.0000,,0.0000,0.0000,29.2100,99675,138.2847,0,0.0000,0.0000,0.0000,0.0000,0.0000,0.0000,0,0.0000,0.0000,0.0000,0.0000,0.0000,0.0000,0,0,0,0,0,0,0,0.00,0.00,0.00,0,
22:6:17:21:39:9:408,0.0000,0.0000,0.0000,,0.0000,0.0000,29.2100,99675,138.2847,0,0.0000,0.0000,0.0000,0.0000,0.0000,0.0000,0,0.0000,0.0000,0.0000,0.0000,0.0000,0.0000,0,0,0,0,0,0,0,0.00,0.00,0.00,0,
22:6:17:21:39:9:501,0.0000,0.0000,0.0000,,0.0000,0.0000,29.2200,99675,138.2847,0,0.0000,0.0000,0.0000,0.0000,0.0000,0.0000,0,0.0000,0.0000,0.0000,0.0000,0.0000,0.0000,0,0,0,0,0,0,0,0.00,0.00,0.00,0,
22:6:17:21:39:9:593,0.0000,0.0000,0.0000,,0.0000,0.0000,29.2200,99676,138.2004,0,0.0000,0.0000,0.0000,0.0000,0.0000,0.0000,0,0.0000,0.0000,0.0000,0.0000,0.0000,0.0000,0,0,0,0,0,0,0,0.00,0.00,0.00,0,28.1552,28.2279,28.6760,28.7824,28.3653,28.6173,28.7807,28.7118,28.2417,28.7496,28.8334,28.6372,28.3270,28.9950,28.6786,28.8663,28.6990,28.4859,28.8577,28.8692,28.6634,28.6684,28.6604,28.6545,28.2433,28.5827,28.7840,28.3405,28.1424,28.0585,28.4879,28.1030,28.4114,27.5616,28.5485,28.9802,28.4093,28.4317,28.8773,28.8666,28.6703,28.1741,28.9221,28.9263,28.8982,28.2644,28.9646,28.9766,28.8880,28.2737,28.7672,28.9708,28.6993,28.2933,29.3065,28.9808,28.8553,28.3724,28.4494,28.9490,28.7743,28.2924,28.5515,28.2653,28.0299,28.8161,28.5140,28.6598,28.2401,28.4977,28.8001,28.4240,28.7008,28.6494,28.6959,28.5321,28.4248,28.6808,28.9188,29.2566,28.7285,28.7454,29.0916,28.7477,28.5753,28.5547,28.7376,28.9297,28.5171,28.8794,29.0763,28.4801,28.4502,28.6508,28.5599,28.9060,28.4855,27.9018,28.6155,28.6186,28.4572,28.2966,28.7173,28.7370,28.3748,28.4294,28.6196,28.9756,28.7824,28.1560,29.0119,29.1992,28.9197,28.5301,29.5019,29.0198,28.7859,28.1921,28.9867,28.8596,29.0658,28.0663,28.5312,28.5902,28.4158,27.7942,28.8469,28.8052,28.0936,28.6804,28.9947,28.3217,28.4421,28.3916,28.8750,28.6385,28.0141,28.8532,28.9236,28.8882,28.6070,28.8919,28.6067,28.6004,28.4360,28.7637,28.6008,28.7765,28.7680,28.5776,28.9517,28.5798,28.7555,28.7349,28.5253,28.7796,28.7221,28.2697,28.8241,28.9468,28.7727,28.2527,28.6381,28.6725,28.6923,28.1928,29.1496,29.1218,28.7428,28.6406,29.1730,28.8297,29.1447,28.5544,29.0477,29.0374,29.1207,28.4103,28.6968,28.8830,28.9653,28.2340,28.8576,29.0408,29.2900,28.3603,28.5883,28.8788,28.5443,28.2511,28.2201,28.6382,27.9667,28.4737,28.8248,28.9484,28.3522,28.4633,29.0605,28.6843,28.4593,28.8861,28.9404,28.9385,28.6493,28.2816,28.9540,28.6089,28.3058,28.9294,28.9623,28.6428,28.5037,28.7850,28.7892,28.9787,28.4663,29.1019,28.7778,28.6020,28.3539,28.7368,29.0944,28.5376,28.8599,27.8617,28.9598,28.9172,28.5668,28.4572,28.6618,28.8280,28.8239,28.4057,29.0549,28.7199,28.8546,28.9148,28.7404,29.2060,28.9994,28.5933,28.9083,29.3928,28.7047,28.4365,28.8660,29.2331,29.0056,28.5711,28.6741,29.2351,28.7569,28.5104,28.7303,28.6713,28.2348,28.6996,29.0503,28.7974,28.2577,28.8333,28.7600,28.7303,28.3258,29.0489,28.9540,28.9428,28.5063,28.9477,28.9623,29.3007,28.5169,28.6357,28.6475,28.8280,28.3751,28.6679,28.9914,29.0241,28.6337,28.9863,28.9507,28.6039,28.4132,28.7455,29.0801,28.5934,28.4723,28.1370,28.4004,28.7875,29.1865,28.3298,28.7092,28.8685,28.8655,28.2199,28.5952,28.8959,28.7313,28.6330,29.2550,29.0896,29.5095,28.4815,28.7445,29.0991,29.0436,28.8117,29.0876,29.4339,29.0139,28.4446,29.0333,29.0703,29.1688,28.3391,28.7606,28.7171,28.4627,28.7090,28.8653,28.8388,28.7604,28.8203,28.7821,28.8891,28.7949,28.9178,29.1357,28.9699,28.8229,29.1004,29.0220,28.9733,28.5457,29.1406,29.0051,29.0136,28.5402,28.8231,28.9902,28.8216,28.6612,28.8356,28.8289,29.1961,28.6205,28.6067,29.3117,28.8079,28.5187,27.9502,28.6484,28.7911,29.0172,28.4993,28.3938,29.2082,29.0288,28.6161,29.2571,29.2358,29.2065,28.4731,29.2804,29.0841,28.8994,28.6496,29.1098,28.9414,28.8888,28.6296,29.0841,29.2608,28.7026,28.4693,29.0840,28.9519,29.0216,28.3888,29.0168,29.1435,28.3178,28.5142,28.7398,29.1949,28.4131,28.8676,29.1415,28.7504,28.5152,28.9221,29.1634,28.9665,28.7236,28.8082,28.8800,28.9894,28.7111,29.3222,29.1831,29.3482,28.5530,28.8570,28.6918,28.8565,28.8380,29.0174,28.9958,28.4880,28.8250,28.6480,28.5689,28.8290,28.3751,27.8090,28.8765,29.0099,28.8495,28.3943,29.2732,28.7316,28.9100,28.4540,29.2848,29.0850,28.9501,28.6648,28.9931,29.2685,28.9301,28.6912,29.2844,29.2824,29.0872,28.5194,28.7951,29.4509,29.3760,28.6614,29.1147,29.1216,29.2276,28.4384,28.6684,28.9579,28.5330,28.5937,28.7779,29.0306,28.6587,28.8910,29.1757,28.7572,28.5324,29.1250,29.0384,29.1679,29.0629,29.1330,29.0544,28.8521,28.7157,28.8463,29.0425,29.0527,28.5568,28.8823,29.1836,29.0419,28.8532,28.8348,29.3644,29.2120,28.6728,28.8232,28.7443,28.8296,28.6243,28.6598,28.5484,29.2321,28.7525,28.5987,28.9793,29.2640,28.7690,28.1591,29.1662,29.1386,29.2996,28.6763,28.8730,29.1470,28.9739,28.5554,29.0056,29.1537,28.9463,28.8703,29.1561,29.1407,29.2507,28.4694,28.7946,28.8212,28.9005,28.2589,29.2732,28.9734,28.1217,28.9380,28.6231,28.8644,28.4735,28.8916,29.0287,28.9837,28.7065,28.6349,28.8576,28.8446,28.7458,28.9873,29.2209,29.0369,28.8831,28.8418,29.0548,28.7480,28.7517,29.0301,29.0451,29.0433,28.7297,28.8340,29.0366,29.3908,28.6918,28.8001,28.7813,28.8473,28.6350,28.4456,28.7659,28.8661,28.4102,28.0743,28.8376,29.1355,29.1358,28.4868,29.1695,29.3084,29.1604,28.8454,28.7484,29.1658,29.2599,28.6896,29.5017,29.0079,28.6791,28.7068,29.3475,29.3285,28.7720,28.5304,29.1563,29.1700,29.0894,28.2375,28.9042,29.0014,28.1468,29.0014,29.3995,28.9000,28.5231,28.7149,29.2235,29.3266,28.2406,28.8161,29.3983,29.1863,28.7610,29.0335,29.2272,29.2152,28.7446,28.8776,29.0764,29.3770,28.5667,29.0382,29.3917,29.4133,28.5545,29.3711,29.0528,28.8358,28.2767,28.7761,29.1963,28.8093,28.4454,28.2875,28.5807,29.1125,28.8183,28.5833,28.7206,28.9731,28.7051,28.7038,29.0618,28.9918,28.8605,28.7253,29.5364,29.1836,29.1696,28.7422,29.0509,29.5030,28.8424,28.8834,28.8725,29.1693,28.9469,28.7135,29.3847,29.0013,29.2958,28.0097,28.7255,29.0148,28.0108,28.7927,29.0545,28.8823,28.5606,28.5211,29.0781,28.9872,28.5879,28.8051,29.4237,29.0197,28.6383,28.6994,29.2607,29.3853,29.0868,29.1969,28.9104,29.2318,28.7604,29.0364,29.2561,29.0716,28.7154,29.0048,29.0520,29.0220,28.6778,28.7660,28.9901,29.2648,28.5486,28.4930,28.6212,29.1189,28.7009,28.6350,29.2472,29.1683,29.0566,28.6917,29.2864,29.1892,29.2399,28.9042,29.4165,29.2081,29.1663,29.0868,29.2713,29.2133,28.8582,28.7224,28.5542,29.3791,29.0147,28.5077,29.2154,29.1903,28.9399,28.4004,28.9331,29.4684,27.9255,29.2087,29.0470,29.0904,28.6648,29.2762,29.2717,29.3570,28.9177,29.1523,28.7425,29.3716,28.9254,29.3474,29.1044,29.2355,28.5501,29.0271,29.6241,29.2346,28.7457,29.5425,29.4446,29.4011,28.7165,28.8114,29.4945,29.2331,28.2712,28.9582,29.6974,29.2734,28.6859,28.5730,28.5416,29.0672,28.7231,28.1249,29.0287,29.7025,28.9589,28.8018,28.8452,29.6494,29.1254,28.6634,29.0350,29.3152,29.4536,28.8066,29.2101,29.3004,29.3099,28.4396,29.1740,29.3229,29.0750,28.5592,29.3534,29.5117,29.0616,28.2418,29.0822,29.6174,
22:6:17:21:39:9:764,0.0000,0.0000,0.0000,,0.0000,0.0000,29.2000,99676,138.2004,0,0.0000,0.0000,0.0000,0.0000,0.0000,0.0000,0,0.0000,0.0000,0.0000,0.0000,0.0000,0.0000,0,0,0,0,0,0,0,0.00,0.00,0.00,0,
22:6:17:21:39:9:857,0.0000,0.0000,0.0000,,0.0000,0.0000,29.2100,99674,138.3691,0,0.0000,0.0000,0.0000,0.0000,0.0000,0.0000,0,0.0000,0.0000,0.0000,0.0000,0.0000,0.0000,0,0,0,0,0,0,0,0.00,0.00,0.00,0,
22:6:17:21:39:9:966,0.0000,0.0000,0.0000,,0.0000,0.0000,29.2100,99673,138.4535,0,0.0000,0.0000,0.0000,0.0000,0.0000,0.0000,0,0.0000,0.0000,0.0000,0.0000,0.0000,0.0000,0,0,0,0,0,0,0,0.00,0.00,0.00,0,
22:6:17:21:39:10:59,0.0000,0.0000,0.0000,,0.0000,0.0000,29.2200,99673,138.4535,0,0.0000,0.0000,0.0000,0.0000,0.0000,0.0000,0,0.0000,0.0000,0.0000,0.0000,0.0000,0.0000,0,0,0,0,0,0,0,0.00,0.00,0.00,0,
22:6:17:21:39:10:151,0.0000,0.0000,0.0000,,0.0000,0.0000,29.2200,99676,138.2004,0,0.0000,0.0000,0.0000,0.0000,0.0000,0.0000,0,0.0000,0.0000,0.0000,0.0000,0.0000,0.0000,0,0,0,0,0,0,0,0.00,0.00,0.00,0,
22:6:17:21:39:10:260,0.0000,0.0000,0.0000,,0.0000,0.0000,29.2200,99673,138.4535,0,0.0000,0.0000,0.0000,0.0000,0.0000,0.0000,0,0.0000,0.0000,0.0000,0.0000,0.0000,0.0000,0,0,0,0,0,0,0,0.00,0.00,0.00,0,
22:6:17:21:39:10:353,0.0000,0.0000,0.0000,,0.0000,0.0000,29.2300,99677,138.1160,0,0.0000,0.0000,0.0000,0.0000,0.0000,0.0000,0,0.0000,0.0000,0.0000,0.0000,0.0000,0.0000,0,0,0,0,0,0,0,0.00,0.00,0.00,0,
22:6:17:21:39:10:446,0.0000,0.0000,0.0000,,0.0000,0.0000,29.2300,99673,138.4535,0,0.0000,0.0000,0.0000,0.0000,0.0000,0.0000,0,0.0000,0.0000,0.0000,0.0000,0.0000,0.0000,0,0,0,0,0,0,0,0.00,0.00,0.00,0,
22:6:17:21:39:10:555,0.0000,0.0000,0.0000,,0.0000,0.0000,29.2200,99673,138.4535,0,0.0000,0.0000,0.0000,0.0000,0.0000,0.0000,0,0.0000,0.0000,0.0000,0.0000,0.0000,0.0000,0,0,0,0,0,0,0,0.00,0.00,0.00,0,
22:6:17:21:39:10:648,0.0000,0.0000,0.0000,,0.0000,0.0000,29.2300,99674,138.3691,0,0.0000,0.0000,0.0000,0.0000,0.0000,0.0000,0,0.0000,0.0000,0.0000,0.0000,0.0000,0.0000,0,0,0,0,0,0,0,0.00,0.00,0.00,0,28.5529,28.7444,28.8185,28.5816,28.7188,28.8590,29.1249,29.1445,28.5767,28.7800,29.1637,29.0424,29.0197,29.2083,28.8190,28.8965,29.2004,29.0610,28.8125,29.0853,28.6173,28.8856,28.6086,29.0787,28.9845,28.8195,28.7111,28.3695,29.1851,28.5497,28.6325,28.3809,28.4414,28.4156,28.8056,28.8969,28.8527,28.9873,28.9073,28.8104,29.0788,28.8785,29.3223,29.0674,28.7494,28.7674,28.9949,28.9393,29.2728,28.9489,28.7978,28.9305,29.0972,28.8022,29.1486,28.9303,29.6652,28.9198,29.1135,28.8780,29.0253,29.1129,28.8211,28.6560,28.6463,28.8463,28.4371,28.6895,28.9827,28.9240,28.7478,28.8316,29.2018,29.2181,29.1900,28.7378,28.9081,28.5394,29.0600,28.9438,28.6974,29.1194,29.4046,28.7779,29.2390,28.7609,29.4223,28.9597,29.0317,28.7175,29.0196,28.7142,28.5937,28.4712,28.9326,28.7027,28.7474,28.7172,28.8593,28.9692,28.8813,28.6329,28.7475,29.4319,29.1166,28.7478,28.9985,29.6313,28.6456,28.8035,29.0426,28.8360,28.9512,28.8416,29.3625,28.9898,29.3303,28.6807,29.0172,29.0020,29.2798,28.7793,29.3498,28.9344,28.6539,28.5592,28.6514,28.9508,28.6815,29.1386,28.9291,28.5545,29.1636,28.9869,29.1973,28.6688,29.0252,29.0563,29.0641,29.0902,29.2431,28.9229,29.0783,29.2938,28.7434,29.2865,28.9081,28.9740,28.7408,29.1151,28.9210,28.7862,29.0747,28.9451,28.8590,29.1866,29.0627,29.1130,28.9675,28.7561,29.0209,29.0276,28.4602,28.8142,29.2903,28.8897,28.8238,29.0841,28.9454,28.9522,28.8697,28.9712,29.0136,29.0240,29.0785,28.8514,29.1523,28.7149,29.0586,29.5206,29.4957,29.0463,28.7175,29.0089,29.1467,28.8581,28.8064,29.0219,29.1587,28.9938,28.8985,28.7835,28.9622,29.1225,28.7686,28.9786,28.8609,29.0272,28.8480,28.8891,28.9321,28.9171,29.0808,29.1315,29.1130,28.9532,29.4159,28.9662,28.7679,29.2836,29.2639,29.1628,28.9661,29.1426,29.1008,29.0091,29.1152,29.1325,28.9200,28.9989,28.6867,28.9602,28.8235,28.9906,28.8906,28.8239,29.1841,28.6713,28.7786,29.1245,29.0422,28.9697,29.1825,29.0369,29.2489,29.0233,29.0461,29.0562,29.2501,29.1860,29.1896,29.0559,29.0990,29.0508,28.8963,28.9036,29.0653,29.2059,29.0372,28.8871,29.4163,28.8299,28.7879,29.2254,29.1689,29.0253,28.7912,29.1340,28.8083,29.0168,29.0974,29.2129,29.0733,29.2679,28.9559,29.0799,28.7717,29.1348,28.8063,28.8226,28.9436,29.3314,28.8137,28.8243,28.9503,29.0176,29.1517,29.1716,28.9686,29.0546,29.2828,28.8483,28.9141,28.8156,29.2996,29.1539,29.0202,28.8263,28.5027,29.0822,28.8104,28.9299,28.8706,28.9932,28.7398,29.0102,29.0582,29.1855,28.9471,28.8767,29.3913,29.2401,28.9723,29.2309,29.2335,29.0912,29.0966,29.2406,29.2327,29.1108,29.2804,29.0859,29.0455,29.0901,29.4176,29.0331,29.3833,28.8587,28.7905,28.6606,29.0105,29.1396,28.8166,28.8693,29.0760,29.2013,28.9234,29.0891,29.2605,29.1094,29.1158,29.1612,28.8069,28.9746,29.1630,28.6866,29.1487,29.0156,28.9886,28.8859,29.3121,28.8541,29.2955,28.8518,29.1354,29.2003,28.9710,29.2263,28.9449,29.0055,28.8570,29.0380,28.9520,28.6953,29.0560,28.7479,29.0484,28.6416,29.0978,29.5175,29.3825,29.0769,28.9690,29.0585,29.0822,28.7711,29.1572,29.0684,29.0841,29.4116,28.9844,28.9251,29.2345,28.9318,29.1148,29.2387,29.0657,29.1118,29.1144,29.0948,29.0526,28.7160,29.2438,29.0890,28.8689,28.3448,29.0704,28.6694,28.9099,29.0696,29.1137,28.9481,29.3028,29.1145,28.9830,28.9971,29.3291,28.9939,29.1756,29.0200,29.3130,29.2009,29.1675,29.5361,29.1664,29.2030,29.1583,28.8869,28.8139,29.2136,29.3122,29.0465,29.1462,29.0395,28.9094,29.0568,29.2142,28.9455,28.5309,28.9684,28.7040,28.7067,29.3037,29.0399,29.1025,28.9186,28.9960,29.2265,29.1362,29.1148,29.3309,29.2543,29.2671,28.9855,29.1591,29.4240,29.4317,28.9748,29.1493,29.1012,29.2432,29.2991,29.3192,28.9145,29.2586,28.9423,29.0893,28.9042,29.0827,29.0153,28.9206,28.8760,29.4975,29.2617,29.1496,29.1226,28.8385,29.1561,29.3384,29.0438,29.3583,29.4729,29.1956,29.0387,29.1660,29.0310,29.6555,29.0833,29.1730,28.9133,29.3251,29.0723,29.3297,29.2035,29.3313,29.0668,29.1758,29.3975,28.8875,28.6574,28.8579,28.6083,28.9527,28.8221,29.1314,29.0812,28.8414,29.4060,29.1264,28.9461,29.1967,29.2803,29.3309,29.1281,29.0579,29.4440,29.3142,29.1584,29.5067,29.2956,28.9775,29.1679,29.3511,29.2830,29.2822,28.9513,29.1751,29.3151,29.1113,29.1278,29.1061,29.1184,29.0901,28.9685,28.7671,29.0837,29.1499,29.0963,29.1707,29.1818,28.8483,29.3196,28.9987,29.5226,29.3550,29.4870,29.2057,29.0675,29.1830,29.5067,29.1963,29.0955,28.8940,29.2210,29.0211,29.2397,29.2064,29.0358,29.0006,29.0639,29.0195,29.2031,28.9251,28.8763,28.6652,28.9903,28.7955,28.8202,29.3302,28.5661,29.2091,29.2778,29.1668,28.9576,28.8718,29.1270,29.0348,28.9876,29.4001,28.9920,29.2912,28.9906,29.3735,29.1500,29.5033,29.3290,29.2122,29.1399,29.4676,29.1854,29.0083,29.3134,28.9357,29.1295,29.1343,29.1467,29.1477,29.0319,28.9558,28.9301,29.2079,28.9266,29.3659,29.3571,28.8841,29.0124,29.2124,29.0520,29.2240,29.5349,29.3689,29.0847,29.2062,29.2257,29.3803,29.0774,29.3662,29.2315,29.3639,28.9302,29.2136,29.0551,29.0151,29.4204,29.1814,29.0001,29.1338,29.2599,28.6903,29.0438,29.0047,29.4459,29.0301,28.7269,28.9253,29.4609,29.2329,29.3376,29.2563,29.2991,29.3753,29.1842,29.2424,29.3260,29.5183,28.8851,29.0811,29.3161,29.5286,29.5115,29.4123,29.1418,28.9778,29.0316,29.4149,28.9603,29.3264,29.1273,28.9616,29.1620,29.0227,29.2427,29.1988,29.1119,29.0722,29.1106,29.0418,29.1956,28.9024,29.0071,29.0592,29.0500,29.1060,29.0573,29.4030,29.2505,29.5611,29.0639,29.2210,29.4295,29.2423,28.8989,29.2249,29.2749,29.2099,29.5783,29.1955,29.0516,29.4084,29.1974,29.3503,28.8518,28.5780,28.8506,29.0561,29.0627,28.9157,28.9674,29.0967,29.1328,29.2588,29.1776,29.1472,29.1625,29.2707,29.3735,29.2804,29.5160,29.3638,29.2308,29.4684,29.6894,29.3977,29.3716,29.2835,29.3470,29.2216,29.1995,29.2452,29.7170,28.9701,29.1495,29.1793,29.6161,28.5270,29.2387,29.1921,29.3279,29.0079,29.5020,29.4154,29.3870,29.0611,29.1828,29.2443,29.4017,29.2406,29.2078,29.2473,29.2656,29.3815,29.5676,29.2492,29.2647,29.2386,29.2234,29.2227,29.2467,29.2297,29.2184,29.2462,29.4616,29.4439,29.6159,28.9439,29.3021,28.7146,28.9448,29.0026,29.2147,28.9523,29.2575,29.6321,29.4761,29.3499,29.3069,29.0547,29.6155,29.3296,29.3245,29.4126,29.6293,29.3125,29.2909,29.4132,29.4446,29.3405,29.2870,29.3862,29.6528,29.4770,29.2734,29.5806,29.4573,29.7094,28.6011,29.3367,29.5363,
22:6:17:21:39:10:819,0.0000,0.0000,0.0000,,0.0000,0.0000,29.2200,99674,138.3691,0,0.0000,0.0000,0.0000,0.0000,0.0000,0.0000,0,0.0000,0.0000,0.0000,0.0000,0.0000,0.0000,0,0,0,0,0,0,0,0.00,0.00,0.00,0,
22:6:17:21:39:10:912,0.0000,0.0000,0.0000,,0.0000,0.0000,29.2200,99676,138.2004,0,0.0000,0.0000,0.0000,0.0000,0.0000,0.0000,0,0.0000,0.0000,0.0000,0.0000,0.0000,0.0000,0,0,0,0,0,0,0,0.00,0.00,0.00,0,
22:6:17:21:39:11:5,0.0000,0.0000,0.0000,,0.0000,0.0000,29.2300,99670,138.7066,0,0.0000,0.0000,0.0000,0.0000,0.0000,0.0000,0,0.0000,0.0000,0.0000,0.0000,0.0000,0.0000,0,0,0,0,0,0,0,0.00,0.00,0.00,0,
22:6:17:21:39:11:113,0.0000,0.0000,0.0000,,0.0000,0.0000,29.2200,99671,138.6222,0,0.0000,0.0000,0.0000,0.0000,0.0000,0.0000,0,0.0000,0.0000,0.0000,0.0000,0.0000,0.0000,0,0,0,0,0,0,0,0.00,0.00,0.00,0,
22:6:17:21:39:11:206,0.0000,0.0000,0.0000,,0.0000,0.0000,29.2300,99673,138.4535,0,0.0000,0.0000,0.0000,0.0000,0.0000,0.0000,0,0.0000,0.0000,0.0000,0.0000,0.0000,0.0000,0,0,0,0,0,0,0,0.00,0.00,0.00,0,
22:6:17:21:39:11:315,0.0000,0.0000,0.0000,,0.0000,0.0000,29.2300,99676,138.2004,0,0.0000,0.0000,0.0000,0.0000,0.0000,0.0000,0,0.0000,0.0000,0.0000,0.0000,0.0000,0.0000,0,0,0,0,0,0,0,0.00,0.00,0.00,0,
22:6:17:21:39:11:408,0.0000,0.0000,0.0000,,0.0000,0.0000,29.2300,99675,138.2847,0,0.0000,0.0000,0.0000,0.0000,0.0000,0.0000,0,0.0000,0.0000,0.0000,0.0000,0.0000,0.0000,0,0,0,0,0,0,0,0.00,0.00,0.00,0,
22:6:17:21:39:11:501,0.0000,0.0000,0.0000,,0.0000,0.0000,29.2400,99675,138.2847,0,0.0000,0.0000,0.0000,0.0000,0.0000,0.0000,0,0.0000,0.0000,0.0000,0.0000,0.0000,0.0000,0,0,0,0,0,0,0,0.00,0.00,0.00,0,
