Timestamp,Wind speed,Wind angle,Acoustic temperature windsensor,Temperature validity,Temperature_aht10,Relative humidity_aht10,Temperature_ms5611,Pressure_ms5611,Absolute_altitude_ms5611,timestamp_pix_attitude,Roll,Pitch,Yaw,Roll speed,Pitch speed,Yaw speed,timestamp_pix_loc_pos,x,y,z,vx,vy,vz,timestamp_pix_gps,pix_lat,pix_lon,pix_alt,pix_gps_vx,pix_gps_vy,pix_gps_vz,latitude,longitude,altitude_gps,relative_altitude_gps,Pixel_0,Pixel_1,Pixel_2,Pixel_3,Pixel_4,Pixel_5,Pixel_6,Pixel_7,Pixel_8,Pixel_9,Pixel_10,Pixel_11,Pixel_12,Pixel_13,Pixel_14,Pixel_15,Pixel_16,Pixel_17,Pixel_18,Pixel_19,Pixel_20,Pixel_21,Pixel_22,Pixel_23,Pixel_24,Pixel_25,Pixel_26,Pixel_27,Pixel_28,Pixel_29,Pixel_30,Pixel_31,Pixel_32,Pixel_33,Pixel_34,Pixel_35,Pixel_36,Pixel_37,Pixel_38,Pixel_39,Pixel_40,Pixel_41,Pixel_42,Pixel_43,Pixel_44,Pixel_45,Pixel_46,Pixel_47,Pixel_48,Pixel_49,Pixel_50,Pixel_51,Pixel_52,Pixel_53,Pixel_54,Pixel_55,Pixel_56,Pixel_57,Pixel_58,Pixel_59,Pixel_60,Pixel_61,Pixel_62,Pixel_63,Pixel_64,Pixel_65,Pixel_66,Pixel_67,Pixel_68,Pixel_69,Pixel_70,Pixel_71,Pixel_72,Pixel_73,Pixel_74,Pixel_75,Pixel_76,Pixel_77,Pixel_78,Pixel_79,Pixel_80,Pixel_81,Pixel_82,Pixel_83,Pixel_84,Pixel_85,Pixel_86,Pixel_87,Pixel_88,Pixel_89,Pixel_90,Pixel_91,Pixel_92,Pixel_93,Pixel_94,Pixel_95,Pixel_96,Pixel_97,Pixel_98,Pixel_99,Pixel_100,Pixel_101,Pixel_102,Pixel_103,Pixel_104,Pixel_105,Pixel_106,Pixel_107,Pixel_108,Pixel_109,Pixel_110,Pixel_111,Pixel_112,Pixel_113,Pixel_114,Pixel_115,Pixel_116,Pixel_117,Pixel_118,Pixel_119,Pixel_120,Pixel_121,Pixel_122,Pixel_123,Pixel_124,Pixel_125,Pixel_126,Pixel_127,Pixel_128,Pixel_129,Pixel_130,Pixel_131,Pixel_132,Pixel_133,Pixel_134,Pixel_135,Pixel_136,Pixel_137,Pixel_138,Pixel_139,Pixel_140,Pixel_141,Pixel_142,Pixel_143,Pixel_144,Pixel_145,Pixel_146,Pixel_147,Pixel_148,Pixel_149,Pixel_150,Pixel_151,Pixel_152,Pixel_153,Pixel_154,Pixel_155,Pixel_156,Pixel_157,Pixel_158,Pixel_159,Pixel_160,Pixel_161,Pixel_162,Pixel_163,Pixel_164,Pixel_165,Pixel_166,Pixel_167,Pixel_168,Pixel_169,Pixel_170,Pixel_171,Pixel_172,Pixel_173,Pixel_174,Pixel_175,Pixel_176,Pixel_177,Pixel_178,Pixel_179,Pixel_180,Pixel_181,Pixel_182,Pixel_183,Pixel_184,Pixel_185,Pixel_186,Pixel_187,Pixel_188,Pixel_189,Pixel_190,Pixel_191,Pixel_192,Pixel_193,Pixel_194,Pixel_195,Pixel_196,Pixel_197,Pixel_198,Pixel_199,Pixel_200,Pixel_201,Pixel_202,Pixel_203,Pixel_204,Pixel_205,Pixel_206,Pixel_207,Pixel_208,Pixel_209,Pixel_210,Pixel_211,Pixel_212,Pixel_213,Pixel_214,Pixel_215,Pixel_216,Pixel_217,Pixel_218,Pixel_219,Pixel_220,Pixel_221,Pixel_222,Pixel_223,Pixel_224,Pixel_225,Pixel_226,Pixel_227,Pixel_228,Pixel_229,Pixel_230,Pixel_231,Pixel_232,Pixel_233,Pixel_234,Pixel_235,Pixel_236,Pixel_237,Pixel_238,Pixel_239,Pixel_240,Pixel_241,Pixel_242,Pixel_243,Pixel_244,Pixel_245,Pixel_246,Pixel_247,Pixel_248,Pixel_249,Pixel_250,Pixel_251,Pixel_252,Pixel_253,Pixel_254,Pixel_255,Pixel_256,Pixel_257,Pixel_258,Pixel_259,Pixel_260,Pixel_261,Pixel_262,Pixel_263,Pixel_264,Pixel_265,Pixel_266,Pixel_267,Pixel_268,Pixel_269,Pixel_270,Pixel_271,Pixel_272,Pixel_273,Pixel_274,Pixel_275,Pixel_276,Pixel_277,Pixel_278,Pixel_279,Pixel_280,Pixel_281,Pixel_282,Pixel_283,Pixel_284,Pixel_285,Pixel_286,Pixel_287,Pixel_288,Pixel_289,Pixel_290,Pixel_291,Pixel_292,Pixel_293,Pixel_294,Pixel_295,Pixel_296,Pixel_297,Pixel_298,Pixel_299,Pixel_300,Pixel_301,Pixel_302,Pixel_303,Pixel_304,Pixel_305,Pixel_306,Pixel_307,Pixel_308,Pixel_309,Pixel_310,Pixel_311,Pixel_312,Pixel_313,Pixel_314,Pixel_315,Pixel_316,Pixel_317,Pixel_318,Pixel_319,Pixel_320,Pixel_321,Pixel_322,Pixel_323,Pixel_324,Pixel_325,Pixel_326,Pixel_327,Pixel_328,Pixel_329,Pixel_330,Pixel_331,Pixel_332,Pixel_333,Pixel_334,Pixel_335,Pixel_336,Pixel_337,Pixel_338,Pixel_339,Pixel_340,Pixel_341,Pixel_342,Pixel_343,Pixel_344,Pixel_345,Pixel_346,Pixel_347,Pixel_348,Pixel_349,Pixel_350,Pixel_351,Pixel_352,Pixel_353,Pixel_354,Pixel_355,Pixel_356,Pixel_357,Pixel_358,Pixel_359,Pixel_360,Pixel_361,Pixel_362,Pixel_363,Pixel_364,Pixel_365,Pixel_366,Pixel_367,Pixel_368,Pixel_369,Pixel_370,Pixel_371,Pixel_372,Pixel_373,Pixel_374,Pixel_375,Pixel_376,Pixel_377,Pixel_378,Pixel_379,Pixel_380,Pixel_381,Pixel_382,Pixel_383,Pixel_384,Pixel_385,Pixel_386,Pixel_387,Pixel_388,Pixel_389,Pixel_390,Pixel_391,Pixel_392,Pixel_393,Pixel_394,Pixel_395,Pixel_396,Pixel_397,Pixel_398,Pixel_399,Pixel_400,Pixel_401,Pixel_402,Pixel_403,Pixel_404,Pixel_405,Pixel_406,Pixel_407,Pixel_408,Pixel_409,Pixel_410,Pixel_411,Pixel_412,Pixel_413,Pixel_414,Pixel_415,Pixel_416,Pixel_417,Pixel_418,Pixel_419,Pixel_420,Pixel_421,Pixel_422,Pixel_423,Pixel_424,Pixel_425,Pixel_426,Pixel_427,Pixel_428,Pixel_429,Pixel_430,Pixel_431,Pixel_432,Pixel_433,Pixel_434,Pixel_435,Pixel_436,Pixel_437,Pixel_438,Pixel_439,Pixel_440,Pixel_441,Pixel_442,Pixel_443,Pixel_444,Pixel_445,Pixel_446,Pixel_447,Pixel_448,Pixel_449,Pixel_450,Pixel_451,Pixel_452,Pixel_453,Pixel_454,Pixel_455,Pixel_456,Pixel_457,Pixel_458,Pixel_459,Pixel_460,Pixel_461,Pixel_462,Pixel_463,Pixel_464,Pixel_465,Pixel_466,Pixel_467,Pixel_468,Pixel_469,Pixel_470,Pixel_471,Pixel_472,Pixel_473,Pixel_474,Pixel_475,Pixel_476,Pixel_477,Pixel_478,Pixel_479,Pixel_480,Pixel_481,Pixel_482,Pixel_483,Pixel_484,Pixel_485,Pixel_486,Pixel_487,Pixel_488,Pixel_489,Pixel_490,Pixel_491,Pixel_492,Pixel_493,Pixel_494,Pixel_495,Pixel_496,Pixel_497,Pixel_498,Pixel_499,Pixel_500,Pixel_501,Pixel_502,Pixel_503,Pixel_504,Pixel_505,Pixel_506,Pixel_507,Pixel_508,Pixel_509,Pixel_510,Pixel_511,Pixel_512,Pixel_513,Pixel_514,Pixel_515,Pixel_516,Pixel_517,Pixel_518,Pixel_519,Pixel_520,Pixel_521,Pixel_522,Pixel_523,Pixel_524,Pixel_525,Pixel_526,Pixel_527,Pixel_528,Pixel_529,Pixel_530,Pixel_531,Pixel_532,Pixel_533,Pixel_534,Pixel_535,Pixel_536,Pixel_537,Pixel_538,Pixel_539,Pixel_540,Pixel_541,Pixel_542,Pixel_543,Pixel_544,Pixel_545,Pixel_546,Pixel_547,Pixel_548,Pixel_549,Pixel_550,Pixel_551,Pixel_552,Pixel_553,Pixel_554,Pixel_555,Pixel_556,Pixel_557,Pixel_558,Pixel_559,Pixel_560,Pixel_561,Pixel_562,Pixel_563,Pixel_564,Pixel_565,Pixel_566,Pixel_567,Pixel_568,Pixel_569,Pixel_570,Pixel_571,Pixel_572,Pixel_573,Pixel_574,Pixel_575,Pixel_576,Pixel_577,Pixel_578,Pixel_579,Pixel_580,Pixel_581,Pixel_582,Pixel_583,Pixel_584,Pixel_585,Pixel_586,Pixel_587,Pixel_588,Pixel_589,Pixel_590,Pixel_591,Pixel_592,Pixel_593,Pixel_594,Pixel_595,Pixel_596,Pixel_597,Pixel_598,Pixel_599,Pixel_600,Pixel_601,Pixel_602,Pixel_603,Pixel_604,Pixel_605,Pixel_606,Pixel_607,Pixel_608,Pixel_609,Pixel_610,Pixel_611,Pixel_612,Pixel_613,Pixel_614,Pixel_615,Pixel_616,Pixel_617,Pixel_618,Pixel_619,Pixel_620,Pixel_621,Pixel_622,Pixel_623,Pixel_624,Pixel_625,Pixel_626,Pixel_627,Pixel_628,Pixel_629,Pixel_630,Pixel_631,Pixel_632,Pixel_633,Pixel_634,Pixel_635,Pixel_636,Pixel_637,Pixel_638,Pixel_639,Pixel_640,Pixel_641,Pixel_642,Pixel_643,Pixel_644,Pixel_645,Pixel_646,Pixel_647,Pixel_648,Pixel_649,Pixel_650,Pixel_651,Pixel_652,Pixel_653,Pixel_654,Pixel_655,Pixel_656,Pixel_657,Pixel_658,Pixel_659,Pixel_660,Pixel_661,Pixel_662,Pixel_663,Pixel_664,Pixel_665,Pixel_666,Pixel_667,Pixel_668,Pixel_669,Pixel_670,Pixel_671,Pixel_672,Pixel_673,Pixel_674,Pixel_675,Pixel_676,Pixel_677,Pixel_678,Pixel_679,Pixel_680,Pixel_681,Pixel_682,Pixel_683,Pixel_684,Pixel_685,Pixel_686,Pixel_687,Pixel_688,Pixel_689,Pixel_690,Pixel_691,Pixel_692,Pixel_693,Pixel_694,Pixel_695,Pixel_696,Pixel_697,Pixel_698,Pixel_699,Pixel_700,Pixel_701,Pixel_702,Pixel_703,Pixel_704,Pixel_705,Pixel_706,Pixel_707,Pixel_708,Pixel_709,Pixel_710,Pixel_711,Pixel_712,Pixel_713,Pixel_714,Pixel_715,Pixel_716,Pixel_717,Pixel_718,Pixel_719,Pixel_720,Pixel_721,Pixel_722,Pixel_723,Pixel_724,Pixel_725,Pixel_726,Pixel_727,Pixel_728,Pixel_729,Pixel_730,Pixel_731,Pixel_732,Pixel_733,Pixel_734,Pixel_735,Pixel_736,Pixel_737,Pixel_738,Pixel_739,Pixel_740,Pixel_741,Pixel_742,Pixel_743,Pixel_744,Pixel_745,Pixel_746,Pixel_747,Pixel_748,Pixel_749,Pixel_750,Pixel_751,Pixel_752,Pixel_753,Pixel_754,Pixel_755,Pixel_756,Pixel_757,Pixel_758,Pixel_759,Pixel_760,Pixel_761,Pixel_762,Pixel_763,Pixel_764,Pixel_765,Pixel_766,Pixel_767,
22:6:17:17:19:19:544,0.0000,0.0000,0.0000,,0.0000,0.0000,32.0700,99363,164.6412,0,0.0000,0.0000,0.0000,0.0000,0.0000,0.0000,0,0.0000,0.0000,0.0000,0.0000,0.0000,0.0000,0,0,0,0,0,0,0,0.00,0.00,0.00,0,
22:6:17:17:19:19:637,0.0000,0.0000,0.0000,,0.0000,0.0000,32.0800,99361,164.8104,0,0.0000,0.0000,0.0000,0.0000,0.0000,0.0000,0,0.0000,0.0000,0.0000,0.0000,0.0000,0.0000,0,0,0,0,0,0,0,0.00,0.00,0.00,0,
22:6:17:17:19:19:745,0.0000,0.0000,0.0000,,0.0000,0.0000,32.1000,99365,164.4721,0,0.0000,0.0000,0.0000,0.0000,0.0000,0.0000,0,0.0000,0.0000,0.0000,0.0000,0.0000,0.0000,0,0,0,0,0,0,0,0.00,0.00,0.00,0,
22:6:17:17:19:19:837,0.0000,0.0000,0.0000,,0.0000,0.0000,32.1100,99363,164.6412,0,0.0000,0.0000,0.0000,0.0000,0.0000,0.0000,0,0.0000,0.0000,0.0000,0.0000,0.0000,0.0000,0,0,0,0,0,0,0,0.00,0.00,0.00,0,
22:6:17:17:19:19:929,0.0000,0.0000,0.0000,,0.0000,0.0000,32.1200,99362,164.7258,0,0.0000,0.0000,0.0000,0.0000,0.0000,0.0000,0,0.0000,0.0000,0.0000,0.0000,0.0000,0.0000,0,0,0,0,0,0,0,0.00,0.00,0.00,0,
22:6:17:17:19:20:37,0.0000,0.0000,0.0000,,0.0000,0.0000,32.1300,99364,164.5566,0,0.0000,0.0000,0.0000,0.0000,0.0000,0.0000,0,0.0000,0.0000,0.0000,0.0000,0.0000,0.0000,0,0,0,0,0,0,0,0.00,0.00,0.00,0,
22:6:17:17:19:20:129,0.0000,0.0000,0.0000,,0.0000,0.0000,32.1300,99361,164.8104,0,0.0000,0.0000,0.0000,0.0000,0.0000,0.0000,0,0.0000,0.0000,0.0000,0.0000,0.0000,0.0000,0,0,0,0,0,0,0,0.00,0.00,0.00,0,
22:6:17:17:19:20:237,0.0000,0.0000,0.0000,,0.0000,0.0000,32.1400,99359,164.9796,0,0.0000,0.0000,0.0000,0.0000,0.0000,0.0000,0,0.0000,0.0000,0.0000,0.0000,0.0000,0.0000,0,0,0,0,0,0,0,0.00,0.00,0.00,0,
22:6:17:17:19:20:329,0.0000,0.0000,0.0000,,0.0000,0.0000,32.1400,99363,164.6412,0,0.0000,0.0000,0.0000,0.0000,0.0000,0.0000,0,0.0000,0.0000,0.0000,0.0000,0.0000,0.0000,0,0,0,0,0,0,0,0.00,0.00,0.00,0,
22:6:17:17:19:20:421,0.0000,0.0000,0.0000,,0.0000,0.0000,32.1500,99361,164.8104,0,0.0000,0.0000,0.0000,0.0000,0.0000,0.0000,0,0.0000,0.0000,0.0000,0.0000,0.0000,0.0000,0,0,0,0,0,0,0,0.00,0.00,0.00,0,
22:6:17:17:19:20:530,0.3000,115.0000,41.3000,A,0.0000,0.0000,32.1500,99363,164.6412,0,0.0000,0.0000,0.0000,0.0000,0.0000,0.0000,0,0.0000,0.0000,0.0000,0.0000,0.0000,0.0000,0,0,0,0,0,0,0,0.00,0.00,0.00,0,594.4510,36.0924,601.5193,36.3552,603.8107,36.2621,606.7475,36.7043,608.3127,36.6853,608.8405,37.0272,607.9093,36.5638,611.3729,36.5923,608.8631,36.5612,608.7155,36.8620,607.5104,36.5234,606.3417,36.7570,603.8026,36.3515,602.0013,36.3919,595.9697,35.7211,592.6868,35.4221,35.8870,601.8364,36.5266,604.5734,36.5690,606.4421,36.9990,608.3234,36.9350,608.9323,36.8784,609.8897,36.7418,607.8574,36.8845,608.4401,36.8290,609.3085,36.8495,608.6160,36.6594,605.2305,37.1495,603.8008,36.3811,601.3663,36.9158,598.3555,35.8033,594.2759,36.1340,587.3143,596.5797,36.1626,603.7164,37.1095,604.1263,36.2407,610.0231,36.8495,609.6214,36.6613,611.8533,36.9126,609.4465,36.6318,609.6131,36.8633,610.6251,36.5625,610.2123,36.7671,608.6347,36.7961,606.4069,36.9566,605.9890,36.3365,601.9443,36.3979,598.8359,36.0713,595.6689,35.4697,35.9288,603.1899,36.9155,606.4644,36.3817,608.5417,37.1383,609.7118,36.6922,610.4586,37.1272,611.2086,36.8005,611.4276,36.8952,609.4453,36.9990,608.7775,37.2187,608.6778,37.2388,607.0318,37.2892,605.9759,36.6457,603.5223,36.6472,600.9470,35.8157,597.4597,36.5686,590.3986,600.1666,36.4159,604.7571,36.5575,606.7444,36.6436,609.3496,37.2238,610.7766,37.1521,611.2960,36.9905,611.1713,37.0076,611.8137,37.3356,610.4816,37.1399,611.5668,37.0744,610.0868,36.9525,607.9150,36.9921,606.1899,36.7579,603.4766,36.3319,600.3092,36.1949,597.4979,36.3738,35.9579,602.5213,36.5779,607.2909,36.9832,609.1535,37.0793,610.5776,37.1824,611.2983,37.1229,610.3242,37.0149,610.0300,37.2072,610.4704,37.1719,609.8845,37.2663,609.3654,37.1144,607.8597,36.9400,607.0878,37.0103,604.7634,36.6366,602.2755,36.2576,598.6242,36.6058,592.2908,600.5000,36.2299,606.2034,37.0181,606.7515,36.7689,610.5491,37.1967,610.0909,36.8262,611.8786,37.2405,610.7893,36.8488,612.3382,37.1042,612.1926,36.7680,611.8835,37.2908,610.2476,37.1410,608.3021,36.9247,607.0563,36.7987,604.7896,36.5591,602.8747,36.0430,597.1956,36.4372,36.1208,605.1163,36.9837,606.2676,36.6220,609.7160,37.5350,609.4459,36.8824,609.7800,37.5406,610.7102,36.9642,610.5436,37.2743,610.7282,37.0616,609.8254,37.4423,609.6176,37.2757,608.7025,37.2164,607.4481,37.1884,605.2020,37.4886,603.7012,36.4937,599.9014,36.6298,593.9437,600.8932,36.5466,606.5523,36.6892,607.0673,37.0323,609.0162,37.4088,609.9849,36.8421,612.3063,37.5183,611.1042,37.0619,612.5975,37.2723,611.9073,36.8058,610.5787,37.1812,608.9899,37.4404,608.6971,37.4011,606.9619,36.8799,605.5239,36.6801,600.9385,36.3252,600.2817,36.5006,36.1976,603.1689,36.6752,606.1313,37.2076,607.8374,37.2718,609.4302,37.3141,609.7941,37.1593,610.4461,37.2113,610.2250,36.9319,610.5630,37.2659,609.8623,37.4598,609.5073,37.0793,608.3997,37.2369,607.2948,37.2174,605.6990,37.3026,603.7504,36.4375,600.4915,36.1894,595.0801,600.4913,36.8887,606.6760,37.0124,607.9504,36.8753,608.8802,37.4094,610.8680,37.0232,611.5243,37.2267,611.7535,37.0856,610.2195,37.1487,610.6683,37.1209,610.2989,37.5008,609.0526,37.2541,608.6418,37.2133,606.8786,37.0068,604.8649,36.5646,602.6011,36.6027,599.7096,36.6465,36.5761,602.7444,36.9068,606.1562,36.8557,607.6817,37.0704,608.7894,37.3289,609.1523,37.4616,609.8645,37.3255,610.1264,37.3179,610.2370,37.0896,609.4202,37.6603,609.4128,37.3590,608.2786,37.4160,607.4260,36.8563,605.0138,36.8723,603.2076,36.7325,600.4483,36.7570,594.4789,597.1588,36.4937,603.3737,37.1459,606.3837,36.8126,607.7172,37.3629,609.1311,37.2081,609.2696,37.4901,609.8345,37.1769,609.9150,37.2557,610.7763,36.7567,609.4498,37.5004,609.3044,37.1895,607.8549,37.5738,606.3258,37.1394,604.5279,37.2588,602.5160,36.7211,597.3014,36.6122,36.4698,601.2229,37.0890,605.0804,37.1291,606.8530,37.4440,608.1586,37.2111,608.4520,37.4984,609.4344,37.6337,609.3292,37.6080,609.4228,37.2557,608.8681,37.3854,608.4091,37.3917,607.7134,37.0962,606.3192,37.1397,604.5004,36.9881,602.8869,36.9002,599.7455,36.9411,594.0894,597.5276,36.6835,601.7780,37.3289,604.2204,36.9673,606.4354,37.5374,606.4249,37.3951,608.0587,37.5135,608.4652,37.4927,608.9696,37.2552,610.0894,37.1865,608.2760,37.7946,608.4958,37.0203,606.9704,37.5731,605.0641,37.0669,603.2791,37.5979,600.7168,36.5748,598.6287,36.6685,36.5410,599.7414,36.9475,603.1814,36.6522,605.0824,37.1493,606.4741,36.9872,607.2673,37.8071,608.2434,37.2302,608.3713,37.6615,607.9781,37.0802,607.6331,37.5951,607.5094,37.2898,606.3460,37.5446,605.4252,37.4173,603.6393,37.2028,599.8985,36.7834,598.9631,37.1998,592.6660,594.8299,36.7515,597.5553,37.3064,602.9540,37.0805,604.3201,37.3073,606.6252,37.1683,608.1115,37.7691,608.0131,37.7083,608.5405,37.5443,607.4060,37.2132,606.8568,37.5523,605.6760,37.2920,605.2299,37.3262,602.8890,36.8061,600.9891,37.3632,597.0550,36.6747,595.6402,36.7090,36.4281,598.0683,37.2357,601.4103,37.2704,603.5067,37.4198,605.0809,37.0383,605.4501,37.5202,606.0501,37.1952,606.7279,37.5878,606.3812,37.3066,606.2595,37.3872,606.2540,37.2363,604.7554,37.4660,603.9195,37.2478,599.6618,37.1406,599.6773,36.9032,596.9471,36.7334,590.7540,589.1436,36.6975,596.3232,37.0203,599.1269,36.9551,601.9330,37.4544,603.6550,37.2481,604.6371,37.8826,605.3204,37.4949,605.3726,37.4824,606.3856,37.1007,604.9173,37.9193,604.9244,37.5325,603.2362,37.2068,600.7036,37.3839,599.4011,37.3588,596.8369,36.4707,593.1650,36.8845,35.8332,594.4523,37.2617,598.2831,36.7454,600.7014,37.4459,602.4008,36.8604,603.1649,37.9045,604.5337,37.3360,604.7233,37.5220,604.6360,37.5545,604.0516,37.5130,603.7664,37.1078,603.1171,37.2919,602.0303,37.1027,597.5435,37.0915,595.6708,37.0793,594.2871,36.8999,585.3009,583.4334,37.0454,592.0304,37.2510,595.5289,37.4449,598.6426,37.4726,600.4764,36.9377,601.9658,37.5762,602.4416,37.2345,602.6666,37.6283,602.0417,37.1069,602.6123,37.5560,600.2181,36.9125,600.3030,37.4143,600.3007,36.9177,596.4906,36.7950,593.0465,36.4349,589.7178,36.7415,36.0185,590.5142,37.0798,594.5812,36.7252,594.7385,37.4316,599.4048,37.0538,600.3529,37.5158,601.4468,37.1456,601.6375,37.2128,602.0521,37.3310,599.6968,37.7436,601.3066,37.3013,600.1194,37.3022,598.8757,37.4817,594.6027,36.9808,594.3514,37.0850,590.7318,36.5363,581.0243,582.3475,36.4875,587.5436,37.2752,592.5253,37.1735,594.4366,37.3786,597.3138,37.1614,597.7216,37.6791,600.0649,36.7980,599.3024,37.4629,601.6505,37.1309,599.4966,37.9031,598.3101,37.4313,597.2448,37.5322,596.1370,36.9177,591.1249,37.5905,588.2921,36.8202,585.9686,37.1459,35.7123,581.3274,36.5693,583.5287,36.2024,586.6045,37.2217,588.9017,36.5383,590.8592,37.4121,594.3618,37.1952,592.9847,37.4228,595.9378,37.2809,596.0386,37.5765,595.4391,37.0712,594.2255,37.4691,589.9982,36.7807,589.6931,37.1409,586.2063,36.8730,583.3873,37.0934,571.2130,
22:6:17:17:19:20:685,0.3000,115.0000,41.3000,A,0.0000,0.0000,32.1500,99362,164.7258,0,0.0000,0.0000,0.0000,0.0000,0.0000,0.0000,0,0.0000,0.0000,0.0000,0.0000,0.0000,0.0000,0,0,0,0,0,0,0,0.00,0.00,0.00,0,
22:6:17:17:19:20:790,0.3000,39.0000,39.8000,A,0.0000,0.0000,32.1500,99362,164.7258,0,0.0000,0.0000,0.0000,0.0000,0.0000,0.0000,0,0.0000,0.0000,0.0000,0.0000,0.0000,0.0000,0,0,0,0,0,0,0,0.00,0.00,0.00,0,
22:6:17:17:19:20:886,0.3000,39.0000,39.8000,A,0.0000,0.0000,32.1500,99366,164.3875,0,0.0000,0.0000,0.0000,0.0000,0.0000,0.0000,0,0.0000,0.0000,0.0000,0.0000,0.0000,0.0000,0,0,0,0,0,0,0,0.00,0.00,0.00,0,
22:6:17:17:19:20:991,0.3000,45.0000,39.0000,A,0.0000,0.0000,32.1600,99360,164.8950,0,0.0000,0.0000,0.0000,0.0000,0.0000,0.0000,0,0.0000,0.0000,0.0000,0.0000,0.0000,0.0000,0,0,0,0,0,0,0,0.00,0.00,0.00,0,
22:6:17:17:19:21:87,0.3000,45.0000,39.0000,A,0.0000,0.0000,32.1600,99362,164.7258,0,0.0000,0.0000,0.0000,0.0000,0.0000,0.0000,0,0.0000,0.0000,0.0000,0.0000,0.0000,0.0000,0,0,0,0,0,0,0,0.00,0.00,0.00,0,
22:6:17:17:19:21:192,0.4000,58.0000,38.1000,A,0.0000,0.0000,32.1600,99362,164.7258,0,0.0000,0.0000,0.0000,0.0000,0.0000,0.0000,0,0.0000,0.0000,0.0000,0.0000,0.0000,0.0000,0,0,0,0,0,0,0,0.00,0.00,0.00,0,
22:6:17:17:19:21:285,0.4000,58.0000,38.1000,A,0.0000,0.0000,32.1600,99364,164.5566,0,0.0000,0.0000,0.0000,0.0000,0.0000,0.0000,0,0.0000,0.0000,0.0000,0.0000,0.0000,0.0000,0,0,0,0,0,0,0,0.00,0.00,0.00,0,
22:6:17:17:19:21:394,0.4000,73.0000,37.2000,A,0.0000,0.0000,32.1700,99360,164.8950,0,0.0000,0.0000,0.0000,0.0000,0.0000,0.0000,0,0.0000,0.0000,0.0000,0.0000,0.0000,0.0000,0,0,0,0,0,0,0,0.00,0.00,0.00,0,
22:6:17:17:19:21:487,0.4000,73.0000,37.2000,A,0.0000,0.0000,32.1700,99364,164.5566,0,0.0000,0.0000,0.0000,0.0000,0.0000,0.0000,0,0.0000,0.0000,0.0000,0.0000,0.0000,0.0000,0,0,0,0,0,0,0,0.00,0.00,0.00,0,
22:6:17:17:19:21:596,0.5000,52.0000,36.7000,A,0.0000,0.0000,32.1700,99363,164.6412,0,0.0000,0.0000,0.0000,0.0000,0.0000,0.0000,0,0.0000,0.0000,0.0000,0.0000,0.0000,0.0000,0,0,0,0,0,0,0,0.00,0.00,0.00,0,37.6792,37.7206,37.6931,37.9071,37.8628,37.7112,37.6512,38.2807,37.7777,37.8370,37.8797,37.9854,37.5823,37.8516,37.9639,37.8769,37.9984,37.8404,37.8043,37.9910,38.0234,37.6585,37.6418,38.6737,37.9970,37.7756,37.3705,37.6830,37.4332,36.8530,36.8986,37.0978,37.5383,37.3632,37.8527,38.0095,38.3730,37.4190,38.3730,37.9625,38.2531,37.8919,38.3492,37.6251,38.1791,37.7566,38.3036,37.9045,38.0824,37.3384,38.1332,37.6121,38.1220,37.7075,38.1122,37.9782,38.1090,37.6373,37.9667,37.5544,37.3158,37.3887,37.3002,37.3676,38.0398,37.9182,37.6051,37.5632,37.6355,38.1680,37.7423,38.3392,38.1551,38.0957,37.8700,37.9876,38.0751,37.8540,38.1268,38.4064,38.2449,38.2688,37.9642,38.0029,38.1798,38.2023,38.0755,38.0604,37.8507,37.8615,37.8594,37.6173,37.3314,37.7067,37.2889,37.2684,37.7152,37.5730,37.9749,37.4522,37.9322,37.6896,38.4549,38.1742,38.1150,37.7902,38.1973,38.1556,38.1587,37.8837,38.1053,38.2579,38.0523,38.1304,38.1138,37.8836,38.2974,37.9310,37.8807,37.9314,38.2784,37.7100,38.2002,37.6261,37.6386,37.4098,37.8848,37.5228,37.5136,38.0814,38.1664,37.9519,38.1728,38.1336,38.3688,38.4994,38.1157,38.2138,37.6863,38.3694,37.8955,38.1965,38.2036,38.6731,38.0678,38.4697,38.0791,38.1120,38.3075,38.3149,38.1482,38.4001,37.8039,38.1946,37.8287,38.1861,37.6656,37.7932,37.5093,37.6684,37.6561,37.5688,38.0011,37.6353,38.4805,38.1722,38.6668,37.8422,38.0803,38.2626,38.4718,38.1143,38.3394,38.1149,38.5287,37.7999,38.5008,37.9230,38.6040,38.1842,38.7735,38.4080,38.1558,38.2974,38.4160,37.5976,37.9506,37.8411,37.9814,37.0865,37.6759,37.3128,37.7555,37.4582,38.1087,38.3778,38.2788,38.3546,38.0476,38.2656,38.2345,38.3217,38.0295,38.4066,38.2548,38.4501,38.3750,38.2751,38.1853,38.3888,38.3946,38.7635,38.2348,38.6187,38.4032,38.4635,38.5387,38.0375,37.8977,38.1933,37.4526,37.9395,37.3291,37.8922,37.7681,37.5878,38.3337,37.9266,38.0662,37.9320,38.6068,38.1967,38.3666,37.9420,38.5593,38.1983,38.2711,38.2460,38.2773,38.0376,38.3592,38.0253,38.4455,38.3652,38.5795,38.2522,38.4198,37.8516,38.3869,37.8271,38.5770,37.9187,38.1678,37.4576,37.8493,37.7508,37.6285,37.9419,38.3265,38.7142,38.0497,38.2677,37.9559,38.4530,38.3053,38.3423,38.2247,38.6766,38.1660,38.1943,37.8585,38.7015,37.9157,38.2409,38.1142,38.4771,38.2059,38.4317,38.2242,38.5786,38.5497,38.4022,37.8555,38.2977,37.5886,37.6536,37.5741,37.9082,37.8018,37.7480,38.3532,37.7608,38.4409,38.2568,38.6408,38.2162,38.3263,38.1349,38.3158,38.1674,38.3517,37.5855,38.0717,38.0222,38.5329,38.3391,38.6152,38.1146,38.5183,38.2677,38.4052,38.3297,38.5759,38.1520,38.2236,38.0231,38.0814,37.7394,37.9580,37.3914,37.9319,38.2693,37.9240,38.3122,38.5148,38.2797,38.3710,38.2973,38.2852,38.1813,38.3732,38.6823,37.9523,38.2228,38.2446,38.4408,38.1774,38.2558,38.1565,38.3487,38.3237,38.7105,38.3876,38.2409,37.9979,38.2037,37.8998,38.4578,37.6443,38.0721,37.8965,38.0386,38.1575,37.9342,38.4017,37.7398,37.9250,37.9536,38.4282,38.4239,38.4923,38.4599,38.4635,38.4530,38.7484,38.0399,38.7268,38.6643,38.3508,38.0382,38.4998,38.4089,38.6443,38.0505,38.4360,38.1883,38.3580,38.2947,38.4177,38.0470,38.3459,37.6459,37.7586,37.7560,38.0221,38.0592,38.4781,38.2681,38.1345,38.6701,38.3919,38.5534,38.5955,38.6704,38.4245,39.0852,38.5235,38.3003,38.3695,38.8262,38.3212,38.4465,38.5953,38.7866,38.3130,38.6242,38.3455,38.2927,38.3186,38.4820,38.2769,38.3387,38.4220,38.1657,37.8711,38.1766,38.0599,37.9308,38.2248,38.0829,38.7058,38.0192,38.8027,38.2227,38.3743,38.3708,38.5018,38.3129,38.3255,38.2973,38.7244,38.2119,38.3715,38.5401,38.8088,38.4244,38.8210,38.4011,38.4133,38.6741,38.4767,38.2712,38.5527,38.0890,38.5030,37.9322,38.2992,37.7444,37.8271,38.2239,38.3140,38.6197,38.1141,38.6549,38.6927,38.5728,38.3992,38.8519,38.5407,38.7790,38.2541,38.3267,38.5224,38.8209,38.0715,38.5917,38.4993,38.9284,38.3526,38.4461,38.2752,38.9017,38.6940,38.4324,38.4954,38.5103,37.9863,38.5368,38.0716,38.0606,38.1374,38.2684,38.4315,38.3060,38.7052,38.5408,38.5070,38.2900,38.3158,38.3867,38.8042,38.3728,38.6445,38.1987,38.7810,38.6710,38.6407,38.1764,38.7314,38.5551,38.7272,38.4049,38.5717,38.3860,38.7681,38.0825,38.4450,38.1595,38.3940,38.3113,38.7520,37.8113,38.1101,38.5138,38.2863,38.6225,38.3877,38.3140,38.3506,39.1264,38.0919,38.3427,38.5345,39.0805,38.7382,38.6934,38.4524,38.6903,38.5218,38.8040,38.5919,38.9892,38.7211,38.7463,38.3474,38.8248,38.2600,38.1882,38.4551,38.4567,38.1382,38.1598,38.0063,38.2947,38.2383,37.6695,38.3832,38.2810,38.3622,38.0273,38.4756,37.9842,38.6730,38.2125,38.8481,38.3136,38.7770,38.3018,38.7148,38.3401,38.8953,38.6450,38.8336,38.4874,38.5352,38.2778,38.8110,38.4659,38.4404,38.2020,38.5688,38.2439,38.3737,37.4498,38.8696,37.8789,37.9895,38.4809,38.4508,38.8778,38.3671,38.5664,38.3309,38.8373,38.2337,38.5870,38.7743,39.2120,38.7920,38.4859,38.7198,38.9407,38.8988,38.5457,38.5568,38.9446,38.4586,38.7009,38.5087,38.7471,38.2722,38.4536,38.3674,38.6546,37.9364,38.1880,38.3721,37.9379,37.7172,37.8148,38.4432,38.2011,38.1978,38.1035,38.6827,38.0451,38.3633,37.9600,38.7754,38.7318,38.8015,38.0794,39.1436,38.4682,38.8534,38.2441,38.6801,38.6072,38.5961,38.2239,38.8216,38.1617,38.1680,38.3281,38.7072,38.5206,38.9441,38.0084,38.1302,38.1959,37.7364,38.2882,38.4684,39.1856,38.3461,38.2249,38.5226,38.5629,38.4245,38.4774,38.6644,38.9421,38.4558,38.7131,38.2543,38.8114,38.7254,38.4393,38.6202,39.2202,38.5358,38.5862,38.6766,38.9668,38.2220,38.7056,38.2789,38.4837,37.9511,38.2058,38.2299,38.2500,37.7267,38.0543,38.2909,38.3311,38.5436,38.2077,38.7013,38.2662,38.6013,38.5281,38.7263,38.4764,38.3243,38.2909,38.8717,38.6540,38.6828,38.3647,38.7830,38.5634,38.5152,38.4691,38.5427,38.5351,38.5668,38.1043,38.6667,38.1525,38.0870,38.0434,38.8332,38.0526,37.9333,38.4215,38.2431,39.0881,38.3913,38.7151,38.7297,38.8595,38.2324,38.5928,38.5330,39.1014,38.3081,38.1779,38.2005,38.6726,38.7460,38.6636,38.6631,38.6465,38.7187,38.6723,38.4712,38.8241,38.5304,38.2383,38.3901,38.5959,38.2430,38.0672,38.0694,38.4874,37.7091,37.4475,38.2555,38.1926,38.3432,37.8767,38.2053,38.1849,38.4982,38.4775,38.5156,38.7256,38.9226,38.2433,38.6615,38.6276,38.8289,38.6050,38.9730,38.5722,38.3174,38.1355,38.7570,38.1060,38.2687,38.0293,38.7065,38.3523,38.1094,38.0161,38.8410,38.0164,
22:6:17:17:19:21:748,0.5000,52.0000,36.7000,A,0.0000,0.0000,32.1600,99365,164.4721,0,0.0000,0.0000,0.0000,0.0000,0.0000,0.0000,0,0.0000,0.0000,0.0000,0.0000,0.0000,0.0000,0,0,0,0,0,0,0,0.00,0.00,0.00,0,
22:6:17:17:19:21:853,0.5000,49.0000,36.3000,A,0.0000,0.0000,32.1600,99364,164.5566,0,0.0000,0.0000,0.0000,0.0000,0.0000,0.0000,0,0.0000,0.0000,0.0000,0.0000,0.0000,0.0000,0,0,0,0,0,0,0,0.00,0.00,0.00,0,
22:6:17:17:19:21:949,0.5000,49.0000,36.3000,A,0.0000,0.0000,32.1700,99364,164.5566,0,0.0000,0.0000,0.0000,0.0000,0.0000,0.0000,0,0.0000,0.0000,0.0000,0.0000,0.0000,0.0000,0,0,0,0,0,0,0,0.00,0.00,0.00,0,
22:6:17:17:19:22:54,0.5000,39.0000,35.9000,A,0.0000,0.0000,32.1600,99360,164.8950,0,0.0000,0.0000,0.0000,0.0000,0.0000,0.0000,0,0.0000,0.0000,0.0000,0.0000,0.0000,0.0000,0,0,0,0,0,0,0,0.00,0.00,0.00,0,
22:6:17:17:19:22:150,0.5000,39.0000,35.9000,A,0.0000,0.0000,32.1800,99361,164.8104,0,0.0000,0.0000,0.0000,0.0000,0.0000,0.0000,0,0.0000,0.0000,0.0000,0.0000,0.0000,0.0000,0,0,0,0,0,0,0,0.00,0.00,0.00,0,
22:6:17:17:19:22:255,0.5000,44.0000,35.6000,A,0.0000,0.0000,32.1800,99362,164.7258,0,0.0000,0.0000,0.0000,0.0000,0.0000,0.0000,0,0.0000,0.0000,0.0000,0.0000,0.0000,0.0000,0,0,0,0,0,0,0,0.00,0.00,0.00,0,
22:6:17:17:19:22:348,0.5000,44.0000,35.6000,A,0.0000,0.0000,32.1800,99361,164.8104,0,0.0000,0.0000,0.0000,0.0000,0.0000,0.0000,0,0.0000,0.0000,0.0000,0.0000,0.0000,0.0000,0,0,0,0,0,0,0,0.00,0.00,0.00,0,
22:6:17:17:19:22:457,0.6000,55.0000,35.4000,A,0.0000,0.0000,32.1800,99365,164.4721,0,0.0000,0.0000,0.0000,0.0000,0.0000,0.0000,0,0.0000,0.0000,0.0000,0.0000,0.0000,0.0000,0,0,0,0,0,0,0,0.00,0.00,0.00,0,
22:6:17:17:19:22:550,0.6000,55.0000,35.4000,A,0.0000,0.0000,32.1800,99366,164.3875,0,0.0000,0.0000,0.0000,0.0000,0.0000,0.0000,0,0.0000,0.0000,0.0000,0.0000,0.0000,0.0000,0,0,0,0,0,0,0,0.00,0.00,0.00,0,37.8483,37.7772,38.0776,38.1779,38.6174,38.3597,38.1957,38.3371,38.6603,38.6058,38.5740,38.2171,38.2612,38.4209,38.2956,38.1043,38.3307,38.0672,38.3162,38.2215,38.1881,38.0647,38.1679,38.1796,37.9769,38.4107,37.7388,37.5334,37.3915,37.7736,37.5289,37.3872,37.5951,37.7516,38.3328,38.3863,38.2381,38.1650,38.4292,38.4963,38.6615,38.2317,38.5780,38.1339,38.5712,38.2584,38.6901,38.4048,38.4698,38.4991,38.3601,38.2871,38.5211,38.0452,38.5200,37.9649,38.7120,38.3701,38.2202,37.7240,37.5798,37.7705,37.5812,37.7691,37.7687,37.9753,38.3829,38.6102,38.3607,38.4092,38.4453,38.2206,38.3190,38.9868,38.3636,38.3707,38.2393,38.3916,38.4516,38.6233,38.7283,38.6458,38.4506,38.2223,38.3441,38.4228,38.5782,38.2858,38.3634,37.9189,38.0260,38.0556,37.6954,37.9586,37.8861,37.9761,38.2039,38.1575,38.4297,38.3981,38.5382,38.2175,38.5112,38.3390,38.8327,38.1202,38.5780,38.4804,38.3725,38.2052,38.4781,38.4230,38.7426,38.6107,38.4888,38.3701,38.6737,38.2580,38.6034,38.4302,38.3357,37.8777,38.0727,38.1694,38.2759,37.7723,37.7306,37.2672,38.5073,38.3383,38.5248,38.1972,38.6968,38.7155,38.5325,38.5564,38.4408,38.5921,38.6387,38.4265,38.6745,38.4088,38.3667,38.5761,38.3859,38.5271,38.7071,38.4804,38.4712,38.3722,38.7934,38.6205,38.4648,38.7534,38.3509,38.0668,38.0176,38.4187,37.8818,37.5189,38.3235,38.3257,38.0572,38.3590,38.7138,38.5089,38.7231,38.5076,38.2975,38.2678,38.8388,38.4374,38.3972,38.5850,38.5856,38.5760,38.8629,38.5418,38.5071,38.6579,38.8311,38.5735,38.3715,38.4632,38.6366,38.2613,38.3570,38.0090,38.4014,37.8167,38.1352,37.6879,38.5164,38.0939,38.2736,38.9826,38.6136,38.5772,38.5404,38.3227,38.5522,38.6870,38.6530,38.3122,38.5684,38.6561,38.5377,38.3322,38.3484,38.5969,38.4072,38.6689,38.5477,38.8278,38.7254,38.6798,38.5462,38.4200,38.2311,38.0792,38.5043,38.3571,38.2740,38.1463,38.2179,38.3261,38.3902,38.0931,38.4600,38.5866,38.5010,38.8423,38.5765,38.5626,38.7680,38.6643,38.7754,38.7050,38.3343,38.5035,38.8598,38.3400,38.5025,38.9801,38.7858,38.5685,38.7903,38.3341,38.6005,38.1556,38.4678,38.5972,38.5758,37.9832,37.9056,38.1170,37.9883,38.3760,38.3125,38.7711,38.8622,38.6499,38.9200,38.8243,38.4690,38.3998,38.5377,38.7337,38.6245,38.3974,38.4668,38.7585,38.6588,38.2985,38.5788,38.6820,38.5177,38.4891,38.8461,38.6357,38.7142,38.6167,38.8521,38.0164,38.2765,37.7110,38.3101,37.9646,38.2397,38.1026,38.5856,38.6216,38.8212,38.5837,38.3809,38.6922,38.6842,38.2999,38.6710,38.6312,38.8480,38.4758,38.4215,38.4770,38.7341,38.5039,38.5228,38.5738,38.7227,38.7257,38.6131,38.7999,38.9459,38.4744,38.7754,38.3583,38.3106,38.2580,38.2015,37.5623,37.7213,38.5128,38.6198,38.5422,38.8405,38.8258,38.6925,38.3544,38.4486,38.8366,38.5362,38.5904,38.6995,38.7187,38.4083,38.4978,38.4844,38.4593,38.6136,38.9949,38.7807,38.7682,38.2453,38.7585,38.7813,38.4169,38.2269,38.5148,38.3199,38.6438,38.2498,38.2826,38.2148,37.9154,38.4580,38.4253,38.7865,38.9293,38.6412,38.9018,38.9999,38.6249,38.6689,38.6177,39.0954,38.6403,38.6403,38.6827,38.6937,38.6372,38.8473,38.8671,38.8480,38.5143,38.4928,38.3541,38.5701,38.4612,38.3142,38.3764,38.4033,37.9857,38.5511,37.9267,38.7566,38.3022,38.4686,38.8418,38.7934,39.0450,38.7137,38.7657,38.7592,38.8778,38.7379,38.9941,38.8309,38.9328,38.8206,38.5921,38.6276,38.5042,38.4670,38.9902,38.9152,38.8282,38.8118,38.5035,38.7922,38.5395,38.4422,38.2317,38.2545,38.3913,38.4052,38.0477,38.4935,38.4674,38.2811,38.7634,38.9267,38.5012,38.7025,38.8522,38.5820,38.5361,38.5586,38.4779,38.9591,39.0347,38.9238,38.9573,38.9976,38.4216,38.7203,39.0284,39.0241,38.7120,38.7710,38.9923,38.5342,38.5915,38.6095,38.4197,38.7270,38.2685,38.1737,38.4709,38.3737,38.8263,38.8284,38.6765,38.7666,38.5541,38.8571,38.9405,38.7159,38.9096,38.8525,39.1232,38.9930,39.2470,38.8295,38.7330,38.6673,38.9347,38.6633,38.6937,38.6637,38.6489,38.8991,38.8062,38.8589,38.9611,38.8242,38.7303,38.4887,38.4251,38.0539,38.4916,38.1944,38.2551,38.6615,38.8160,38.7624,38.7070,38.5635,38.9226,38.9796,38.5523,39.0083,38.9721,38.9890,38.5085,39.1238,38.8362,38.9856,38.7706,38.7881,39.0107,38.7847,39.0039,39.0872,38.7052,38.9807,38.7219,38.8273,38.3283,38.4513,38.4798,38.6250,38.3567,38.8517,38.5709,38.8078,38.6796,38.8837,38.8568,38.9928,39.1835,38.5613,38.7045,38.6984,39.1377,39.0467,38.8962,38.7615,39.0426,38.9798,39.1558,38.7562,39.0463,38.8858,38.9525,39.1290,38.5727,38.7367,38.7237,38.6213,38.6799,38.3061,38.7379,38.1745,37.9741,38.4870,38.3989,38.7923,38.4487,38.9150,38.3561,38.6908,38.6160,38.7304,38.6837,39.0566,39.2322,38.3960,38.6140,38.9156,39.0935,39.0996,38.9578,39.0379,38.8002,38.7406,39.0387,38.8678,38.7869,38.6526,38.3708,38.6255,38.7443,38.7739,38.1434,38.5537,37.8618,38.3588,38.7272,38.8007,38.5812,38.8693,38.7919,38.8218,38.7342,38.5543,39.1048,39.0915,39.2691,38.8076,38.8358,38.8845,38.9978,38.9147,39.0454,39.0233,39.0017,38.9290,38.9095,38.6742,38.9634,38.4388,38.8337,38.7023,38.7113,38.8116,38.7864,38.5407,38.5845,37.9746,38.5542,38.6822,38.9007,38.5924,38.6084,38.5771,38.5350,38.8827,38.5853,39.1371,39.0511,39.1582,38.3936,38.8983,38.9341,39.3533,38.8521,38.8873,39.0806,39.1105,38.5421,38.8783,38.4885,38.7054,38.8196,38.5952,39.0358,38.6470,38.3595,38.5710,38.3696,38.3112,38.9310,38.6373,38.8719,38.5141,38.6289,38.8563,38.6198,38.4317,38.8530,38.6728,38.8413,38.7726,39.0737,38.7298,38.8684,39.0454,38.9540,38.7858,39.1216,38.7023,38.9556,39.0045,39.3449,38.5523,38.9314,38.6225,38.7176,38.3027,38.4500,38.6007,38.5125,37.9875,38.4230,38.5352,39.0605,38.6004,38.3781,38.7572,38.9344,38.8180,38.5368,38.9403,38.8020,38.6857,38.3063,38.7732,38.9749,39.6671,38.6862,38.6842,39.1964,38.8881,38.7939,38.7616,38.8671,38.9515,38.6139,38.7229,38.6803,38.3278,38.4022,38.2833,38.4347,38.1055,38.4786,38.4135,39.3373,38.7446,38.7724,38.8976,39.2631,38.5679,38.8166,38.8666,39.3236,38.6353,38.7125,38.5295,38.8874,38.9117,39.1950,38.9903,39.0262,38.3982,39.0552,38.8087,38.3652,38.6980,38.6467,38.5593,39.0233,38.6043,38.7109,38.6597,38.5438,38.1923,38.2517,38.5120,38.9524,38.2138,38.4172,38.4401,38.8801,38.8909,38.6491,38.9062,39.2275,38.9794,38.8937,38.7177,38.7970,39.3641,38.9322,39.1902,39.0652,39.0242,38.4694,38.6429,38.6226,38.6727,38.3780,38.7622,38.5251,38.9357,37.9930,39.1063,38.6278,
22:6:17:17:19:22:716,0.7000,38.0000,35.3000,A,0.0000,0.0000,32.1800,99360,164.8950,0,0.0000,0.0000,0.0000,0.0000,0.0000,0.0000,0,0.0000,0.0000,0.0000,0.0000,0.0000,0.0000,0,0,0,0,0,0,0,0.00,0.00,0.00,0,
22:6:17:17:19:22:809,0.7000,38.0000,35.3000,A,0.0000,0.0000,32.1800,99364,164.5566,0,0.0000,0.0000,0.0000,0.0000,0.0000,0.0000,0,0.0000,0.0000,0.0000,0.0000,0.0000,0.0000,0,0,0,0,0,0,0,0.00,0.00,0.00,0,
22:6:17:17:19:22:901,0.7000,38.0000,35.3000,A,0.0000,0.0000,32.1900,99366,164.3875,0,0.0000,0.0000,0.0000,0.0000,0.0000,0.0000,0,0.0000,0.0000,0.0000,0.0000,0.0000,0.0000,0,0,0,0,0,0,0,0.00,0.00,0.00,0,
22:6:17:17:19:23:10,0.6000,48.0000,35.2000,A,0.0000,0.0000,32.1900,99363,164.6412,0,0.0000,0.0000,0.0000,0.0000,0.0000,0.0000,0,0.0000,0.0000,0.0000,0.0000,0.0000,0.0000,0,0,0,0,0,0,0,0.00,0.00,0.00,0,
22:6:17:17:19:23:103,0.6000,48.0000,35.2000,A,0.0000,0.0000,32.1900,99364,164.5566,0,0.0000,0.0000,0.0000,0.0000,0.0000,0.0000,0,0.0000,0.0000,0.0000,0.0000,0.0000,0.0000,0,0,0,0,0,0,0,0.00,0.00,0.00,0,
22:6:17:17:19:23:212,0.6000,43.0000,35.2000,A,0.0000,0.0000,32.1900,99365,164.4721,0,0.0000,0.0000,0.0000,0.0000,0.0000,0.0000,0,0.0000,0.0000,0.0000,0.0000,0.0000,0.0000,0,0,0,0,0,0,0,0.00,0.00,0.00,0,
22:6:17:17:19:23:305,0.6000,43.0000,35.2000,A,0.0000,0.0000,32.2000,99364,164.5566,0,0.0000,0.0000,0.0000,0.0000,0.0000,0.0000,0,0.0000,0.0000,0.0000,0.0000,0.0000,0.0000,0,0,0,0,0,0,0,0.00,0.00,0.00,0,
22:6:17:17:19:23:397,0.6000,43.0000,35.2000,A,0.0000,0.0000,32.2000,99363,164.6412,0,0.0000,0.0000,0.0000,0.0000,0.0000,0.0000,0,0.0000,0.0000,0.0000,0.0000,0.0000,0.0000,0,0,0,0,0,0,0,0.00,0.00,0.00,0,
22:6:17:17:19:23:506,0.6000,55.0000,35.2000,A,0.0000,0.0000,32.2000,99363,164.6412,0,0.0000,0.0000,0.0000,0.0000,0.0000,0.0000,0,0.0000,0.0000,0.0000,0.0000,0.0000,0.0000,0,0,0,0,0,0,0,0.00,0.00,0.00,0,
22:6:17:17:19:23:599,0.6000,55.0000,35.2000,A,0.0000,0.0000,32.2100,99363,164.6412,0,0.0000,0.0000,0.0000,0.0000,0.0000,0.0000,0,0.0000,0.0000,0.0000,0.0000,0.0000,0.0000,0,0,0,0,0,0,0,0.00,0.00,0.00,0,38.8258,38.5971,38.5503,38.3180,38.6562,38.6970,38.6128,39.0385,38.8786,38.9237,38.6135,39.0548,38.6423,38.5625,38.5031,38.7551,38.7058,38.5469,38.7021,38.7090,38.5770,38.7278,38.9254,38.8709,38.5730,38.7445,37.9784,37.8806,37.8502,38.1309,37.7960,38.2275,38.1967,38.4470,39.1060,38.6337,38.7633,38.0101,38.9391,38.9019,38.4522,38.2701,38.7181,38.5148,38.7128,38.4646,38.6654,38.4436,38.9403,38.3723,38.8405,38.6637,38.8337,38.5938,39.0104,38.5443,39.0354,38.4078,38.5581,38.1632,38.3412,38.0174,38.3950,38.0320,38.4651,38.3295,38.4217,38.5528,38.7711,39.1004,38.4845,38.8868,38.5263,38.9619,38.7325,38.8366,38.7553,39.0106,38.6522,38.7640,39.0873,39.1062,38.6512,38.3633,38.8696,38.5645,38.9544,39.0989,38.5762,38.5993,38.4372,38.5779,38.1250,38.4897,37.9243,38.3349,38.3461,38.4029,38.7687,38.8238,38.8622,38.6172,39.0025,38.7216,38.9741,38.6526,38.7182,38.6795,38.6703,38.8697,38.7766,39.2437,38.8846,38.6497,38.7878,38.7289,38.6567,38.7776,38.9101,38.6345,38.9884,38.6213,38.7647,38.5807,38.2250,37.8093,38.5018,37.9443,38.9571,38.8784,38.5637,38.7141,38.9157,38.8569,38.7409,38.8663,38.6422,39.0532,39.1492,38.8862,38.8681,38.8590,38.5606,39.1781,39.1943,38.9733,38.9015,39.0866,39.1354,38.6709,38.8333,38.9245,38.9981,38.8949,38.7452,38.2089,38.4251,38.3725,38.3281,38.0727,38.6681,38.5593,38.3906,38.5825,39.0315,39.0613,39.0285,38.8789,38.9167,38.7827,38.9788,38.7924,39.2947,38.7764,38.7266,38.6152,39.3080,38.8824,39.1086,38.6970,38.9731,38.9227,38.8297,38.8255,38.9414,38.9580,38.8465,38.2203,38.3631,38.4116,38.4774,37.9269,38.7525,38.6194,39.0473,39.1232,38.9927,39.0478,38.9083,39.1103,38.8997,38.9818,38.8460,38.9065,38.9082,38.9457,38.7277,38.9281,38.8352,38.7383,38.7477,38.9611,38.8857,38.9692,38.9232,38.9802,38.8999,38.5617,38.6052,38.7333,38.5435,38.4999,38.6991,38.6828,38.7519,38.5537,38.7121,38.8537,38.9370,38.9506,39.2903,39.0411,38.8701,38.9042,39.2118,39.1540,38.9174,38.7443,39.0688,38.6930,38.8544,38.8265,38.7922,38.8694,39.0762,38.9088,39.0876,39.0028,39.0541,38.9985,38.7745,38.6354,38.7184,38.3761,38.4285,38.1535,38.7944,39.0802,38.7085,39.0870,39.2245,38.9531,39.1193,39.2782,38.8113,39.1580,39.1763,39.0242,38.8120,38.8292,38.6549,38.6069,38.8436,39.0247,38.7691,38.8227,39.1465,39.0695,38.8860,39.0823,39.2247,38.7590,38.5599,38.6652,38.4889,37.8541,38.3489,38.4865,38.3818,38.8852,38.5495,38.8331,38.9634,38.9445,38.8384,38.7313,39.1254,39.1031,39.1093,38.9688,38.9900,38.8036,38.7085,38.6609,39.0193,39.1217,39.2596,39.0526,39.1575,38.9107,39.0557,38.9906,39.3995,38.6686,39.0807,38.8987,38.4533,38.4702,38.5296,38.1632,39.0772,38.6543,38.4823,39.0286,38.8803,39.1293,39.0469,39.1248,39.0925,39.1267,38.8746,39.1788,38.8854,38.7141,38.7378,39.2267,38.9536,39.1820,38.9464,39.1362,39.4048,39.5048,38.7444,39.2052,39.2830,39.0249,38.7494,38.8186,38.6972,38.6153,38.6601,38.7986,38.9184,38.5118,39.2990,38.4638,38.9288,38.8066,38.7822,39.0969,38.9921,39.1077,38.8098,38.9535,39.2373,38.9688,38.9245,38.8680,39.1199,38.6763,38.9881,38.9063,39.4267,38.9991,38.7857,38.3928,39.0207,38.8090,39.0941,38.7376,38.7138,38.8748,38.5097,38.5217,38.6071,38.4439,38.8577,38.9825,39.1612,39.3445,39.2248,39.2160,39.3977,39.1687,39.3743,39.2826,39.1583,39.2172,39.2905,39.1689,38.9534,39.0723,39.3806,39.2776,39.2467,39.2621,39.0024,39.2576,38.9864,39.1432,38.8067,39.0276,38.9592,38.7019,38.6268,38.7448,38.8241,38.6890,38.9449,39.1431,39.0690,39.3257,39.1564,39.1996,39.1730,38.7247,39.1449,39.1101,39.2446,38.9310,39.3493,39.1410,38.9977,38.7441,39.1512,39.0674,39.1661,38.8960,39.0620,39.0309,39.1352,39.2423,39.2365,38.7835,39.3676,38.9744,38.4980,38.6922,38.7896,38.9685,38.8675,39.1600,39.1294,39.0115,38.8968,39.0811,38.9077,39.0515,39.1872,39.4069,39.3192,39.2448,39.1557,39.3075,39.1378,39.0759,38.9963,39.5630,38.9973,38.9360,38.7859,39.2523,39.0540,39.1032,39.0266,38.8720,39.0294,39.0738,38.4620,38.4466,38.7154,39.0172,38.6288,39.1960,39.2275,38.9031,39.1723,39.2713,39.1218,39.0385,39.1490,39.1555,39.1311,38.9792,39.2644,39.0196,38.9849,39.2362,39.2204,39.1944,39.2195,39.1867,39.0761,38.8963,39.2782,38.7600,39.1314,38.8552,39.0956,38.5172,39.1335,38.7660,38.8905,38.8991,38.8468,39.3466,39.4165,39.1594,39.0322,39.1695,39.2076,38.8465,39.0418,39.4287,38.9419,39.3276,39.2359,39.3311,39.3128,39.1506,39.2409,39.3342,39.0730,39.2429,39.0147,39.1774,39.2410,38.7070,38.6602,39.1534,38.8575,38.5338,38.7739,38.3051,38.6302,38.6224,38.9333,38.8381,39.3865,38.5557,39.3066,38.8090,39.1758,39.1779,39.5007,39.1207,39.4144,39.2362,39.2005,39.2785,39.3881,39.1432,39.3260,38.9856,39.3248,39.0772,39.0095,38.9792,38.9495,39.0413,38.9332,38.6160,39.2584,38.7018,38.8820,38.4633,38.9915,39.2466,39.0210,39.2524,38.9080,39.2692,39.0230,39.0358,39.0570,39.3996,39.1310,39.7148,39.4420,39.2692,39.2263,39.2883,39.3987,39.3342,39.0628,39.2961,39.1208,39.3529,39.1878,39.2645,39.2758,39.2977,39.0767,39.3679,38.6736,38.7490,38.7710,38.9227,38.7176,38.7800,39.5531,39.1145,39.2395,39.1495,39.0429,38.8944,39.0252,39.2311,39.4300,39.3949,39.3004,39.0199,39.1899,39.1219,39.3481,39.3299,39.4791,39.4248,39.2535,38.8816,39.1777,38.8440,38.8479,39.0183,39.4090,39.0734,38.7900,38.7570,39.4780,38.9973,38.9496,39.0735,39.2354,39.3836,39.2339,39.1165,39.0615,39.4230,38.9478,39.1537,39.0264,39.2979,39.1131,38.9127,39.2317,39.1634,38.9308,38.9440,39.2931,39.2629,39.5262,39.0978,39.0435,39.4862,39.2439,38.9053,39.0119,38.8594,38.8868,38.5930,39.0393,39.0667,38.3354,38.4591,38.8649,39.0974,39.0859,39.2831,39.3994,38.9719,39.2791,39.0513,39.3964,39.3127,39.1315,38.6485,39.2231,38.8591,39.3468,39.1818,39.4462,39.2343,39.0315,39.1444,39.3890,39.0679,39.2581,38.8205,38.8651,38.7170,38.8377,38.2510,39.0313,38.6765,38.5634,39.2419,39.0481,39.4787,38.7825,38.9149,38.9358,39.5774,39.1089,39.2910,39.0714,39.6299,39.3142,39.1715,38.7300,39.5010,39.5880,39.0215,39.1896,39.1677,39.0868,39.3597,39.1869,39.1937,39.0794,38.7894,38.9632,39.5346,39.2131,38.8539,38.6961,39.1150,38.9743,38.7038,38.6549,39.1829,38.7290,39.1838,39.1178,38.9167,38.8663,39.1860,39.3816,39.0983,38.9607,39.0903,39.1832,39.1507,39.5067,38.9691,39.4929,38.9405,39.1680,38.8324,39.1251,39.3448,38.9890,38.7665,39.4572,38.9347,38.8874,38.6185,39.2487,38.8777,
22:6:17:17:19:23:764,0.6000,58.0000,35.1000,A,0.0000,0.0000,32.1900,99361,164.8104,0,0.0000,0.0000,0.0000,0.0000,0.0000,0.0000,0,0.0000,0.0000,0.0000,0.0000,0.0000,0.0000,0,0,0,0,0,0,0,0.00,0.00,0.00,0,
22:6:17:17:19:23:860,0.6000,58.0000,35.1000,A,0.0000,0.0000,32.2000,99364,164.5566,0,0.0000,0.0000,0.0000,0.0000,0.0000,0.0000,0,0.0000,0.0000,0.0000,0.0000,0.0000,0.0000,0,0,0,0,0,0,0,0.00,0.00,0.00,0,
22:6:17:17:19:23:965,0.6000,65.0000,35.1000,A,0.0000,0.0000,32.2000,99363,164.6412,0,0.0000,0.0000,0.0000,0.0000,0.0000,0.0000,0,0.0000,0.0000,0.0000,0.0000,0.0000,0.0000,0,0,0,0,0,0,0,0.00,0.00,0.00,0,
22:6:17:17:19:24:61,0.6000,65.0000,35.1000,A,0.0000,0.0000,32.2100,99358,165.0641,0,0.0000,0.0000,0.0000,0.0000,0.0000,0.0000,0,0.0000,0.0000,0.0000,0.0000,0.0000,0.0000,0,0,0,0,0,0,0,0.00,0.00,0.00,0,
22:6:17:17:19:24:166,0.6000,69.0000,35.1000,A,0.0000,0.0000,32.2100,99364,164.5566,0,0.0000,0.0000,0.0000,0.0000,0.0000,0.0000,0,0.0000,0.0000,0.0000,0.0000,0.0000,0.0000,0,0,0,0,0,0,0,0.00,0.00,0.00,0,
22:6:17:17:19:24:259,0.6000,69.0000,35.1000,A,0.0000,0.0000,32.2100,99354,165.4025,0,0.0000,0.0000,0.0000,0.0000,0.0000,0.0000,0,0.0000,0.0000,0.0000,0.0000,0.0000,0.0000,0,0,0,0,0,0,0,0.00,0.00,0.00,0,
22:6:17:17:19:24:368,0.7000,72.0000,35.1000,A,0.0000,0.0000,32.2100,99360,164.8950,0,0.0000,0.0000,0.0000,0.0000,0.0000,0.0000,0,0.0000,0.0000,0.0000,0.0000,0.0000,0.0000,0,0,0,0,0,0,0,0.00,0.00,0.00,0,
22:6:17:17:19:24:461,0.7000,72.0000,35.1000,A,0.0000,0.0000,32.2200,99364,164.5566,0,0.0000,0.0000,0.0000,0.0000,0.0000,0.0000,0,0.0000,0.0000,0.0000,0.0000,0.0000,0.0000,0,0,0,0,0,0,0,0.00,0.00,0.00,0,
22:6:17:17:19:24:570,0.7000,66.0000,35.1000,A,0.0000,0.0000,32.2200,99363,164.6412,0,0.0000,0.0000,0.0000,0.0000,0.0000,0.0000,0,0.0000,0.0000,0.0000,0.0000,0.0000,0.0000,0,0,0,0,0,0,0,0.00,0.00,0.00,0,
22:6:17:17:19:24:663,0.7000,66.0000,35.1000,A,0.0000,0.0000,32.2300,99360,164.8950,0,0.0000,0.0000,0.0000,0.0000,0.0000,0.0000,0,0.0000,0.0000,0.0000,0.0000,0.0000,0.0000,0,0,0,0,0,0,0,0.00,0.00,0.00,0,38.2642,38.6362,38.6914,38.7845,38.9927,38.7368,38.7538,39.2644,39.1978,38.6090,39.1062,39.2679,38.9540,38.7728,38.8113,39.3021,38.8473,38.7556,38.8430,38.7484,38.7186,38.4204,38.8871,38.9099,38.5295,38.5919,38.3206,38.5336,38.8287,38.1693,37.9386,38.0327,38.4645,38.5881,38.5113,38.5651,38.6117,38.7286,38.9782,38.8593,38.8434,38.7593,39.1015,38.8265,39.0868,38.6064,38.8697,38.7522,38.6520,39.0080,38.7107,38.8046,39.0444,38.7357,38.8747,38.8660,38.8947,38.3622,38.5971,38.7059,38.1747,38.3698,38.2096,38.4018,38.6071,39.0029,38.5629,38.9861,39.4668,38.9572,39.1612,39.1011,39.5018,39.0022,39.0370,39.2007,38.7384,38.5727,38.7937,39.1229,39.0693,38.9877,38.7921,38.8888,39.0110,38.9301,38.5908,39.1383,38.8908,38.6392,38.5791,38.8064,38.6567,38.1396,38.2802,38.3725,38.6006,39.1652,38.8074,38.9646,38.9022,38.7581,39.0419,39.0340,38.8500,39.1213,38.9196,39.1399,38.8668,39.0104,38.9739,39.2291,38.9256,39.1052,38.8275,38.7108,39.3326,38.9193,38.9499,38.9417,38.8587,38.9387,38.8040,38.7227,38.6503,38.5272,38.3308,38.5124,38.4821,38.5208,38.8975,38.5658,39.2359,39.0713,39.0504,38.9062,38.9447,38.9340,38.9765,39.0853,39.4678,39.0537,39.0089,39.0646,39.1829,39.1659,39.0423,39.1265,38.9651,38.8680,38.9747,38.9641,39.1400,39.1014,38.8868,39.1253,38.7509,38.6009,38.4702,38.9281,38.3021,38.7012,38.6222,38.9083,39.2471,39.3726,39.2330,39.1854,38.7984,39.0816,39.1734,39.2487,39.0342,38.9179,39.0689,38.7569,39.1976,39.1741,39.3018,39.1461,39.1686,39.3736,39.1857,38.8055,38.8195,38.6065,38.7119,38.7084,38.7650,38.3683,38.5162,38.2720,38.8943,39.0418,39.3709,39.3449,39.1341,38.5940,38.8852,39.3115,38.8875,39.0224,39.1396,39.0973,38.8999,38.8381,39.1676,39.1195,39.1249,38.7788,38.8885,39.3033,39.1756,39.1611,38.9068,39.0201,39.0419,38.7639,39.0805,38.6022,38.6853,38.3595,38.4557,38.7210,38.7917,38.6947,39.1121,38.9953,38.8098,39.0913,39.1684,38.8630,39.0627,39.1965,39.1005,39.1454,39.1067,39.1792,39.2569,39.1344,38.8954,38.8192,39.1291,39.0109,38.9687,39.2006,39.2838,38.9872,38.9398,38.9797,38.9794,38.7772,38.5835,38.6954,38.4674,38.4909,38.9361,38.5577,38.8495,39.3018,39.3657,38.9937,39.2605,39.6307,39.1034,39.1986,39.0182,39.2141,38.9533,39.0147,39.0911,39.0852,39.1291,38.7733,39.2100,39.1579,39.2882,38.9638,39.0274,39.2745,39.2100,39.2687,38.7016,39.0413,38.9765,38.4237,38.3017,38.7141,38.4214,39.2121,39.1164,38.8019,39.1649,39.5670,39.5084,39.0279,39.1659,38.7869,39.0008,39.2589,39.0309,38.8010,38.8944,38.6579,39.3461,39.1187,39.0022,39.1940,39.1984,39.0522,39.3964,38.9803,39.2851,38.9658,39.1203,38.8733,38.8359,38.7866,38.9411,38.4930,39.2194,38.8802,38.8000,38.8963,39.5050,39.1699,39.0312,39.1649,38.9324,39.1674,39.1643,39.3678,39.3169,39.0463,39.0236,39.4135,39.0953,38.7876,39.0877,39.3231,39.2551,39.2485,39.1908,38.9390,39.2712,39.2199,38.7302,39.3430,38.8389,38.8261,38.9871,38.6502,38.7717,38.8392,38.9888,38.9501,39.1293,39.4317,38.9780,39.3941,39.3322,39.1014,39.1460,39.3905,39.4226,38.8211,39.3934,39.0094,39.1609,38.9620,39.1731,39.3401,39.3222,39.1405,39.2802,39.1457,38.9079,39.1051,38.9743,39.0406,38.9216,38.6770,38.7324,38.4783,38.9382,38.4839,38.6496,39.1939,39.1387,39.5432,39.3660,39.2561,39.5388,39.2094,39.0686,39.3228,39.2995,39.1147,39.2886,39.2091,39.3795,38.9712,39.2314,39.4638,39.3878,39.3027,38.9930,39.2976,39.2821,39.1835,38.9482,39.0671,38.9348,38.9092,38.7694,38.7832,38.8637,39.3802,39.3310,39.1142,38.9459,39.1535,39.1960,39.3409,39.2136,39.3138,39.1847,39.1036,39.1419,39.3577,39.1046,39.4267,39.0386,39.3094,39.0463,39.5002,39.3521,39.0375,39.2517,39.0201,39.1758,38.9249,39.5986,38.9253,39.0760,38.9496,38.7188,38.6498,38.9314,39.5507,39.1828,39.3708,39.4321,39.2096,39.1940,39.2761,39.2012,39.2413,39.4755,39.4470,39.3174,39.1419,39.0109,39.3476,39.1358,39.2588,39.2838,39.4580,39.1387,39.2658,39.0802,39.1400,39.1960,38.9866,39.1681,39.2367,39.0040,38.9451,38.7882,39.2313,39.1314,38.9783,39.1881,39.6782,38.9451,39.0447,39.2117,39.5673,39.0111,39.3286,39.1887,39.4409,39.4578,39.1207,39.4470,39.4493,39.1692,39.3776,39.6960,39.3357,39.4062,39.4718,39.4209,39.0379,39.3190,39.0587,39.3330,39.1603,38.9686,38.4909,38.9894,38.7220,39.0330,38.7524,39.5178,39.3864,39.2291,39.5215,39.3321,39.3647,39.3488,39.0388,39.1825,39.4690,39.5166,39.2231,39.3765,39.2240,39.3083,39.3382,39.3821,39.5207,39.5086,39.2834,39.1561,39.2172,39.2284,38.7471,39.4650,39.0269,39.1702,38.9201,39.1021,38.9068,38.6694,38.7644,39.6744,39.3301,39.2621,39.1801,39.1877,39.1051,39.2162,39.1677,39.5402,39.4122,39.3098,39.0864,39.2401,39.2736,39.1355,39.2847,39.5129,39.4199,38.9243,39.5146,38.8948,39.4282,39.1441,39.1839,38.9725,38.9238,38.9564,38.6704,39.1067,38.4177,39.1343,39.0982,39.3443,39.6436,39.0497,39.1421,39.1646,39.5546,39.1985,39.4402,39.5763,39.6027,39.4348,39.7454,39.3676,39.4773,39.3920,39.3747,39.0536,39.7939,39.4143,39.2427,39.3292,39.4630,39.0997,39.1770,39.0507,39.2356,38.9918,38.9685,38.9130,38.9606,38.3572,39.1107,39.0443,39.2563,39.1113,39.1237,39.2436,38.8756,38.9115,39.3726,39.3169,39.5362,39.1912,39.4542,39.6805,39.5614,39.3884,39.3251,39.6684,39.8711,39.5972,39.0233,39.2171,38.9858,39.0475,39.3215,39.1127,39.2163,38.8295,39.4379,39.3258,38.9440,39.0927,39.1131,39.1908,39.4229,39.3755,39.3289,39.2031,39.9563,39.0894,38.8765,39.4814,39.4949,39.4049,39.2560,39.2191,39.5097,39.6883,39.2883,39.2787,39.6131,39.6681,39.1379,39.1850,39.5256,39.5478,38.9451,39.1536,39.2519,38.8470,39.0055,38.7804,39.1047,38.7800,38.9949,39.6533,39.2393,38.9541,39.2530,39.2710,39.4455,39.0004,39.3515,39.4355,39.2969,38.8682,39.3964,39.2621,39.3079,39.6954,39.4763,39.3308,39.2210,39.2290,39.1298,39.5896,39.6982,39.1351,38.7945,39.0803,39.2154,38.6938,38.5807,39.2704,38.8205,38.9158,38.8679,38.9914,39.5176,39.2924,39.1365,39.2547,39.6167,39.4174,39.3311,39.7099,39.6694,38.8160,38.8949,38.8718,39.6975,39.4112,39.2195,39.8110,39.6895,39.2291,39.2374,39.3284,39.5745,39.3920,39.1788,39.2876,39.5732,39.1649,38.5021,39.0464,39.3659,38.5870,39.0544,39.2929,39.3264,38.9526,38.9627,39.3333,39.4069,39.4078,39.3291,39.4199,39.4061,39.0000,39.2333,39.2217,39.1343,39.3871,39.2686,39.5315,39.5664,39.3694,38.9745,39.1634,38.9744,39.0280,38.9088,39.4950,39.4498,38.9257,38.7611,39.2857,39.4521,
22:6:17:17:19:24:827,0.6000,64.0000,35.1000,A,0.0000,0.0000,32.2100,99363,164.6412,0,0.0000,0.0000,0.0000,0.0000,0.0000,0.0000,0,0.0000,0.0000,0.0000,0.0000,0.0000,0.0000,0,0,0,0,0,0,0,0.00,0.00,0.00,0,
22:6:17:17:19:24:923,0.6000,64.0000,35.1000,A,0.0000,0.0000,32.2200,99363,164.6412,0,0.0000,0.0000,0.0000,0.0000,0.0000,0.0000,0,0.0000,0.0000,0.0000,0.0000,0.0000,0.0000,0,0,0,0,0,0,0,0.00,0.00,0.00,0,
22:6:17:17:19:25:28,0.8000,74.0000,35.1000,A,0.0000,0.0000,32.2200,99365,164.4721,0,0.0000,0.0000,0.0000,0.0000,0.0000,0.0000,0,0.0000,0.0000,0.0000,0.0000,0.0000,0.0000,0,0,0,0,0,0,0,0.00,0.00,0.00,0,
22:6:17:17:19:25:124,0.8000,74.0000,35.1000,A,0.0000,0.0000,32.2300,99367,164.3029,0,0.0000,0.0000,0.0000,0.0000,0.0000,0.0000,0,0.0000,0.0000,0.0000,0.0000,0.0000,0.0000,0,0,0,0,0,0,0,0.00,0.00,0.00,0,
22:6:17:17:19:25:229,0.8000,77.0000,35.1000,A,0.0000,0.0000,32.2300,99361,164.8104,0,0.0000,0.0000,0.0000,0.0000,0.0000,0.0000,0,0.0000,0.0000,0.0000,0.0000,0.0000,0.0000,0,0,0,0,0,0,0,0.00,0.00,0.00,0,
22:6:17:17:19:25:322,0.8000,77.0000,35.1000,A,0.0000,0.0000,32.2400,99363,164.6412,0,0.0000,0.0000,0.0000,0.0000,0.0000,0.0000,0,0.0000,0.0000,0.0000,0.0000,0.0000,0.0000,0,0,0,0,0,0,0,0.00,0.00,0.00,0,
22:6:17:17:19:25:431,0.9000,87.0000,35.1000,A,0.0000,0.0000,32.2300,99359,164.9796,0,0.0000,0.0000,0.0000,0.0000,0.0000,0.0000,0,0.0000,0.0000,0.0000,0.0000,0.0000,0.0000,0,0,0,0,0,0,0,0.00,0.00,0.00,0,
22:6:17:17:19:25:524,0.9000,87.0000,35.1000,A,0.0000,0.0000,32.2300,99362,164.7258,0,0.0000,0.0000,0.0000,0.0000,0.0000,0.0000,0,0.0000,0.0000,0.0000,0.0000,0.0000,0.0000,0,0,0,0,0,0,0,0.00,0.00,0.00,0,
22:6:17:17:19:25:633,0.8000,94.0000,35.2000,A,0.0000,0.0000,32.2300,99361,164.8104,0,0.0000,0.0000,0.0000,0.0000,0.0000,0.0000,0,0.0000,0.0000,0.0000,0.0000,0.0000,0.0000,0,0,0,0,0,0,0,0.00,0.00,0.00,0,38.7599,39.3367,38.7173,39.2364,39.2136,38.9585,38.9679,39.1034,39.2234,38.6347,39.1317,39.1201,39.1495,38.9683,39.0042,38.8204,39.0400,38.9497,39.3859,38.9471,38.7443,38.6201,39.2705,39.1187,39.2942,38.6180,38.3465,38.5598,38.6464,38.1959,38.1936,38.5231,38.9470,38.8327,39.1705,38.8007,39.0203,39.1376,39.1884,39.0684,39.0443,38.9587,39.1271,39.1929,38.9459,38.9663,39.2243,38.7781,39.1707,38.8692,38.7365,38.8304,38.9002,38.9312,39.2501,39.0716,39.1018,38.7636,39.2111,38.9320,38.4069,38.1867,38.0121,38.6552,39.0696,39.0289,38.5887,39.0118,39.1235,38.9828,39.3648,39.1267,39.0273,39.0279,39.0624,38.9022,39.0805,39.2352,38.9795,38.9891,39.2540,38.8543,38.8176,38.9145,39.1978,38.7932,38.9534,38.9964,38.9165,38.8439,38.7906,39.0219,38.6828,38.7489,38.3064,38.1832,38.8416,38.9845,39.4276,38.9905,38.9282,39.1437,39.5922,39.0598,39.0403,39.1470,39.2678,39.1656,38.8924,39.0361,39.1567,39.5662,39.1087,39.2876,39.1700,38.8964,39.3583,39.1050,38.9757,38.9677,38.8845,38.7893,39.0130,38.7489,38.6764,38.5537,38.5666,38.5392,38.9195,38.9445,39.3076,38.9669,39.0827,39.0970,39.2441,39.1007,39.1308,39.1193,39.1587,39.4284,39.3406,39.2331,39.1876,39.2437,39.6669,39.4950,39.3758,39.1521,39.4575,39.0503,39.1600,39.3157,39.3295,38.7938,38.9126,38.9765,38.7768,38.6273,38.6995,38.5468,39.1380,38.7274,39.2242,39.1187,39.2730,39.2276,39.0936,39.2111,39.3002,39.1072,39.0442,39.2744,39.5118,39.2473,39.2453,39.0867,39.3747,38.8991,39.4803,39.3252,39.5026,39.2448,38.7369,38.9931,39.1702,38.7972,39.0857,38.7346,38.7911,38.7653,38.7429,38.5007,39.3134,39.2583,39.5789,39.0063,39.4980,39.2782,39.5647,39.1759,39.3728,39.2013,39.3174,38.9722,39.5225,39.0119,39.1930,39.1450,39.1503,39.1049,39.2135,39.3288,39.3494,39.0352,39.2478,39.2045,39.3800,38.7897,38.9396,38.9689,38.5348,38.7453,38.6750,38.5507,39.2076,38.7207,39.1380,38.8413,39.0031,38.9546,39.5174,39.2083,39.2400,38.9204,39.2775,39.1711,39.2805,39.3513,39.1346,38.8604,39.5091,39.1424,39.3029,39.6344,39.4389,39.0761,39.6213,39.3270,39.1210,39.4860,39.0053,38.8033,38.6097,38.8986,38.8738,38.5175,38.9620,39.1460,39.2305,39.3274,39.0690,39.0193,39.1268,39.8120,39.4296,39.2241,39.1930,39.3890,39.2725,38.8954,39.1164,39.4019,39.0103,38.9450,39.3849,39.3306,39.4602,39.4272,39.0530,39.6042,39.2356,39.1383,39.2242,39.2351,38.8300,38.6261,38.8942,38.9295,38.8270,39.4231,39.3176,39.3454,39.1908,39.1119,39.2194,39.3631,39.3411,39.1178,39.0264,39.4331,39.2023,39.1148,39.0658,38.9727,39.2289,39.1445,39.3254,39.2198,39.2241,39.3692,39.5721,38.8542,39.3110,38.9918,39.1461,39.2333,39.2033,38.9868,39.1530,38.8933,39.2453,39.2766,39.5292,39.2663,39.5305,39.1955,39.0567,39.5038,39.1086,39.0440,39.1897,39.3934,39.3423,38.9262,39.0491,39.4390,39.1208,39.2485,39.2592,39.3488,39.2806,39.2742,39.3685,39.2706,39.1430,39.2458,39.2374,39.3689,38.8647,39.0231,38.8279,38.8635,39.1708,39.0504,39.1896,39.1478,39.3150,39.4575,39.3152,39.5754,39.5072,38.9794,39.3195,39.2685,39.1594,39.1360,39.4190,39.1809,39.0446,38.9878,39.6324,39.2198,39.2023,39.3145,39.3059,39.1715,39.3944,39.1310,39.1595,39.0667,38.9477,39.0428,38.9417,38.8760,39.3401,38.6950,39.1994,39.3909,39.3281,39.4106,39.5481,39.4361,39.5642,39.5336,39.3921,39.6439,39.4682,39.2834,39.3141,39.3796,39.5469,39.4218,39.5471,39.6352,39.4132,39.1826,39.4699,39.1706,39.3077,39.2094,39.4594,39.0931,39.2921,39.1028,38.7955,39.1780,38.8901,39.2235,39.1836,39.1402,39.4615,39.1794,39.5338,39.5204,39.2395,39.4883,39.3585,39.2772,39.4543,39.3835,39.2727,39.1636,39.3476,39.1942,39.2169,39.5260,39.2326,39.2083,39.4271,39.5025,39.5064,39.4097,39.3022,39.2760,39.1021,39.1424,39.1076,39.0452,39.1455,39.2156,39.7278,39.3964,39.4577,39.3925,39.5304,39.3017,39.5291,39.4158,39.6478,39.3293,39.6286,39.3109,39.4651,39.3731,39.3045,39.4266,39.3094,39.9187,39.4569,39.1470,39.4108,39.1658,39.5312,39.3259,39.5191,39.5871,39.3634,39.1397,38.8142,38.8852,38.9697,39.0046,39.2142,39.3635,39.4546,39.2280,39.5483,39.4385,39.4900,39.2058,39.5087,39.6105,39.3406,39.2900,39.6152,39.4751,39.3382,39.5452,39.4313,39.6504,39.2860,39.0659,39.2945,39.2163,39.3450,39.0848,39.5210,39.1866,39.1617,39.1892,39.1989,38.9348,39.0592,39.1511,39.3679,39.5868,39.4193,39.5471,39.5160,39.3905,39.0717,39.0646,39.3595,39.4946,39.6861,39.3936,39.4020,39.5439,39.6261,39.3639,39.4076,39.6926,39.3875,39.3092,39.4890,39.3970,39.5630,39.0909,39.3254,39.3843,39.3662,38.9463,39.1282,38.9334,39.0784,39.1618,39.5253,39.5309,39.6168,39.3666,39.5296,39.4390,39.0907,39.1937,39.7174,39.5878,39.6263,39.1123,39.2659,39.4457,39.6009,39.7496,39.6858,39.4457,39.6848,39.6881,39.2294,39.3006,39.4779,39.3676,39.4945,38.9501,38.9827,38.8702,39.1331,39.0077,39.1607,39.3125,39.3703,39.3179,39.2428,39.6694,39.5136,39.5804,39.6854,39.4659,39.7535,39.9325,39.6087,39.4809,39.5439,39.5031,39.5654,39.5471,39.2299,39.5146,39.7433,39.5695,39.3549,39.8054,39.2847,39.0421,39.2441,39.2618,39.1939,38.9948,38.9391,39.3783,38.7832,38.9486,39.4356,39.1063,39.3055,39.1499,39.5922,39.3825,39.2449,39.5499,39.7991,39.5621,39.6651,39.3339,39.5562,39.1401,39.4144,39.6432,39.3942,39.4394,39.7746,39.3498,39.5578,39.1703,39.3919,39.5080,39.6417,39.0704,39.2098,39.1055,39.1614,38.7741,39.3188,39.5278,39.5893,39.6335,39.5711,39.1826,39.3953,39.6533,39.1153,39.0613,39.8197,39.5207,39.5807,39.4330,39.7060,39.5355,40.0204,39.3142,39.7709,39.7939,39.6939,39.1639,39.5334,39.5516,39.0855,39.3078,39.3546,39.2782,39.2361,39.2181,39.0073,39.7448,39.0097,39.4134,39.3051,39.2657,39.4929,39.4524,39.4641,39.8025,39.3451,39.6937,39.6185,39.3230,39.0462,39.1199,39.7500,39.6402,39.7214,39.6543,39.5117,39.4020,39.2554,39.7796,39.4544,39.8867,39.6502,39.3274,39.9854,39.4196,38.9036,39.1672,39.0961,39.2590,39.1519,39.5137,39.4147,39.9280,39.3186,39.5255,39.2808,39.6427,39.4433,39.5227,39.7358,39.6954,39.1621,39.0794,39.0593,39.5665,39.2777,39.4031,39.6771,39.7154,39.5781,39.2634,39.3544,39.7710,39.2470,39.2050,39.3138,39.7838,39.3813,39.5027,39.4899,39.6057,38.6147,39.2891,39.3201,39.3535,38.9797,39.1720,39.3602,39.6067,39.2672,39.6876,39.7788,39.7634,39.5107,39.5777,39.4096,39.1608,39.4135,39.7663,40.0389,39.2704,39.5575,39.4884,39.5289,39.1726,39.0547,38.9356,39.3380,39.2904,39.3361,38.7882,39.5224,39.4798,
22:6:17:17:19:25:785,0.8000,94.0000,35.2000,A,0.0000,0.0000,32.2200,99365,164.4721,0,0.0000,0.0000,0.0000,0.0000,0.0000,0.0000,0,0.0000,0.0000,0.0000,0.0000,0.0000,0.0000,0,0,0,0,0,0,0,0.00,0.00,0.00,0,
22:6:17:17:19:25:890,0.7000,70.0000,35.2000,A,0.0000,0.0000,32.2300,99359,164.9796,0,0.0000,0.0000,0.0000,0.0000,0.0000,0.0000,0,0.0000,0.0000,0.0000,0.0000,0.0000,0.0000,0,0,0,0,0,0,0,0.00,0.00,0.00,0,
22:6:17:17:19:25:986,0.7000,70.0000,35.2000,A,0.0000,0.0000,32.2200,99363,164.6412,0,0.0000,0.0000,0.0000,0.0000,0.0000,0.0000,0,0.0000,0.0000,0.0000,0.0000,0.0000,0.0000,0,0,0,0,0,0,0,0.00,0.00,0.00,0,
22:6:17:17:19:26:91,0.7000,54.0000,35.2000,A,0.0000,0.0000,32.2300,99363,164.6412,0,0.0000,0.0000,0.0000,0.0000,0.0000,0.0000,0,0.0000,0.0000,0.0000,0.0000,0.0000,0.0000,0,0,0,0,0,0,0,0.00,0.00,0.00,0,
22:6:17:17:19:26:187,0.7000,54.0000,35.2000,A,0.0000,0.0000,32.2300,99365,164.4721,0,0.0000,0.0000,0.0000,0.0000,0.0000,0.0000,0,0.0000,0.0000,0.0000,0.0000,0.0000,0.0000,0,0,0,0,0,0,0,0.00,0.00,0.00,0,
22:6:17:17:19:26:292,0.8000,51.0000,35.3000,A,0.0000,0.0000,32.2300,99362,164.7258,0,0.0000,0.0000,0.0000,0.0000,0.0000,0.0000,0,0.0000,0.0000,0.0000,0.0000,0.0000,0.0000,0,0,0,0,0,0,0,0.00,0.00,0.00,0,
22:6:17:17:19:26:385,0.8000,51.0000,35.3000,A,0.0000,0.0000,32.2400,99362,164.7258,0,0.0000,0.0000,0.0000,0.0000,0.0000,0.0000,0,0.0000,0.0000,0.0000,0.0000,0.0000,0.0000,0,0,0,0,0,0,0,0.00,0.00,0.00,0,
22:6:17:17:19:26:494,0.8000,47.0000,35.3000,A,0.0000,0.0000,32.2300,99362,164.7258,0,0.0000,0.0000,0.0000,0.0000,0.0000,0.0000,0,0.0000,0.0000,0.0000,0.0000,0.0000,0.0000,0,0,0,0,0,0,0,0.00,0.00,0.00,0,
22:6:17:17:19:26:587,0.8000,47.0000,35.3000,A,0.0000,0.0000,32.2400,99362,164.7258,0,0.0000,0.0000,0.0000,0.0000,0.0000,0.0000,0,0.0000,0.0000,0.0000,0.0000,0.0000,0.0000,0,0,0,0,0,0,0,0.00,0.00,0.00,0,
