Timestamp,Wind speed,Wind angle,Acoustic temperature windsensor,Temperature validity,Temperature_aht10,Relative humidity_aht10,Temperature_ms5611,Pressure_ms5611,Absolute_altitude_ms5611,timestamp_pix_attitude,Roll,Pitch,Yaw,Roll speed,Pitch speed,Yaw speed,timestamp_pix_loc_pos,x,y,z,vx,vy,vz,timestamp_pix_gps,pix_lat,pix_lon,pix_alt,pix_gps_vx,pix_gps_vy,pix_gps_vz,latitude,longitude,altitude_gps,relative_altitude_gps,Pixel_0,Pixel_1,Pixel_2,Pixel_3,Pixel_4,Pixel_5,Pixel_6,Pixel_7,Pixel_8,Pixel_9,Pixel_10,Pixel_11,Pixel_12,Pixel_13,Pixel_14,Pixel_15,Pixel_16,Pixel_17,Pixel_18,Pixel_19,Pixel_20,Pixel_21,Pixel_22,Pixel_23,Pixel_24,Pixel_25,Pixel_26,Pixel_27,Pixel_28,Pixel_29,Pixel_30,Pixel_31,Pixel_32,Pixel_33,Pixel_34,Pixel_35,Pixel_36,Pixel_37,Pixel_38,Pixel_39,Pixel_40,Pixel_41,Pixel_42,Pixel_43,Pixel_44,Pixel_45,Pixel_46,Pixel_47,Pixel_48,Pixel_49,Pixel_50,Pixel_51,Pixel_52,Pixel_53,Pixel_54,Pixel_55,Pixel_56,Pixel_57,Pixel_58,Pixel_59,Pixel_60,Pixel_61,Pixel_62,Pixel_63,Pixel_64,Pixel_65,Pixel_66,Pixel_67,Pixel_68,Pixel_69,Pixel_70,Pixel_71,Pixel_72,Pixel_73,Pixel_74,Pixel_75,Pixel_76,Pixel_77,Pixel_78,Pixel_79,Pixel_80,Pixel_81,Pixel_82,Pixel_83,Pixel_84,Pixel_85,Pixel_86,Pixel_87,Pixel_88,Pixel_89,Pixel_90,Pixel_91,Pixel_92,Pixel_93,Pixel_94,Pixel_95,Pixel_96,Pixel_97,Pixel_98,Pixel_99,Pixel_100,Pixel_101,Pixel_102,Pixel_103,Pixel_104,Pixel_105,Pixel_106,Pixel_107,Pixel_108,Pixel_109,Pixel_110,Pixel_111,Pixel_112,Pixel_113,Pixel_114,Pixel_115,Pixel_116,Pixel_117,Pixel_118,Pixel_119,Pixel_120,Pixel_121,Pixel_122,Pixel_123,Pixel_124,Pixel_125,Pixel_126,Pixel_127,Pixel_128,Pixel_129,Pixel_130,Pixel_131,Pixel_132,Pixel_133,Pixel_134,Pixel_135,Pixel_136,Pixel_137,Pixel_138,Pixel_139,Pixel_140,Pixel_141,Pixel_142,Pixel_143,Pixel_144,Pixel_145,Pixel_146,Pixel_147,Pixel_148,Pixel_149,Pixel_150,Pixel_151,Pixel_152,Pixel_153,Pixel_154,Pixel_155,Pixel_156,Pixel_157,Pixel_158,Pixel_159,Pixel_160,Pixel_161,Pixel_162,Pixel_163,Pixel_164,Pixel_165,Pixel_166,Pixel_167,Pixel_168,Pixel_169,Pixel_170,Pixel_171,Pixel_172,Pixel_173,Pixel_174,Pixel_175,Pixel_176,Pixel_177,Pixel_178,Pixel_179,Pixel_180,Pixel_181,Pixel_182,Pixel_183,Pixel_184,Pixel_185,Pixel_186,Pixel_187,Pixel_188,Pixel_189,Pixel_190,Pixel_191,Pixel_192,Pixel_193,Pixel_194,Pixel_195,Pixel_196,Pixel_197,Pixel_198,Pixel_199,Pixel_200,Pixel_201,Pixel_202,Pixel_203,Pixel_204,Pixel_205,Pixel_206,Pixel_207,Pixel_208,Pixel_209,Pixel_210,Pixel_211,Pixel_212,Pixel_213,Pixel_214,Pixel_215,Pixel_216,Pixel_217,Pixel_218,Pixel_219,Pixel_220,Pixel_221,Pixel_222,Pixel_223,Pixel_224,Pixel_225,Pixel_226,Pixel_227,Pixel_228,Pixel_229,Pixel_230,Pixel_231,Pixel_232,Pixel_233,Pixel_234,Pixel_235,Pixel_236,Pixel_237,Pixel_238,Pixel_239,Pixel_240,Pixel_241,Pixel_242,Pixel_243,Pixel_244,Pixel_245,Pixel_246,Pixel_247,Pixel_248,Pixel_249,Pixel_250,Pixel_251,Pixel_252,Pixel_253,Pixel_254,Pixel_255,Pixel_256,Pixel_257,Pixel_258,Pixel_259,Pixel_260,Pixel_261,Pixel_262,Pixel_263,Pixel_264,Pixel_265,Pixel_266,Pixel_267,Pixel_268,Pixel_269,Pixel_270,Pixel_271,Pixel_272,Pixel_273,Pixel_274,Pixel_275,Pixel_276,Pixel_277,Pixel_278,Pixel_279,Pixel_280,Pixel_281,Pixel_282,Pixel_283,Pixel_284,Pixel_285,Pixel_286,Pixel_287,Pixel_288,Pixel_289,Pixel_290,Pixel_291,Pixel_292,Pixel_293,Pixel_294,Pixel_295,Pixel_296,Pixel_297,Pixel_298,Pixel_299,Pixel_300,Pixel_301,Pixel_302,Pixel_303,Pixel_304,Pixel_305,Pixel_306,Pixel_307,Pixel_308,Pixel_309,Pixel_310,Pixel_311,Pixel_312,Pixel_313,Pixel_314,Pixel_315,Pixel_316,Pixel_317,Pixel_318,Pixel_319,Pixel_320,Pixel_321,Pixel_322,Pixel_323,Pixel_324,Pixel_325,Pixel_326,Pixel_327,Pixel_328,Pixel_329,Pixel_330,Pixel_331,Pixel_332,Pixel_333,Pixel_334,Pixel_335,Pixel_336,Pixel_337,Pixel_338,Pixel_339,Pixel_340,Pixel_341,Pixel_342,Pixel_343,Pixel_344,Pixel_345,Pixel_346,Pixel_347,Pixel_348,Pixel_349,Pixel_350,Pixel_351,Pixel_352,Pixel_353,Pixel_354,Pixel_355,Pixel_356,Pixel_357,Pixel_358,Pixel_359,Pixel_360,Pixel_361,Pixel_362,Pixel_363,Pixel_364,Pixel_365,Pixel_366,Pixel_367,Pixel_368,Pixel_369,Pixel_370,Pixel_371,Pixel_372,Pixel_373,Pixel_374,Pixel_375,Pixel_376,Pixel_377,Pixel_378,Pixel_379,Pixel_380,Pixel_381,Pixel_382,Pixel_383,Pixel_384,Pixel_385,Pixel_386,Pixel_387,Pixel_388,Pixel_389,Pixel_390,Pixel_391,Pixel_392,Pixel_393,Pixel_394,Pixel_395,Pixel_396,Pixel_397,Pixel_398,Pixel_399,Pixel_400,Pixel_401,Pixel_402,Pixel_403,Pixel_404,Pixel_405,Pixel_406,Pixel_407,Pixel_408,Pixel_409,Pixel_410,Pixel_411,Pixel_412,Pixel_413,Pixel_414,Pixel_415,Pixel_416,Pixel_417,Pixel_418,Pixel_419,Pixel_420,Pixel_421,Pixel_422,Pixel_423,Pixel_424,Pixel_425,Pixel_426,Pixel_427,Pixel_428,Pixel_429,Pixel_430,Pixel_431,Pixel_432,Pixel_433,Pixel_434,Pixel_435,Pixel_436,Pixel_437,Pixel_438,Pixel_439,Pixel_440,Pixel_441,Pixel_442,Pixel_443,Pixel_444,Pixel_445,Pixel_446,Pixel_447,Pixel_448,Pixel_449,Pixel_450,Pixel_451,Pixel_452,Pixel_453,Pixel_454,Pixel_455,Pixel_456,Pixel_457,Pixel_458,Pixel_459,Pixel_460,Pixel_461,Pixel_462,Pixel_463,Pixel_464,Pixel_465,Pixel_466,Pixel_467,Pixel_468,Pixel_469,Pixel_470,Pixel_471,Pixel_472,Pixel_473,Pixel_474,Pixel_475,Pixel_476,Pixel_477,Pixel_478,Pixel_479,Pixel_480,Pixel_481,Pixel_482,Pixel_483,Pixel_484,Pixel_485,Pixel_486,Pixel_487,Pixel_488,Pixel_489,Pixel_490,Pixel_491,Pixel_492,Pixel_493,Pixel_494,Pixel_495,Pixel_496,Pixel_497,Pixel_498,Pixel_499,Pixel_500,Pixel_501,Pixel_502,Pixel_503,Pixel_504,Pixel_505,Pixel_506,Pixel_507,Pixel_508,Pixel_509,Pixel_510,Pixel_511,Pixel_512,Pixel_513,Pixel_514,Pixel_515,Pixel_516,Pixel_517,Pixel_518,Pixel_519,Pixel_520,Pixel_521,Pixel_522,Pixel_523,Pixel_524,Pixel_525,Pixel_526,Pixel_527,Pixel_528,Pixel_529,Pixel_530,Pixel_531,Pixel_532,Pixel_533,Pixel_534,Pixel_535,Pixel_536,Pixel_537,Pixel_538,Pixel_539,Pixel_540,Pixel_541,Pixel_542,Pixel_543,Pixel_544,Pixel_545,Pixel_546,Pixel_547,Pixel_548,Pixel_549,Pixel_550,Pixel_551,Pixel_552,Pixel_553,Pixel_554,Pixel_555,Pixel_556,Pixel_557,Pixel_558,Pixel_559,Pixel_560,Pixel_561,Pixel_562,Pixel_563,Pixel_564,Pixel_565,Pixel_566,Pixel_567,Pixel_568,Pixel_569,Pixel_570,Pixel_571,Pixel_572,Pixel_573,Pixel_574,Pixel_575,Pixel_576,Pixel_577,Pixel_578,Pixel_579,Pixel_580,Pixel_581,Pixel_582,Pixel_583,Pixel_584,Pixel_585,Pixel_586,Pixel_587,Pixel_588,Pixel_589,Pixel_590,Pixel_591,Pixel_592,Pixel_593,Pixel_594,Pixel_595,Pixel_596,Pixel_597,Pixel_598,Pixel_599,Pixel_600,Pixel_601,Pixel_602,Pixel_603,Pixel_604,Pixel_605,Pixel_606,Pixel_607,Pixel_608,Pixel_609,Pixel_610,Pixel_611,Pixel_612,Pixel_613,Pixel_614,Pixel_615,Pixel_616,Pixel_617,Pixel_618,Pixel_619,Pixel_620,Pixel_621,Pixel_622,Pixel_623,Pixel_624,Pixel_625,Pixel_626,Pixel_627,Pixel_628,Pixel_629,Pixel_630,Pixel_631,Pixel_632,Pixel_633,Pixel_634,Pixel_635,Pixel_636,Pixel_637,Pixel_638,Pixel_639,Pixel_640,Pixel_641,Pixel_642,Pixel_643,Pixel_644,Pixel_645,Pixel_646,Pixel_647,Pixel_648,Pixel_649,Pixel_650,Pixel_651,Pixel_652,Pixel_653,Pixel_654,Pixel_655,Pixel_656,Pixel_657,Pixel_658,Pixel_659,Pixel_660,Pixel_661,Pixel_662,Pixel_663,Pixel_664,Pixel_665,Pixel_666,Pixel_667,Pixel_668,Pixel_669,Pixel_670,Pixel_671,Pixel_672,Pixel_673,Pixel_674,Pixel_675,Pixel_676,Pixel_677,Pixel_678,Pixel_679,Pixel_680,Pixel_681,Pixel_682,Pixel_683,Pixel_684,Pixel_685,Pixel_686,Pixel_687,Pixel_688,Pixel_689,Pixel_690,Pixel_691,Pixel_692,Pixel_693,Pixel_694,Pixel_695,Pixel_696,Pixel_697,Pixel_698,Pixel_699,Pixel_700,Pixel_701,Pixel_702,Pixel_703,Pixel_704,Pixel_705,Pixel_706,Pixel_707,Pixel_708,Pixel_709,Pixel_710,Pixel_711,Pixel_712,Pixel_713,Pixel_714,Pixel_715,Pixel_716,Pixel_717,Pixel_718,Pixel_719,Pixel_720,Pixel_721,Pixel_722,Pixel_723,Pixel_724,Pixel_725,Pixel_726,Pixel_727,Pixel_728,Pixel_729,Pixel_730,Pixel_731,Pixel_732,Pixel_733,Pixel_734,Pixel_735,Pixel_736,Pixel_737,Pixel_738,Pixel_739,Pixel_740,Pixel_741,Pixel_742,Pixel_743,Pixel_744,Pixel_745,Pixel_746,Pixel_747,Pixel_748,Pixel_749,Pixel_750,Pixel_751,Pixel_752,Pixel_753,Pixel_754,Pixel_755,Pixel_756,Pixel_757,Pixel_758,Pixel_759,Pixel_760,Pixel_761,Pixel_762,Pixel_763,Pixel_764,Pixel_765,Pixel_766,Pixel_767,
22:6:17:17:13:22:513,0.0000,0.0000,0.0000,,32.3292,72.0174,31.9900,99377,163.4571,0,0.0000,0.0000,0.0000,0.0000,0.0000,0.0000,0,0.0000,0.0000,0.0000,0.0000,0.0000,0.0000,0,0,0,0,0,0,0,0.00,0.00,0.00,0,
22:6:17:17:13:22:616,0.0000,0.0000,0.0000,,32.3839,72.0273,32.0000,99377,163.4571,0,0.0000,0.0000,0.0000,0.0000,0.0000,0.0000,0,0.0000,0.0000,0.0000,0.0000,0.0000,0.0000,0,0,0,0,0,0,0,0.00,0.00,0.00,0,
22:6:17:17:13:22:735,0.0000,0.0000,0.0000,,32.4110,72.0325,32.0200,99379,163.2880,0,0.0000,0.0000,0.0000,0.0000,0.0000,0.0000,0,0.0000,0.0000,0.0000,0.0000,0.0000,0.0000,0,0,0,0,0,0,0,0.00,0.00,0.00,0,
22:6:17:17:13:22:838,0.0000,0.0000,0.0000,,32.4432,72.0173,32.0300,99378,163.3726,0,0.0000,0.0000,0.0000,0.0000,0.0000,0.0000,0,0.0000,0.0000,0.0000,0.0000,0.0000,0.0000,0,0,0,0,0,0,0,0.00,0.00,0.00,0,
22:6:17:17:13:22:953,0.0000,0.0000,0.0000,,32.4566,72.0156,32.0300,99376,163.5417,0,0.0000,0.0000,0.0000,0.0000,0.0000,0.0000,0,0.0000,0.0000,0.0000,0.0000,0.0000,0.0000,0,0,0,0,0,0,0,0.00,0.00,0.00,0,
22:6:17:17:13:23:60,0.0000,0.0000,0.0000,,32.4780,72.0153,32.0400,99377,163.4571,0,0.0000,0.0000,0.0000,0.0000,0.0000,0.0000,0,0.0000,0.0000,0.0000,0.0000,0.0000,0.0000,0,0,0,0,0,0,0,0.00,0.00,0.00,0,
22:6:17:17:13:23:175,0.0000,0.0000,0.0000,,32.4898,72.0251,32.0400,99379,163.2880,0,0.0000,0.0000,0.0000,0.0000,0.0000,0.0000,0,0.0000,0.0000,0.0000,0.0000,0.0000,0.0000,0,0,0,0,0,0,0,0.00,0.00,0.00,0,
22:6:17:17:13:23:282,0.0000,0.0000,0.0000,,32.5027,71.9996,32.0500,99379,163.2880,0,0.0000,0.0000,0.0000,0.0000,0.0000,0.0000,0,0.0000,0.0000,0.0000,0.0000,0.0000,0.0000,0,0,0,0,0,0,0,0.00,0.00,0.00,0,
22:6:17:17:13:23:398,0.0000,358.0000,0.0000,,32.5073,71.9808,32.0500,99381,163.1188,0,0.0000,0.0000,0.0000,0.0000,0.0000,0.0000,0,0.0000,0.0000,0.0000,0.0000,0.0000,0.0000,0,0,0,0,0,0,0,0.00,0.00,0.00,0,
22:6:17:17:13:23:501,0.0000,358.0000,0.0000,,32.5216,71.9827,32.0500,99378,163.3726,0,0.0000,0.0000,0.0000,0.0000,0.0000,0.0000,0,0.0000,0.0000,0.0000,0.0000,0.0000,0.0000,0,0,0,0,0,0,0,0.00,0.00,0.00,0,
22:6:17:17:13:23:621,1.4000,146.0000,40.7000,A,32.5256,71.9661,32.0500,99376,163.5417,0,0.0000,0.0000,0.0000,0.0000,0.0000,0.0000,0,0.0000,0.0000,0.0000,0.0000,0.0000,0.0000,0,0,0,0,0,0,0,0.00,0.00,0.00,0,529.9301,35.8223,536.0280,36.0979,537.8807,36.4217,540.5911,37.0438,541.7546,36.8247,542.4234,36.8103,541.5168,36.6956,544.4182,36.8962,542.3279,36.8626,542.2739,36.9971,541.1528,36.6591,540.1897,36.7171,538.0091,36.3113,536.4951,35.9364,531.2983,35.9001,528.6119,35.8563,35.6132,536.0532,36.2719,538.5601,36.3335,540.0188,37.1460,541.8733,36.8939,542.3178,37.1867,543.2136,36.8700,541.4042,37.0111,542.0101,36.9545,542.4858,36.8088,542.0845,36.7909,539.1806,36.9316,538.0989,36.7090,535.7828,36.4771,533.4316,35.9725,529.5914,36.3214,523.9492,531.8434,36.5524,537.8685,36.6698,538.2756,36.7606,543.3519,37.1633,542.9824,36.6205,544.8641,36.8720,542.7457,36.9147,543.0439,36.8228,543.8375,37.1681,543.4586,36.8908,542.0957,36.9205,540.2885,36.5752,539.8507,36.6592,536.4988,36.5508,533.7162,35.8335,531.1560,35.8720,35.8883,537.2709,36.6740,540.1829,36.8965,541.8975,36.9200,543.0270,36.9854,543.5018,37.0865,544.3150,36.7592,544.3161,37.0140,542.9058,37.1171,542.1981,36.8566,542.2674,37.0363,540.6661,37.0807,539.9199,36.7775,537.6014,36.9785,535.5292,36.1680,532.2974,36.3160,526.6188,534.8583,36.5774,538.8392,36.7079,540.4670,36.7799,542.8471,37.0120,543.9879,37.1111,544.4213,36.9498,544.2783,37.1227,544.9239,37.1393,543.7039,37.5609,544.7061,37.1909,543.3716,37.2290,541.5469,37.1172,540.0856,37.0558,537.7722,36.4704,535.0546,35.9621,532.6310,36.1266,36.1239,536.7494,36.3422,541.0715,36.7637,542.4650,37.0388,543.7709,37.1410,544.2565,37.2392,543.6550,36.9732,543.2744,37.3192,543.7163,37.4377,543.1483,37.2253,542.7973,37.3860,541.4058,37.0597,540.8394,37.1336,538.7046,36.9495,536.7373,36.2165,533.4868,36.1579,528.1535,535.0763,36.7733,540.1096,37.1626,540.5192,36.7280,543.7728,37.1560,543.4121,37.2521,544.9169,37.0469,544.0422,36.8077,545.3956,37.0634,545.1977,37.0320,544.8610,37.4032,543.5354,36.9462,541.8808,37.3668,540.8277,36.9224,538.9567,37.0372,537.1348,36.5510,532.4209,36.3977,36.4778,538.9333,36.7601,540.1298,37.0912,542.9477,37.0018,542.8646,37.1494,543.0284,37.3463,543.9178,37.5238,543.7153,36.7824,543.9905,37.1693,543.0691,37.5512,543.0684,37.2341,542.1008,37.1755,541.1144,37.3039,539.0583,37.1135,537.8581,36.6304,534.5873,36.5896,529.5311,535.4133,36.6966,540.3347,37.1830,540.7881,36.9912,542.6157,37.2094,543.3165,37.1137,545.3073,37.4775,544.2452,37.1675,545.5548,37.2315,544.9813,37.0610,543.8810,37.2900,542.4332,37.3993,542.2727,37.2060,540.7760,37.1566,539.5167,36.6398,535.5600,36.4636,535.0109,36.4611,36.3501,537.3446,36.6351,540.0081,37.1662,541.4062,37.0711,542.8157,37.2728,543.0027,37.4194,543.7737,37.3174,543.4091,37.0388,543.8718,37.5139,543.0751,37.4188,542.9722,37.3344,541.8986,37.3486,541.0142,37.1757,539.5428,36.9283,537.9996,36.7441,535.0237,36.9069,530.6150,535.1722,37.0362,540.4661,36.9717,541.4997,36.9992,542.3721,37.0503,544.0359,37.1331,544.6087,37.4871,544.7943,37.0444,543.5782,37.1079,543.9457,36.9325,543.6143,37.1624,542.5680,37.5142,542.1346,37.0176,540.6695,37.2799,538.9504,36.8535,536.9053,36.7359,534.5629,36.7965,36.7248,536.9412,37.0441,540.0566,37.1393,541.2059,37.0296,542.3262,37.2873,542.5157,37.2708,543.2163,37.4303,543.3241,37.5665,543.5334,37.1920,542.7701,37.0322,542.8851,37.3174,541.7053,37.0680,541.1484,37.2824,539.0115,37.4779,537.5919,36.6914,534.9512,36.7164,530.0647,532.4203,36.8287,537.6857,37.2795,540.2230,37.2549,541.4933,37.4788,542.5544,37.4702,542.8234,37.7489,543.1907,37.4261,543.2618,37.6557,543.9564,37.4348,542.9457,37.4595,542.6993,37.2964,541.5735,37.5330,540.1660,37.0984,538.7595,36.8875,536.9314,36.6805,532.6548,36.5726,36.8103,535.6391,37.2248,538.9979,36.9220,540.4341,37.4033,541.8028,37.1696,541.8213,37.6075,542.8729,37.3016,542.6115,37.2786,542.8396,37.2141,542.2418,37.4911,541.9979,37.2028,541.2448,37.5113,540.2328,37.4077,538.5718,37.4389,537.2828,37.1964,534.4831,36.7165,529.7231,532.4913,37.1943,536.2852,37.2885,538.3447,37.2464,540.3666,37.4967,540.3536,37.5047,541.8403,37.6179,541.9327,37.5967,542.5057,37.2145,543.3913,37.4342,541.8795,37.7537,542.0538,37.2727,540.7578,37.3783,538.9999,37.1850,537.5635,37.0633,535.2638,36.7058,533.6310,36.8185,36.6919,534.3985,37.2589,537.5352,37.1032,539.0017,37.4244,540.3311,37.0994,540.8273,37.3193,541.8475,37.3339,541.8406,37.6207,541.6262,37.3292,541.1558,37.5543,541.1959,37.3965,540.1537,37.5037,539.4277,37.3757,537.7339,37.3266,534.7421,37.2508,533.7029,36.9735,528.5027,530.4422,37.0894,532.8190,37.2659,537.2542,37.2032,538.5601,37.4239,540.4270,36.9734,541.7320,37.7281,541.6187,37.3736,542.0709,37.6524,541.1327,37.7673,540.7499,37.3630,539.6806,37.5516,539.2084,37.2856,537.2338,37.0877,535.7689,37.1549,532.3165,36.9859,531.0829,36.6696,36.7765,532.9482,37.0172,535.9108,37.0622,537.5775,37.3794,539.0115,37.1508,539.2903,37.3257,539.9756,37.3013,540.4805,37.2554,540.2543,37.7107,540.0578,37.6452,540.1370,37.3438,538.7322,36.9562,538.1978,37.0500,534.4101,37.4352,534.4658,37.0359,531.9404,37.0708,526.8587,525.5336,37.0401,531.5751,37.3377,533.9492,37.0844,536.4819,37.5754,537.8315,37.3623,538.6783,37.6875,539.2310,37.4537,539.3677,37.5928,540.1703,37.5068,538.9731,37.5693,538.9708,37.1859,537.5899,37.6487,535.4585,37.1800,534.3741,36.9703,532.0390,36.6136,528.8949,36.6460,36.4030,529.8073,36.6652,533.2914,37.2165,535.2285,37.2417,536.7943,37.2870,537.3625,37.4014,538.6641,37.2947,538.7332,37.3288,538.6976,37.6624,538.1323,37.4725,538.0112,37.2206,537.3227,37.4108,536.5412,36.8998,532.6566,37.2214,530.9905,37.2179,529.8313,37.0542,522.1984,520.7091,37.2024,528.0192,37.2108,530.8679,37.4040,533.7331,37.4321,535.1355,37.2188,536.5413,37.6949,536.7356,37.3470,537.1130,37.5877,536.5811,37.3742,537.0880,37.5155,535.0206,37.3457,535.0828,37.5368,534.9661,37.0481,531.7474,37.1145,528.7927,36.7743,525.9825,36.7020,36.8047,526.3776,36.8493,530.0789,36.8585,530.2468,37.0526,534.2927,37.1746,534.9118,37.6343,535.9821,36.9507,536.0192,37.4855,536.5364,37.6030,534.5070,37.7030,535.8668,37.4193,534.6844,37.5895,533.8438,37.2750,530.1068,37.2985,529.8945,36.6729,526.6685,36.9064,518.6725,519.5544,37.0780,524.1388,37.4308,528.2785,37.3171,529.9695,37.3383,532.3906,37.1206,532.8517,37.8060,534.8409,37.0789,534.2932,37.7411,536.1581,37.4102,534.3959,37.7000,533.3480,37.3905,532.4325,37.4921,531.2986,37.0549,527.2065,37.5508,524.7338,36.5820,522.7856,37.1066,36.5398,518.5599,36.9378,520.8030,36.5399,523.3126,37.1820,525.4069,37.1796,526.9316,37.5409,529.9736,37.4819,528.8210,37.3826,531.2184,37.5632,531.2034,37.5363,530.9206,37.8494,529.6744,37.2571,526.4102,37.0915,525.7753,37.4748,522.9830,37.0277,520.4324,37.0542,510.2994,
22:6:17:17:13:23:786,1.4000,146.0000,40.7000,A,32.5035,71.9576,32.0400,99377,163.4571,0,0.0000,0.0000,0.0000,0.0000,0.0000,0.0000,0,0.0000,0.0000,0.0000,0.0000,0.0000,0.0000,0,0,0,0,0,0,0,0.00,0.00,0.00,0,
22:6:17:17:13:23:902,0.9000,142.0000,40.1000,A,32.5199,71.9867,32.0500,99377,163.4571,0,0.0000,0.0000,0.0000,0.0000,0.0000,0.0000,0,0.0000,0.0000,0.0000,0.0000,0.0000,0.0000,0,0,0,0,0,0,0,0.00,0.00,0.00,0,
22:6:17:17:13:24:9,0.9000,142.0000,40.1000,A,32.5308,71.9725,32.0500,99377,163.4571,0,0.0000,0.0000,0.0000,0.0000,0.0000,0.0000,0,0.0000,0.0000,0.0000,0.0000,0.0000,0.0000,0,0,0,0,0,0,0,0.00,0.00,0.00,0,
22:6:17:17:13:24:125,0.4000,93.0000,39.4000,A,32.5348,71.9572,32.0500,99377,163.4571,0,0.0000,0.0000,0.0000,0.0000,0.0000,0.0000,0,0.0000,0.0000,0.0000,0.0000,0.0000,0.0000,0,0,0,0,0,0,0,0.00,0.00,0.00,0,
22:6:17:17:13:24:232,0.4000,93.0000,39.4000,A,32.5439,71.9407,32.0600,99368,164.2183,0,0.0000,0.0000,0.0000,0.0000,0.0000,0.0000,0,0.0000,0.0000,0.0000,0.0000,0.0000,0.0000,0,0,0,0,0,0,0,0.00,0.00,0.00,0,
22:6:17:17:13:24:348,0.7000,96.0000,38.7000,A,32.5426,71.9320,32.0600,99379,163.2880,0,0.0000,0.0000,0.0000,0.0000,0.0000,0.0000,0,0.0000,0.0000,0.0000,0.0000,0.0000,0.0000,0,0,0,0,0,0,0,0.00,0.00,0.00,0,
22:6:17:17:13:24:451,0.7000,96.0000,38.7000,A,32.5560,71.9213,32.0600,99376,163.5417,0,0.0000,0.0000,0.0000,0.0000,0.0000,0.0000,0,0.0000,0.0000,0.0000,0.0000,0.0000,0.0000,0,0,0,0,0,0,0,0.00,0.00,0.00,0,
22:6:17:17:13:24:571,0.8000,72.0000,37.8000,A,32.5535,71.9230,32.0500,99377,163.4571,0,0.0000,0.0000,0.0000,0.0000,0.0000,0.0000,0,0.0000,0.0000,0.0000,0.0000,0.0000,0.0000,0,0,0,0,0,0,0,0.00,0.00,0.00,0,37.3990,37.6798,37.4312,37.4362,37.6224,38.0651,37.6081,38.2402,37.7347,37.9745,38.0139,38.1195,37.8824,37.8104,37.5833,38.1769,37.9553,38.1380,37.5870,37.7762,37.8051,38.1406,37.5987,38.2664,37.3944,37.9277,37.1250,37.0238,37.3894,37.4608,37.3152,36.8231,37.9569,36.8774,37.8126,37.5444,38.3321,37.7628,38.3328,37.5495,38.5634,37.8489,38.1361,37.7542,38.1381,38.0494,38.2631,38.0288,38.3714,37.6283,38.0925,37.9092,38.4223,37.8349,38.2478,37.7539,38.2500,37.4047,37.9263,37.5106,37.4820,37.1333,37.2598,37.0944,37.5564,38.3014,37.3570,37.7216,37.7790,38.1272,37.8796,37.5947,37.9441,38.3889,37.9927,38.1099,38.0321,38.1336,37.9225,38.3656,38.0416,38.5469,38.0829,37.7993,38.1368,38.1613,37.8630,38.0197,37.8075,37.9998,37.6292,37.9581,37.2877,37.6658,36.8145,37.4453,38.3217,37.7386,38.1344,37.6046,38.4402,37.8281,38.4146,37.7858,38.2394,37.9125,37.9943,37.9519,38.1176,37.8408,38.2227,38.2148,38.3278,38.2450,38.3918,38.0011,38.5749,37.8878,38.0069,38.0545,38.5786,37.4893,37.7913,37.7702,37.7915,36.9794,37.4232,37.2645,37.4700,37.8403,38.1233,38.2879,38.1297,38.0925,38.1566,38.1194,38.0728,38.8135,37.9599,38.3286,38.1610,38.3102,38.0065,38.3240,38.1792,38.4286,38.3467,38.3827,38.2646,38.2738,38.1052,38.0313,38.0915,38.1536,37.7853,37.9691,37.6220,37.5619,37.2605,37.8332,37.4109,37.5253,37.9609,37.7786,38.6152,38.1293,38.4608,38.3004,38.5178,38.0607,38.2757,37.9126,38.4498,38.0719,38.4880,38.3685,38.6119,37.7281,38.2553,38.1411,38.5774,38.0534,38.1150,37.9293,38.5378,37.3881,37.9100,37.6237,38.1217,37.2299,37.4334,37.4720,37.9105,37.9955,37.6962,38.3371,38.0651,38.6435,38.3343,38.5488,37.7279,38.2805,38.2941,38.5169,38.2119,38.4089,37.8808,38.5380,37.8435,38.1968,38.2014,38.5712,38.1919,38.2734,38.0429,38.4225,37.8660,38.1592,38.1901,38.1524,37.5869,38.0786,37.2852,37.8514,38.3154,37.3532,38.4742,38.0645,38.6974,37.8890,38.0777,38.3142,38.1729,38.0511,38.0616,38.4569,38.5278,37.9076,38.2365,38.4464,38.4658,38.1319,38.5537,38.1715,38.6870,38.2091,38.5361,38.1250,38.3454,38.1070,38.2047,38.0461,38.3021,37.5925,37.6174,37.3146,37.7778,38.2777,37.9258,38.6735,38.0066,38.8752,38.3940,38.4122,37.8071,38.4557,38.1820,38.4856,38.1231,38.2987,37.9644,38.6607,38.1634,38.4927,38.0713,38.4362,38.1629,38.3906,38.1812,38.5376,38.1917,38.5180,38.1458,38.0877,37.5450,37.7894,37.9105,37.6771,38.1420,38.0785,37.9594,38.0655,38.8837,38.2137,38.4420,38.1732,38.5859,38.0918,38.2751,38.2742,38.4568,37.6879,38.3238,37.9792,38.7785,38.2960,38.4251,38.0715,38.6238,38.2246,38.5157,38.2866,38.5346,37.7958,38.3483,38.1478,38.0403,37.5201,37.9175,37.7243,38.0769,38.4145,37.7032,38.2711,38.3098,38.4017,38.1701,38.4143,38.2424,38.4395,38.3305,38.6413,38.0558,38.6200,38.3467,38.5473,38.1345,38.3602,37.9664,38.6025,37.9866,38.6693,38.3446,38.3539,38.1098,38.7841,38.0182,38.2545,37.4305,38.3741,37.8530,38.1854,38.3038,37.7041,38.5367,37.8699,38.3669,38.0730,38.2310,38.2239,38.7513,38.1198,38.5714,38.2613,38.8520,38.1423,38.8294,38.1822,38.4522,38.2848,38.4591,38.3659,38.6031,38.6036,38.3953,38.1451,38.4708,38.0962,38.2170,37.6787,38.4728,37.4307,37.9022,37.8987,37.9783,38.0181,37.9082,38.5722,37.9260,39.1051,38.1910,38.8229,38.7027,38.6293,38.2317,38.7479,38.3364,38.6908,38.1824,38.6399,38.4215,38.9733,38.4064,38.7456,38.4165,38.7293,38.4537,38.7123,38.2755,38.4408,38.0707,38.2978,38.2120,38.4608,37.2754,38.3210,38.2073,37.7024,38.0095,38.3828,38.6647,38.1342,38.6054,38.3347,38.4832,38.1777,38.6100,38.2699,38.7167,38.2542,38.8264,38.6048,38.1877,38.2133,38.7681,38.6743,38.6341,38.0663,38.5233,38.7836,38.7417,38.2279,38.5119,38.3722,38.6286,37.5521,38.0764,38.0716,37.5934,38.7276,38.2707,38.7507,38.3960,38.7719,38.4935,38.6875,38.2037,38.8107,38.4978,38.8819,38.6428,39.0052,38.3358,38.6352,38.3171,38.4075,38.6032,38.8875,38.1622,38.6951,38.2321,38.5555,38.3394,38.5485,38.2884,38.3060,37.9428,38.1573,37.8430,38.2074,38.2855,38.2248,38.5651,38.4344,38.6641,38.0228,38.6228,38.4027,38.8811,38.0439,38.7637,38.4747,39.0337,38.3001,38.7404,38.4831,38.5994,38.1332,38.8368,38.5120,39.1250,38.2168,38.6840,38.1895,38.5716,38.1969,38.4043,38.1158,38.3529,37.7610,38.5279,37.9547,37.4896,38.2858,38.2426,38.7572,38.3445,38.7585,38.3074,38.9302,38.0488,38.3014,38.3392,38.8893,38.6953,38.7978,38.2639,39.0918,38.7726,38.9100,38.5489,38.8014,38.5304,38.8538,38.4589,38.7839,38.3723,38.4660,38.2451,38.5823,37.9229,38.2925,37.7747,38.0657,37.8127,37.8129,38.3429,38.0611,38.3212,38.1457,38.4352,38.4064,38.4799,38.0164,38.9597,38.8734,38.5896,38.2586,38.3850,38.4442,38.8542,38.3070,38.6451,38.2969,38.6415,38.3835,38.7703,38.5770,38.5541,38.3168,38.8597,37.8669,38.5044,37.9301,38.4567,37.6457,37.9453,38.6288,38.2245,38.6603,38.3236,38.6933,38.1246,38.4757,38.1905,38.6994,38.4256,39.1712,38.5997,39.0286,38.6767,39.0491,38.5587,38.9467,38.3625,39.0570,38.2623,38.9617,38.4655,39.1827,38.0683,38.8964,38.3240,38.9576,37.8927,38.5081,38.7131,38.4878,38.4767,37.7709,38.4031,38.3348,38.1567,38.2287,38.6421,38.0016,38.6306,38.0695,38.7350,38.8418,38.7605,38.1836,38.6504,38.7246,38.9600,38.4953,38.6396,38.5639,38.5548,38.3316,38.6230,38.2776,38.4472,38.2842,38.6666,37.7821,38.3715,37.9644,38.6662,37.7547,37.8934,38.6379,38.2370,38.9598,37.7880,38.7032,38.1444,38.8535,38.2217,38.5954,38.4636,38.7434,38.4125,38.5200,38.2110,38.7705,38.6820,38.5507,38.4204,38.8681,38.6498,38.8571,38.4712,38.7650,38.5062,38.6645,38.2353,38.6203,37.7241,38.1647,37.9843,38.4151,38.0941,38.0102,38.2509,38.0999,38.5027,38.1636,38.6611,38.0553,38.4004,38.1657,38.8433,38.5912,38.5875,37.9423,38.5217,38.4565,38.9517,38.4740,38.5869,38.2082,39.1040,38.2684,38.5021,38.3275,38.6893,38.0602,38.6262,38.1086,38.4136,37.8114,38.5913,38.2147,37.8889,38.5878,37.7985,38.8543,38.3475,38.8561,38.3304,38.8187,38.0204,38.8845,38.4895,38.7290,38.4255,38.2959,37.9945,38.6317,38.3825,38.7807,38.6197,38.9287,38.3501,38.6312,38.2570,38.9548,38.3148,38.5484,38.5296,38.5553,38.0073,38.4178,38.2356,38.0171,37.8824,37.8230,38.4167,37.9517,38.6735,38.1994,38.3441,38.6636,38.4574,38.4332,38.6426,38.5152,39.0433,38.3593,38.6210,38.2659,39.1072,38.2445,38.9326,38.5284,38.7637,38.5819,38.7166,38.2341,38.7483,37.8080,38.4813,38.1202,38.6466,37.9716,38.3798,38.1877,
22:6:17:17:13:24:734,0.8000,72.0000,37.8000,A,32.5340,71.8898,32.0600,99377,163.4571,0,0.0000,0.0000,0.0000,0.0000,0.0000,0.0000,0,0.0000,0.0000,0.0000,0.0000,0.0000,0.0000,0,0,0,0,0,0,0,0.00,0.00,0.00,0,
22:6:17:17:13:24:854,0.8000,122.0000,37.4000,A,32.5455,71.8927,32.0600,99379,163.2880,0,0.0000,0.0000,0.0000,0.0000,0.0000,0.0000,0,0.0000,0.0000,0.0000,0.0000,0.0000,0.0000,0,0,0,0,0,0,0,0.00,0.00,0.00,0,
22:6:17:17:13:24:958,0.8000,122.0000,37.4000,A,32.5577,71.8927,32.0600,99378,163.3726,0,0.0000,0.0000,0.0000,0.0000,0.0000,0.0000,0,0.0000,0.0000,0.0000,0.0000,0.0000,0.0000,0,0,0,0,0,0,0,0.00,0.00,0.00,0,
22:6:17:17:13:25:74,1.0000,87.0000,36.7000,A,32.5562,71.8882,32.0700,99376,163.5417,0,0.0000,0.0000,0.0000,0.0000,0.0000,0.0000,0,0.0000,0.0000,0.0000,0.0000,0.0000,0.0000,0,0,0,0,0,0,0,0.00,0.00,0.00,0,
22:6:17:17:13:25:181,1.0000,87.0000,36.7000,A,32.5645,71.8794,32.0700,99379,163.2880,0,0.0000,0.0000,0.0000,0.0000,0.0000,0.0000,0,0.0000,0.0000,0.0000,0.0000,0.0000,0.0000,0,0,0,0,0,0,0,0.00,0.00,0.00,0,
22:6:17:17:13:25:297,0.6000,117.0000,36.4000,A,32.5645,71.8705,32.0700,99371,163.9646,0,0.0000,0.0000,0.0000,0.0000,0.0000,0.0000,0,0.0000,0.0000,0.0000,0.0000,0.0000,0.0000,0,0,0,0,0,0,0,0.00,0.00,0.00,0,
22:6:17:17:13:25:404,0.6000,117.0000,36.4000,A,32.5731,71.8542,32.0700,99374,163.7108,0,0.0000,0.0000,0.0000,0.0000,0.0000,0.0000,0,0.0000,0.0000,0.0000,0.0000,0.0000,0.0000,0,0,0,0,0,0,0,0.00,0.00,0.00,0,
22:6:17:17:13:25:520,0.9000,115.0000,36.2000,A,32.5741,71.8608,32.0700,99378,163.3726,0,0.0000,0.0000,0.0000,0.0000,0.0000,0.0000,0,0.0000,0.0000,0.0000,0.0000,0.0000,0.0000,0,0,0,0,0,0,0,0.00,0.00,0.00,0,
22:6:17:17:13:25:624,0.9000,115.0000,36.2000,A,32.5792,71.8565,32.0800,99375,163.6263,0,0.0000,0.0000,0.0000,0.0000,0.0000,0.0000,0,0.0000,0.0000,0.0000,0.0000,0.0000,0.0000,0,0,0,0,0,0,0,0.00,0.00,0.00,0,38.5302,37.9806,38.4884,38.1547,38.5939,37.9420,38.3611,38.3137,38.4575,38.4046,38.5502,38.5426,38.4080,38.3970,38.6078,38.5907,38.4744,38.2125,38.2924,38.7177,38.1641,38.2151,38.5039,38.7069,38.3246,38.1948,37.7153,37.9216,37.7886,37.5351,37.7349,37.5978,38.2601,37.9483,38.0982,38.5728,38.2146,38.1416,38.5913,38.6566,38.4623,38.5564,38.7269,38.2816,38.5474,38.5693,38.8315,38.3810,38.7750,37.9792,38.6761,38.6018,38.6676,38.1920,38.4969,38.3025,38.3248,38.1590,38.5904,38.3033,37.7633,37.5369,37.5586,37.7465,38.1844,38.3757,38.5626,38.9807,38.5226,38.5693,38.6007,38.5476,38.6303,38.4634,38.5046,38.3470,38.5328,38.2078,38.5881,38.7593,38.3844,38.4622,38.4267,38.5230,38.6440,38.7247,38.5542,38.7671,38.1659,38.2539,38.3745,38.2227,38.0629,37.5448,37.8627,37.7366,38.1806,38.1343,38.6058,38.3747,38.6969,38.1940,38.8394,38.8311,38.6441,38.5902,38.3927,38.7769,38.6607,38.4947,38.6122,38.8688,38.8761,38.7441,38.6243,38.6662,38.6497,38.3949,38.7458,38.7379,38.6530,38.0310,38.6006,37.9589,38.2524,37.7491,37.9182,37.4586,38.2777,38.5135,38.6940,38.3619,38.6729,38.5170,38.6775,38.7019,38.7389,38.7281,38.7718,38.5623,38.3431,38.3847,38.4967,38.7064,38.6694,38.3503,38.5284,38.7673,38.4470,38.5054,38.6094,38.5969,38.4407,38.5627,38.6821,38.5708,37.9940,38.2060,38.2661,38.3170,38.0970,38.1063,38.4202,38.8904,38.8654,38.6569,38.8652,38.6503,38.5923,38.0850,38.6602,38.4136,38.5247,38.7134,38.5620,38.7044,39.1422,38.5180,38.7909,38.7880,39.1161,38.5498,38.6653,38.2774,38.4497,38.2377,38.5081,38.1590,38.0151,37.9796,38.1123,37.6650,38.4928,38.6454,38.6177,38.5940,39.0985,38.2227,38.5164,38.7845,38.5281,38.5091,38.7821,38.4398,38.6942,38.6320,38.6636,38.7636,38.6220,38.7233,38.9835,38.9480,38.5235,38.6521,38.7014,38.8150,38.6790,38.7206,38.3747,38.5680,38.3041,38.3334,38.0567,38.1233,38.5856,38.3027,38.5479,38.7915,38.2681,38.5630,38.6401,38.4984,38.7048,38.3872,38.7445,38.6404,38.4538,38.5341,38.7563,38.6299,38.5406,38.1666,38.9247,38.8065,39.0585,38.3938,38.6101,38.6258,38.7320,38.4545,38.4445,38.5737,38.3770,38.1377,38.0736,38.0940,38.3489,38.5401,38.6456,38.9228,38.5149,38.6259,38.8959,38.4863,38.7471,38.6846,38.6636,38.8598,38.7476,38.6638,38.5907,38.7347,38.9233,38.5673,38.8547,39.1008,38.6409,38.6117,38.6697,38.9172,38.6901,38.5928,38.4965,38.4999,38.4256,37.8643,38.2864,37.9416,38.4063,38.0791,38.3863,38.7708,38.7973,38.3987,38.9898,38.6684,38.6604,38.4293,38.7964,38.9056,38.9698,38.4519,38.6899,38.5978,38.9964,38.6250,38.7977,38.9897,39.1377,38.7020,39.0420,38.7762,38.9218,38.1387,38.7521,38.6699,38.4583,37.8847,38.1785,37.9157,38.6393,38.6748,38.5960,38.6911,38.8165,38.9641,38.9829,38.8033,39.0281,38.8125,38.8107,39.0137,38.8208,38.6946,38.6736,38.6214,38.4601,38.5807,38.5895,38.8241,39.1945,38.7441,38.8331,38.5815,38.6028,38.5485,38.5253,38.6534,38.4653,38.4489,38.4121,38.4467,38.5655,38.4503,38.4350,38.4016,38.6023,38.9055,38.9299,38.8780,38.8261,38.6011,38.7937,38.7422,38.6370,38.3264,38.9033,38.9507,38.6696,38.4690,39.1136,38.9897,38.6779,38.6393,38.6213,38.6365,38.8539,38.4377,38.7706,38.5146,38.3796,38.1331,38.5279,38.2763,38.7329,38.6488,38.4448,38.8182,38.7695,38.8623,38.8470,39.0517,38.8851,38.8538,38.5643,38.9703,38.9506,38.4777,38.7965,39.0046,38.8891,38.7644,38.8805,39.2586,38.8912,38.6578,38.6368,39.0927,38.6139,38.5156,38.7434,38.8626,38.3975,38.5356,38.1986,38.0247,38.8452,38.6278,39.1282,38.9106,38.9030,38.4775,39.1486,38.8285,39.0070,38.5123,39.1289,38.8992,38.9352,38.7250,39.0429,38.9335,38.9735,38.5396,39.1318,38.7123,39.1455,38.5429,38.8978,38.6635,38.9692,38.5679,38.9100,38.7220,38.7033,38.4127,38.3327,38.6326,38.5390,38.8024,38.9785,38.9959,38.9046,39.0040,38.8332,38.7615,38.6918,39.0346,38.9760,39.0994,39.1122,39.0796,39.0916,38.7092,38.9303,38.7679,39.2247,39.2529,38.7866,38.9147,38.7222,39.0874,38.6794,38.6233,38.9635,38.7068,38.6325,38.4014,38.5841,38.2814,38.9258,38.4134,38.6386,38.6212,38.9003,38.6834,38.8526,38.8990,38.8045,38.6779,38.9850,38.9484,39.1083,38.4847,39.2432,38.8124,38.6745,38.3184,39.2019,38.9870,39.0536,38.6917,38.7582,38.8342,38.6467,38.3838,38.9664,38.4679,38.5952,38.2881,38.7855,38.3338,38.2550,38.7339,39.1368,39.0067,39.0247,38.9942,38.8103,39.1597,38.6893,38.6804,39.1301,39.2638,39.3115,38.8722,38.8828,38.8714,38.9556,38.9847,38.8808,39.1693,39.0089,38.9285,38.9513,38.8582,38.7127,38.8587,38.7638,38.6565,38.6242,38.3673,38.7122,38.5161,38.0799,38.3757,38.5932,38.9522,39.0562,38.6552,38.8264,38.5925,38.8584,38.9640,39.1853,39.2085,38.8107,38.7365,38.7481,38.9233,39.0757,38.7871,39.1621,39.0699,39.1582,38.7184,38.8445,38.7634,38.6289,38.5057,38.7682,38.7211,38.9216,38.1203,38.7170,38.2163,38.1366,38.8922,38.7773,39.0875,38.8457,38.9358,38.7981,39.0307,39.1480,39.2338,39.2198,39.3979,39.0815,39.2488,38.8606,39.2725,39.0391,39.1683,38.9994,39.1311,39.2096,39.0364,38.6504,38.7806,38.7346,38.9710,38.6787,39.2031,38.7881,38.5828,38.7097,38.5617,38.3517,38.3419,38.8428,38.5239,38.9057,38.4168,38.7162,38.8329,38.5513,38.7140,39.2664,39.1803,38.9850,38.8113,39.0261,39.2091,39.1822,38.5347,38.8642,39.2102,39.0866,38.9704,39.0128,38.9411,38.6818,38.7962,38.9088,38.8399,38.8009,38.5171,38.7401,38.9383,38.2880,39.1020,38.8011,39.0339,38.4907,38.7779,38.8327,39.0931,38.4080,38.9878,38.8065,39.2903,38.5979,39.2010,39.1688,39.1518,39.3293,39.0821,39.2301,39.0980,38.8358,39.0874,38.9809,39.3215,38.5287,38.9077,38.5991,38.8715,38.2794,38.0519,38.3765,38.4897,38.3722,38.2030,38.7016,39.0376,38.5774,38.7025,39.4028,39.2431,38.6350,38.5135,38.9173,39.0940,38.5102,38.2829,39.3678,39.2583,39.0263,38.9678,39.1267,38.8630,39.0218,38.7706,38.7386,38.8439,39.0912,38.9285,39.0532,38.4787,38.4882,38.7530,38.6651,38.8243,38.2935,38.4551,39.1862,39.1214,39.2730,39.1124,38.8743,39.2397,39.0468,39.1252,39.1752,39.1347,38.7720,38.5298,38.6677,39.0215,38.5681,39.1712,39.2875,39.1639,38.6996,39.0315,38.9552,39.0288,38.8462,38.4477,38.7193,38.8150,38.9625,38.4924,38.4275,38.9489,38.1703,38.2295,38.6911,38.7348,38.5627,38.7600,38.7751,39.0307,38.7001,38.4589,38.8836,39.2046,39.2791,38.8706,39.0185,38.7740,39.0223,38.9091,39.1675,39.3648,38.6766,38.7728,38.7905,39.1139,38.8228,38.8837,39.2929,39.2497,38.5288,38.1679,38.6642,38.6057,
22:6:17:17:13:25:801,0.8000,141.0000,36.0000,A,32.5481,71.8408,32.0600,99376,163.5417,0,0.0000,0.0000,0.0000,0.0000,0.0000,0.0000,0,0.0000,0.0000,0.0000,0.0000,0.0000,0.0000,0,0,0,0,0,0,0,0.00,0.00,0.00,0,
22:6:17:17:13:25:905,0.8000,141.0000,36.0000,A,32.5684,71.8494,32.0700,99373,163.7954,0,0.0000,0.0000,0.0000,0.0000,0.0000,0.0000,0,0.0000,0.0000,0.0000,0.0000,0.0000,0.0000,0,0,0,0,0,0,0,0.00,0.00,0.00,0,
22:6:17:17:13:26:25,0.3000,140.0000,35.9000,A,32.5687,71.8265,32.0800,99379,163.2880,0,0.0000,0.0000,0.0000,0.0000,0.0000,0.0000,0,0.0000,0.0000,0.0000,0.0000,0.0000,0.0000,0,0,0,0,0,0,0,0.00,0.00,0.00,0,
22:6:17:17:13:26:128,0.3000,140.0000,35.9000,A,32.5783,71.8378,32.0800,99373,163.7954,0,0.0000,0.0000,0.0000,0.0000,0.0000,0.0000,0,0.0000,0.0000,0.0000,0.0000,0.0000,0.0000,0,0,0,0,0,0,0,0.00,0.00,0.00,0,
22:6:17:17:13:26:244,0.5000,177.0000,35.8000,A,32.5783,71.7965,32.0800,99381,163.1188,0,0.0000,0.0000,0.0000,0.0000,0.0000,0.0000,0,0.0000,0.0000,0.0000,0.0000,0.0000,0.0000,0,0,0,0,0,0,0,0.00,0.00,0.00,0,
22:6:17:17:13:26:351,0.5000,177.0000,35.8000,A,32.5863,71.7877,32.0800,99378,163.3726,0,0.0000,0.0000,0.0000,0.0000,0.0000,0.0000,0,0.0000,0.0000,0.0000,0.0000,0.0000,0.0000,0,0,0,0,0,0,0,0.00,0.00,0.00,0,
22:6:17:17:13:26:467,0.6000,117.0000,35.8000,A,32.5871,71.8005,32.0900,99378,163.3726,0,0.0000,0.0000,0.0000,0.0000,0.0000,0.0000,0,0.0000,0.0000,0.0000,0.0000,0.0000,0.0000,0,0,0,0,0,0,0,0.00,0.00,0.00,0,
22:6:17:17:13:26:574,0.6000,117.0000,35.8000,A,32.5951,71.7774,32.0900,99383,162.9497,0,0.0000,0.0000,0.0000,0.0000,0.0000,0.0000,0,0.0000,0.0000,0.0000,0.0000,0.0000,0.0000,0,0,0,0,0,0,0,0.00,0.00,0.00,0,
22:6:17:17:13:26:690,0.7000,90.0000,35.8000,A,32.5951,71.7696,32.0900,99377,163.4571,0,0.0000,0.0000,0.0000,0.0000,0.0000,0.0000,0,0.0000,0.0000,0.0000,0.0000,0.0000,0.0000,0,0,0,0,0,0,0,0.00,0.00,0.00,0,38.5784,38.4832,38.7531,38.2047,38.8378,38.7791,38.9752,38.9254,38.6852,38.6324,38.9507,38.5930,38.9677,38.4476,38.4885,38.6410,38.6908,38.4321,38.6875,38.2484,38.7364,38.4396,39.0898,38.5740,38.7436,38.6299,38.1656,38.1770,38.0466,37.8012,38.0118,37.8811,38.3112,38.4343,38.5721,38.6206,38.6491,38.7660,39.0111,39.0712,38.8639,38.6046,38.6052,39.0125,38.4311,38.6178,39.0463,38.7631,38.4969,38.6887,38.2173,38.8187,38.7187,38.7498,38.8978,38.5309,38.5579,38.5823,38.4447,38.5512,38.4324,37.7951,37.8341,37.7935,38.8882,38.8489,38.8137,39.0307,38.7567,38.6197,39.0066,38.7728,39.0132,38.6807,38.8820,38.7226,39.0566,38.5778,38.6372,38.9691,38.7533,38.6726,38.9575,38.5733,38.6930,38.4496,38.6031,38.8175,38.7346,38.4839,38.4231,38.4633,38.5010,38.3751,37.6970,37.7874,38.2317,38.3899,38.6563,39.0037,38.7479,38.6034,38.8898,39.0507,38.6951,38.8026,38.7669,38.8253,38.8674,38.5431,38.6629,39.0735,38.7696,38.7926,38.9918,39.0337,38.5416,38.7637,38.6307,38.9516,38.5336,38.4319,38.1003,38.9399,38.3035,37.7969,38.3886,37.9329,38.5322,38.7632,38.9349,38.4122,39.2584,38.7421,39.0632,38.7522,38.7881,38.9385,38.8207,39.0902,39.0059,38.8984,38.8530,38.9105,39.0257,39.1628,39.0407,38.9726,39.1203,39.0261,38.8184,38.6473,38.6545,38.6133,38.9079,38.6215,38.5951,37.6879,38.3145,38.3677,38.5539,38.5460,38.6631,38.9385,39.2667,38.7051,39.0807,38.8648,38.6432,38.6100,38.8658,38.9356,38.8783,38.7620,38.7640,38.7531,39.1933,38.8680,38.9950,38.9904,38.8582,39.0635,38.7160,38.6499,38.8264,38.6157,38.2097,38.5532,38.2479,38.3989,38.1631,38.3198,38.9354,38.3128,39.3984,39.0094,38.8084,38.9332,39.3838,38.8349,39.1910,38.7135,39.2888,38.6413,38.8930,38.6826,39.0118,38.6624,39.1165,38.7739,39.1820,38.9983,38.8705,39.0061,38.9083,38.8656,38.8849,38.6092,38.9245,38.2774,38.1760,38.3844,38.4922,38.1740,38.6370,38.7300,38.9596,39.0197,38.9901,38.7740,38.8531,38.8671,38.7557,38.8899,39.2495,38.8395,39.0991,38.8767,38.6586,39.2776,38.8867,38.9609,38.9754,39.3040,38.6643,38.7441,38.6608,38.9888,38.9387,38.6637,38.6610,38.6219,38.6034,38.3632,38.3151,38.7254,38.7804,38.7783,38.8721,38.9732,39.0485,38.8384,38.9450,39.3207,38.7962,39.0433,39.0118,38.9101,38.7967,38.5692,38.7875,39.0768,38.8283,38.9100,39.2032,39.0038,38.9844,38.9549,38.8710,38.8153,39.0530,38.6436,38.8770,38.2128,38.4746,37.9153,38.7125,38.3720,38.4574,38.5001,38.7891,38.9918,39.1704,38.9304,38.7248,39.0270,39.0111,38.7837,38.8470,38.9543,38.8751,38.6450,38.8864,38.9353,39.0474,38.9629,38.9974,39.1845,39.0426,38.8965,38.9421,39.1283,38.9731,38.8104,38.8028,38.5507,38.6807,38.6316,38.4162,38.7124,38.6882,38.9110,38.9972,38.9140,39.0268,38.8523,39.0319,39.0108,39.0773,38.8631,39.1573,39.0643,39.1604,38.7451,38.7227,38.9660,38.9381,38.7768,38.7851,39.0216,39.2438,39.0928,39.0345,38.4783,38.8063,38.9097,39.0557,38.7040,38.5140,38.3284,38.4606,38.3102,38.4299,38.8692,38.8364,38.9664,39.2935,38.9540,38.9805,39.5496,39.0270,39.0934,38.9925,39.2349,38.9779,38.9544,38.9540,38.9994,38.8629,38.8062,39.0194,39.3305,39.1665,39.2811,38.8238,38.9901,38.9053,38.7954,38.8213,38.8855,38.9340,38.8617,38.5790,38.5096,39.1577,38.5143,39.0178,39.0403,39.1465,39.2300,38.8960,39.1020,39.3826,39.2037,39.0614,39.3167,38.9996,38.9593,39.1323,38.7643,38.9382,38.9571,38.9296,39.0170,39.0860,38.8549,38.9875,38.6840,38.9714,38.8744,38.9543,38.7500,38.6126,38.5865,38.4302,38.6305,38.7092,38.4921,38.6577,39.1294,39.1175,38.8409,39.1993,39.0313,39.2074,39.1582,39.0315,38.9478,39.2732,39.2021,39.2359,39.2711,39.0246,38.8714,39.0377,39.3448,39.3417,38.8820,38.6479,39.3214,39.1729,38.9228,38.9610,38.9326,39.2531,38.6278,38.5656,39.0485,39.1520,38.8533,39.5466,38.8749,39.4374,39.3693,39.0379,38.8118,39.0443,39.2343,39.4663,39.1497,39.4470,38.9867,39.4261,39.1937,38.9794,38.9612,39.4195,39.1580,39.1289,38.8207,38.9240,39.1379,39.0392,38.8312,39.1751,39.0830,38.6811,38.6214,38.8165,38.7061,38.6006,38.8235,38.8630,39.3530,39.2739,38.8894,38.7473,39.4121,39.1581,38.8755,39.0357,39.2854,39.3025,38.8213,39.0081,39.1498,39.1561,39.2221,39.3979,39.3249,38.8120,39.3165,39.2671,39.0350,39.0082,38.7466,38.8551,38.6792,38.6466,38.3360,38.4693,38.5678,38.6860,38.9709,39.0093,39.0573,39.0733,39.2060,39.0177,39.3654,39.1927,38.7312,39.1787,39.1644,39.2162,39.5026,39.0764,39.0694,39.1513,38.8883,39.2260,39.2198,39.0580,38.9794,39.3075,38.9088,39.2263,38.5917,38.9783,38.8732,39.1838,38.5919,39.1330,38.3788,38.8979,38.7954,38.9965,39.1753,39.4362,38.8643,38.8771,39.1039,38.9096,38.8605,39.2360,39.4068,39.2992,39.2222,38.9431,39.4108,39.1269,38.9825,38.9176,39.5567,39.2096,39.0635,38.8955,39.4265,38.9890,39.0280,38.9848,39.1001,38.9729,38.8624,38.7682,38.6396,39.1758,38.9431,39.3704,39.6654,39.0614,38.9866,39.3322,39.4005,39.5041,39.1317,39.5722,39.7528,39.2789,39.0085,39.6634,39.3231,39.5315,39.3659,39.4989,39.4874,39.2584,38.9364,38.8574,39.1495,39.1023,39.0219,39.3972,39.0823,39.0125,38.6338,38.9498,38.8085,38.4034,39.1448,38.8936,39.1017,38.9571,38.9688,38.9291,39.2015,38.9105,39.0660,39.6212,39.6857,39.3352,39.0062,39.3780,39.4064,39.2334,39.3163,39.2159,39.5639,39.5929,39.0185,39.2213,38.9892,39.2111,39.1657,39.2955,39.0606,38.8523,38.7449,38.9828,38.9858,38.5368,38.9584,39.5942,39.4542,39.2204,38.6559,39.2140,39.4737,38.6158,39.1971,39.4823,39.4980,39.0988,38.9492,39.2174,39.0490,39.3783,39.1330,38.9669,39.1486,39.1986,38.9826,39.3521,39.2116,39.0670,38.7901,38.9983,38.7451,38.6918,38.6646,38.6254,38.5409,38.4240,38.8410,38.7525,39.4566,39.1422,39.0974,38.9528,39.6219,38.8460,39.0383,39.1257,39.1420,38.8653,38.7872,39.1102,39.4594,39.3866,39.1684,39.1778,39.3758,39.0735,38.9751,38.6273,39.2182,39.3059,38.9766,39.1044,38.8832,38.7230,38.6137,38.9179,39.2823,38.3410,39.1269,39.0355,39.3647,39.3211,39.3447,38.9224,38.9435,39.0951,39.1761,39.3893,39.8455,39.1405,38.7395,39.0391,39.2296,39.0962,39.2221,39.4959,39.3754,39.2343,39.0824,39.3426,39.2505,39.2368,39.1988,39.1328,39.2360,38.8198,38.7387,38.8934,39.0001,38.8600,38.9015,38.5417,39.5596,38.7997,38.8076,38.8264,39.2518,39.0871,39.1738,39.1017,39.4177,39.3305,39.0778,38.9081,39.4541,39.2331,39.1144,39.0576,39.4123,39.0527,39.3079,38.8417,39.1617,38.8744,38.7550,39.3442,39.2966,39.1564,38.4114,38.9259,39.2982,
22:6:17:17:13:26:854,0.7000,90.0000,35.8000,A,32.5684,71.7606,32.0800,99378,163.3726,0,0.0000,0.0000,0.0000,0.0000,0.0000,0.0000,0,0.0000,0.0000,0.0000,0.0000,0.0000,0.0000,0,0,0,0,0,0,0,0.00,0.00,0.00,0,
22:6:17:17:13:26:974,1.2000,90.0000,35.8000,A,32.5796,71.7318,32.0900,99379,163.2880,0,0.0000,0.0000,0.0000,0.0000,0.0000,0.0000,0,0.0000,0.0000,0.0000,0.0000,0.0000,0.0000,0,0,0,0,0,0,0,0.00,0.00,0.00,0,
22:6:17:17:13:27:77,1.2000,90.0000,35.8000,A,32.5930,71.7414,32.0900,99376,163.5417,0,0.0000,0.0000,0.0000,0.0000,0.0000,0.0000,0,0.0000,0.0000,0.0000,0.0000,0.0000,0.0000,0,0,0,0,0,0,0,0.00,0.00,0.00,0,
22:6:17:17:13:27:196,1.4000,141.0000,35.8000,A,32.5901,71.7483,32.0900,99373,163.7954,0,0.0000,0.0000,0.0000,0.0000,0.0000,0.0000,0,0.0000,0.0000,0.0000,0.0000,0.0000,0.0000,0,0,0,0,0,0,0,0.00,0.00,0.00,0,
22:6:17:17:13:27:300,1.4000,141.0000,35.8000,A,32.5979,71.7382,32.1000,99374,163.7108,0,0.0000,0.0000,0.0000,0.0000,0.0000,0.0000,0,0.0000,0.0000,0.0000,0.0000,0.0000,0.0000,0,0,0,0,0,0,0,0.00,0.00,0.00,0,
22:6:17:17:13:27:416,1.2000,141.0000,35.8000,A,32.5975,71.7269,32.0900,99372,163.8800,0,0.0000,0.0000,0.0000,0.0000,0.0000,0.0000,0,0.0000,0.0000,0.0000,0.0000,0.0000,0.0000,0,0,0,0,0,0,0,0.00,0.00,0.00,0,
22:6:17:17:13:27:523,1.2000,141.0000,35.8000,A,32.6054,71.7336,32.0900,99377,163.4571,0,0.0000,0.0000,0.0000,0.0000,0.0000,0.0000,0,0.0000,0.0000,0.0000,0.0000,0.0000,0.0000,0,0,0,0,0,0,0,0.00,0.00,0.00,0,
22:6:17:17:13:27:639,1.6000,132.0000,35.8000,A,32.6065,71.7208,32.1000,99376,163.5417,0,0.0000,0.0000,0.0000,0.0000,0.0000,0.0000,0,0.0000,0.0000,0.0000,0.0000,0.0000,0.0000,0,0,0,0,0,0,0,0.00,0.00,0.00,0,38.6134,38.5152,38.7878,38.8777,39.0675,38.6152,39.0096,39.1439,39.2550,38.8419,38.9851,38.7992,38.8322,38.4802,38.8581,39.0119,38.5579,38.8016,38.7219,38.9727,38.7708,38.2981,39.1242,39.1546,38.7782,38.4701,37.9995,38.4133,38.4997,38.0481,37.5889,38.3761,38.5715,38.2500,38.3919,39.2819,38.8724,38.8004,39.0427,39.1056,38.8962,38.4650,38.8091,38.5352,38.9644,38.9859,39.0781,38.9639,39.0225,38.7230,38.9282,38.6843,38.7513,38.6148,38.9294,39.1043,38.7718,38.4296,38.6728,38.5861,38.4645,38.4600,38.3133,38.0564,38.9231,38.8811,38.6454,39.0625,38.9764,38.6520,39.0408,38.9796,39.2142,39.0460,39.0803,38.9170,39.0910,38.9288,38.8320,39.3195,38.9472,39.0236,38.6707,38.9288,39.0504,38.6450,39.1421,38.8495,38.7691,38.8734,39.0138,38.3054,38.5359,38.6012,38.3726,38.4680,38.4790,38.8391,39.2823,39.0380,38.7801,38.8179,39.0967,38.9136,38.8922,39.1643,39.1215,38.8595,38.7441,38.8897,39.0095,38.9518,38.9598,38.9840,38.7066,39.0682,39.0510,38.7983,39.1595,38.8209,38.7363,38.6426,38.4998,38.6024,38.5284,38.2159,38.2106,37.9682,38.9779,38.3979,38.9694,39.0071,39.2928,39.1229,39.0975,39.2905,39.1438,39.1307,39.0118,38.9635,39.0402,38.7768,39.0406,39.0964,39.0601,39.1953,38.9207,39.3141,39.3101,38.9021,39.0126,39.0059,39.1816,38.8126,38.7655,38.8288,38.9967,38.1000,38.5527,38.6037,38.5860,38.5807,38.6946,39.1572,38.9491,39.0816,39.2773,39.0649,38.9935,38.6443,39.0526,38.9700,38.7598,39.1002,39.0981,38.7875,39.0743,38.6011,39.0271,39.0248,38.7360,38.6328,39.0644,38.8461,38.8590,38.8148,38.9388,38.9329,38.6423,38.2483,38.3958,38.1529,38.9702,38.9196,39.2502,39.0415,39.1818,38.8011,39.4181,39.3507,39.3783,39.2062,39.1706,38.9754,39.3751,38.7152,39.0460,38.8463,39.1507,39.2564,39.3655,39.4832,39.2019,39.0385,39.2579,39.0567,38.7628,38.9655,38.7923,39.3303,38.5639,38.7759,38.7201,38.4032,38.6692,38.9536,38.9914,39.0542,39.1895,39.1331,38.8851,38.9015,39.0919,39.0752,39.1303,39.0239,38.9835,38.7642,38.9873,38.7130,39.3604,38.8466,39.4515,39.1889,39.2902,38.9290,39.1624,39.3369,38.9714,39.0194,39.0236,38.8264,38.6358,38.3981,38.7272,38.7604,38.8151,38.8107,39.0841,39.3552,39.4049,38.8710,39.1386,39.1966,39.1318,39.0759,39.0460,39.2417,38.9781,39.0367,38.8218,39.1091,39.0068,39.0884,39.3868,39.4775,39.0189,38.9874,39.3613,39.3046,39.4004,38.8330,38.9116,38.9195,38.8546,38.4772,38.3698,38.7822,38.6791,38.7208,38.6446,39.3708,39.2029,39.2858,39.3872,39.3706,39.0435,38.9707,39.0278,39.1375,39.0535,38.8236,38.9185,38.8254,39.2230,39.2858,39.1782,39.2189,38.9289,38.9310,39.4252,39.1628,39.0058,39.1553,38.9992,39.2534,38.5420,38.3175,38.4479,38.3735,38.7231,38.9434,38.8554,39.1184,39.2224,39.0473,38.9092,39.2000,39.1116,39.3419,39.0428,39.0967,39.0496,39.2143,38.9014,39.2917,39.1151,38.9547,39.1117,39.2008,39.4239,39.4225,39.2211,39.2763,39.1488,39.0971,38.9300,39.3825,38.8862,38.5323,38.6810,38.9026,38.6492,38.7187,39.2177,39.1726,39.0065,39.3107,39.0125,39.1171,39.2092,39.2752,39.1724,39.2692,39.1551,38.9888,38.9861,38.8879,39.0377,39.1284,39.1964,39.3648,39.0535,39.3155,39.3101,39.0246,38.9380,38.8300,39.1718,38.9201,38.9664,38.5568,39.1596,38.5447,39.1927,38.9165,39.2267,39.2439,39.1810,39.5787,39.0875,39.2889,39.4170,39.2362,39.3935,39.3490,39.1775,38.9919,39.7378,39.3772,38.9725,38.8479,39.2547,39.4874,39.5564,39.1797,39.3227,39.3282,39.0059,39.5203,39.1508,39.2711,39.1452,38.6190,38.8300,39.0308,39.1159,39.0772,39.2106,38.8227,38.9866,39.0326,39.3872,39.2198,39.2399,39.3415,39.2116,39.4255,39.3057,39.0939,39.2679,39.4497,39.3403,39.0471,39.3592,39.0877,39.2291,39.3508,39.1304,39.5077,39.0529,39.2632,39.4770,38.9673,38.7870,38.9962,38.7790,38.8995,39.1868,39.0668,39.5812,39.4203,39.6328,39.0870,39.2280,39.3093,39.5322,39.2670,39.3537,39.4684,39.3386,39.1627,39.3178,39.0814,39.1570,38.9938,39.3081,39.4811,39.1633,39.1428,39.1112,39.1702,38.9186,39.3336,39.0468,38.9525,39.0500,38.8225,39.2183,39.1106,38.4439,39.0389,39.2409,39.2171,39.3061,39.0813,39.2464,39.2919,39.4920,39.2076,39.3620,39.4637,39.3350,39.2864,39.1830,39.3283,39.1888,39.3985,39.4298,39.3593,39.1372,39.2072,39.1468,39.0696,39.3500,39.0949,39.2116,39.0392,39.0131,38.7075,38.6849,38.7892,39.1021,39.0032,39.0443,39.4392,39.2724,39.0773,39.2108,39.7071,39.2272,39.0672,39.0614,39.6461,39.5390,39.5351,39.2555,39.3961,39.6241,39.2152,39.5560,39.2522,39.2396,39.4568,39.0346,39.4031,39.1064,38.7833,39.0130,39.5672,39.3885,38.7976,38.7954,38.5985,38.7388,38.8303,39.3794,39.2100,39.3042,39.2201,39.2253,39.2924,39.2448,38.8951,39.5709,39.8896,39.4771,39.2567,39.4067,39.1528,39.1594,39.1639,39.3920,39.4452,39.2422,39.2461,39.0818,39.3077,39.1755,38.9052,39.1821,38.9694,39.3465,38.7242,39.1715,39.2363,39.2111,38.9756,39.4053,39.5221,39.0962,39.0192,39.0435,39.7511,38.9230,39.6226,39.4550,39.7850,39.4618,39.7674,39.2462,39.8015,39.2705,39.3985,39.6832,39.6722,39.4448,39.4209,39.0501,39.3405,38.9778,39.3757,39.4319,39.2857,39.0474,38.8462,39.3677,39.0360,38.4353,38.9914,39.1075,39.3126,38.9892,39.0036,39.1226,38.9158,39.0963,39.1006,39.1964,39.5681,39.5167,39.4797,39.4097,39.5897,39.5602,39.3508,39.2477,39.2930,39.3225,39.2034,39.0958,39.0239,38.7654,39.3609,39.3272,38.9232,39.2379,39.1394,39.3962,39.4138,39.1721,39.3794,39.4434,39.4862,39.2553,39.3782,39.0825,39.8348,39.1271,39.3879,39.3604,39.3731,39.2838,38.9817,39.4058,39.8462,39.2592,39.1655,39.1576,39.3362,39.5465,38.8593,39.5478,39.5645,39.4270,39.3273,39.2082,38.9541,39.0900,38.8833,38.8613,38.9835,38.6588,38.8761,38.9718,39.3059,39.1742,38.9593,39.1513,39.4913,39.1967,39.2315,39.1575,39.3341,38.8975,39.1250,39.2960,39.6469,39.2645,39.3554,39.5190,39.4105,39.2630,39.3222,39.3072,39.2530,39.0120,39.1804,39.3121,39.0962,39.3030,39.0218,39.1505,38.9072,39.0065,38.9526,39.2691,39.7810,39.3560,39.1957,38.9574,39.6682,39.2969,39.3742,39.5895,39.8775,39.3349,39.0889,38.9125,39.5760,39.4494,39.4121,39.6904,39.7285,39.2692,39.4394,39.2080,39.2825,39.1006,39.0565,39.1678,39.2678,39.4253,38.9657,39.1374,39.4578,38.4666,39.1447,38.9739,39.4013,38.8314,39.3893,39.0358,39.2872,39.1189,39.3752,39.2997,39.6181,39.2012,39.2721,39.2627,39.4890,39.5833,39.1493,39.7321,39.4472,39.2467,39.1806,39.2127,38.8544,39.2518,38.9660,39.0071,39.1456,39.1881,38.8394,39.3763,38.9042,
22:6:17:17:13:27:804,1.6000,132.0000,35.8000,A,32.5821,71.6929,32.0900,99379,163.2880,0,0.0000,0.0000,0.0000,0.0000,0.0000,0.0000,0,0.0000,0.0000,0.0000,0.0000,0.0000,0.0000,0,0,0,0,0,0,0,0.00,0.00,0.00,0,
22:6:17:17:13:27:920,0.9000,162.0000,35.7000,A,32.5922,71.6993,32.1000,99379,163.2880,0,0.0000,0.0000,0.0000,0.0000,0.0000,0.0000,0,0.0000,0.0000,0.0000,0.0000,0.0000,0.0000,0,0,0,0,0,0,0,0.00,0.00,0.00,0,
22:6:17:17:13:28:27,0.9000,162.0000,35.7000,A,32.5996,71.6998,32.1000,99376,163.5417,0,0.0000,0.0000,0.0000,0.0000,0.0000,0.0000,0,0.0000,0.0000,0.0000,0.0000,0.0000,0.0000,0,0,0,0,0,0,0,0.00,0.00,0.00,0,
22:6:17:17:13:28:143,0.9000,129.0000,35.8000,A,32.6015,71.7093,32.1000,99380,163.2034,0,0.0000,0.0000,0.0000,0.0000,0.0000,0.0000,0,0.0000,0.0000,0.0000,0.0000,0.0000,0.0000,0,0,0,0,0,0,0,0.00,0.00,0.00,0,
22:6:17:17:13:28:246,0.9000,129.0000,35.8000,A,32.6101,71.6731,32.1000,99378,163.3726,0,0.0000,0.0000,0.0000,0.0000,0.0000,0.0000,0,0.0000,0.0000,0.0000,0.0000,0.0000,0.0000,0,0,0,0,0,0,0,0.00,0.00,0.00,0,
22:6:17:17:13:28:366,0.8000,141.0000,35.8000,A,32.6080,71.6815,32.1000,99376,163.5417,0,0.0000,0.0000,0.0000,0.0000,0.0000,0.0000,0,0.0000,0.0000,0.0000,0.0000,0.0000,0.0000,0,0,0,0,0,0,0,0.00,0.00,0.00,0,
22:6:17:17:13:28:470,0.8000,141.0000,35.8000,A,32.6172,71.6837,32.1000,99378,163.3726,0,0.0000,0.0000,0.0000,0.0000,0.0000,0.0000,0,0.0000,0.0000,0.0000,0.0000,0.0000,0.0000,0,0,0,0,0,0,0,0.00,0.00,0.00,0,
22:6:17:17:13:28:590,0.5000,104.0000,35.8000,A,32.6138,71.6640,32.1000,99377,163.4571,0,0.0000,0.0000,0.0000,0.0000,0.0000,0.0000,0,0.0000,0.0000,0.0000,0.0000,0.0000,0.0000,0,0,0,0,0,0,0,0.00,0.00,0.00,0,
22:6:17:17:13:28:694,0.5000,104.0000,35.8000,A,32.6231,71.6596,32.1100,99378,163.3726,0,0.0000,0.0000,0.0000,0.0000,0.0000,0.0000,0,0.0000,0.0000,0.0000,0.0000,0.0000,0.0000,0,0,0,0,0,0,0,0.00,0.00,0.00,0,38.8695,38.8667,39.0262,39.0030,38.6994,38.9369,38.8444,39.2688,39.1000,39.3208,38.8325,39.4453,38.6853,38.7764,38.5458,38.9683,38.4136,38.5910,38.7450,39.0985,38.4456,38.9452,38.7892,39.2805,38.2454,38.7891,38.0218,38.5401,38.3130,38.3905,38.0688,38.0420,38.6993,38.2714,39.5711,39.0952,39.3804,38.4385,39.5360,39.1279,39.0226,38.3131,39.2778,39.0694,38.9240,38.5078,39.3674,38.8203,38.8202,38.5805,39.0542,39.0438,39.0481,38.2973,39.2296,38.9472,39.2610,38.2636,39.1911,38.4074,38.1807,37.8511,38.4409,37.8489,38.5088,38.7969,38.8708,38.9909,38.8143,38.7776,39.0638,39.4533,39.0708,39.0057,38.9394,39.2044,38.6398,38.8950,38.8555,39.1267,38.8113,38.9912,38.8547,38.8930,38.7509,39.0964,38.8293,38.8075,38.9651,38.4651,38.4806,38.8123,38.5583,38.7286,38.1816,38.5967,38.8214,38.4461,38.8136,38.6732,39.0888,38.6601,39.3968,39.1075,38.6889,38.8596,38.9240,38.7223,38.7144,38.7564,39.2921,38.9747,39.4004,38.8499,39.3069,38.9316,39.1776,38.8208,39.1201,39.0086,39.3719,38.4887,38.9926,38.8105,38.2701,37.8532,38.7564,38.4140,39.0005,38.9229,38.7996,39.1327,38.9587,39.2487,39.2889,39.2474,38.8461,39.0968,39.0353,39.0889,39.0640,38.9027,38.9108,39.0682,39.0841,39.1691,38.9442,39.2849,38.8666,38.8715,38.7163,39.2943,39.2052,38.7722,38.7884,38.9558,38.4686,38.6065,38.3717,38.5279,38.7133,38.2112,39.0124,39.1795,39.4259,38.9331,39.4024,38.9217,39.2778,38.5084,39.3322,38.8354,39.3388,39.1232,39.3744,38.9625,39.5033,38.7748,39.1528,39.0476,39.1718,38.9658,39.1902,38.8687,39.1481,38.3429,38.8912,38.9549,38.4083,38.6405,38.5228,38.3756,38.7959,38.8548,39.0903,39.5306,39.0358,38.9270,39.2783,38.9926,38.9425,39.1786,39.0415,39.4014,38.8013,39.1372,39.0696,38.9716,38.8780,38.9323,39.0902,39.4577,38.7797,39.0129,39.2814,39.0243,38.9430,39.2531,38.6484,38.7778,38.5868,38.7243,38.7428,38.9248,38.7972,38.5969,39.1177,38.8969,39.1487,39.4796,39.3348,39.0841,38.9142,38.7961,39.4071,39.3466,39.1099,39.0808,39.1129,39.0359,39.4864,38.8695,39.2813,39.3613,39.4165,39.1022,39.4441,39.0459,38.9434,38.5598,38.9845,39.0182,38.7633,38.2422,38.8539,38.5871,39.0288,38.9370,38.9294,39.4805,38.9450,39.3198,39.1622,39.3217,38.8542,39.0476,39.2189,39.6651,38.8548,39.0175,38.6976,39.2343,39.1747,38.9224,39.1117,39.3086,39.0427,39.2591,38.7766,39.2786,38.9544,38.8032,39.1003,38.8780,38.7052,38.4289,38.7700,38.9100,38.8063,38.5569,38.9463,39.5651,39.1690,39.1482,39.5129,39.0844,39.3190,38.9936,39.3019,39.0117,39.3255,38.7024,39.3349,38.8484,39.3492,38.8757,39.6005,39.2418,39.3477,38.9537,39.5508,39.3370,39.2887,39.0227,39.1253,38.9421,38.8406,38.5138,38.7612,38.7685,38.9335,39.0696,38.8784,39.5876,39.2458,39.0106,39.2467,39.6380,39.4359,39.0213,39.0663,39.2225,39.0735,39.1945,38.9251,39.2703,38.8538,39.2257,39.2812,39.4731,39.4478,39.4003,39.0924,39.0961,39.1724,39.2238,38.9531,38.8630,38.5715,38.8311,39.0738,38.8439,39.1498,39.1109,39.3439,39.0235,39.4527,39.0112,39.2940,39.2958,39.3356,39.0030,39.2981,39.4398,39.2814,39.0118,39.2548,39.2025,38.8798,38.7193,39.3219,39.0956,39.1799,39.1903,39.2846,39.1996,39.0653,38.6977,39.2978,38.7810,38.7589,38.4082,39.1044,38.7511,38.8393,39.0427,39.0754,39.5404,39.2043,39.3881,39.4244,39.5682,39.2913,39.3617,39.2683,39.6217,39.3445,39.2607,39.0470,39.2125,39.1388,39.1161,39.2783,39.6131,39.1439,39.1601,39.0453,39.1489,39.0295,39.3407,38.8498,39.3976,38.6702,39.0816,38.8527,38.9744,38.8697,38.7325,39.1636,39.0158,39.2770,39.0552,39.5130,39.3965,39.3666,39.0664,39.6328,39.3009,39.5752,39.1168,39.3935,39.3284,39.1837,39.2111,39.3402,39.4020,39.3556,38.9391,39.4060,39.0741,39.3321,38.9797,39.6037,38.8269,39.0808,38.6843,39.0877,39.1045,38.6446,39.5546,39.4312,39.5456,39.1725,39.2128,39.2513,39.5890,39.1024,39.3931,39.3772,39.4504,39.2191,39.4315,39.6265,39.2067,39.0374,39.4041,39.3316,39.6069,39.3331,38.9800,38.9818,39.7518,39.0972,39.1475,39.2326,39.2418,38.9057,39.1185,38.8738,39.0521,39.1377,38.6991,39.5401,39.2393,39.2725,39.1037,39.5278,39.3144,39.6187,38.9326,39.4878,39.3426,39.4617,39.0223,39.4515,39.3511,39.1728,39.4212,39.7006,39.3820,39.5557,39.2298,39.2735,39.0920,39.4774,38.6462,39.1766,39.0613,38.9739,38.7291,39.1792,38.6237,38.5526,39.5010,39.5950,39.5653,39.2954,39.3642,39.2339,39.6783,39.0992,39.3447,39.3877,39.6223,39.4184,39.3712,39.4233,39.5219,39.3558,39.1945,39.4317,39.8168,39.1161,39.2870,39.3652,39.2216,39.2842,39.0692,39.0358,39.5287,39.0715,38.9253,39.0040,39.1013,39.2492,38.4799,39.3306,39.4067,39.2674,38.9212,39.6670,39.4686,39.2207,39.0694,39.8479,39.4638,39.3138,38.9880,39.5326,39.3216,39.4326,39.1864,39.6649,39.3216,39.5164,39.1204,39.3626,39.1763,38.9944,38.7693,39.3093,39.1566,38.9621,38.7455,39.4845,38.6953,38.8378,39.6667,39.2463,39.4727,39.2858,39.4804,39.0663,39.5588,39.2543,39.4436,39.6299,39.9108,39.1880,39.7486,39.2693,39.6302,39.2938,39.3782,39.2563,39.7981,39.0116,39.5474,39.3886,39.1504,39.1601,39.1815,39.2874,39.0697,38.8936,38.9741,39.0067,39.1639,38.5649,38.8238,39.2347,39.3342,38.9494,38.8577,39.4113,38.9378,39.2240,39.1228,39.9305,39.8946,39.6437,39.0632,39.6860,39.4633,39.6871,39.2268,39.6738,39.7731,39.4502,39.0753,39.5375,39.5199,39.3707,38.7404,39.7889,39.2896,39.1895,38.8009,39.3336,39.2383,38.5937,39.1183,39.2792,39.6128,38.9373,39.3331,39.1050,39.6321,38.8323,39.1979,39.3833,39.8130,39.1564,39.2598,39.4287,39.5140,39.4362,39.4439,39.3363,39.9273,39.2565,39.2977,39.4096,39.5307,39.2872,39.1185,39.2305,39.4344,38.9305,39.0115,38.6822,39.3177,38.7890,38.7002,39.2872,39.5127,39.1321,39.3270,39.6116,39.3474,39.3247,39.0948,39.4419,39.1987,39.1768,38.9955,39.1139,39.3630,39.8541,39.3775,39.8003,39.2777,39.8610,39.0316,39.5960,39.4376,39.4667,38.8645,39.4399,39.1173,39.0667,38.4824,39.4798,39.3380,38.8178,39.2870,39.4886,39.9077,39.3780,39.5042,39.3336,39.6220,39.1524,39.5011,39.1149,39.8391,39.3576,39.0576,39.2576,39.8589,39.1537,39.3815,39.7131,39.5340,39.1303,39.2420,39.3998,39.9206,38.9516,38.8344,39.1896,39.5799,39.0669,39.2887,39.1581,39.5874,39.0227,38.9565,39.3038,38.8382,39.1462,38.8637,39.6972,39.1347,39.0804,39.2302,39.5942,39.8044,39.4909,39.1344,39.5518,39.0362,39.8699,38.8550,40.0199,39.3073,39.6985,38.7132,39.8481,39.3890,39.2081,38.4581,39.5041,39.1656,38.9345,38.4665,39.5058,39.1384,
22:6:17:17:13:28:869,0.7000,151.0000,35.8000,A,32.5912,71.6549,32.0900,99378,163.3726,0,0.0000,0.0000,0.0000,0.0000,0.0000,0.0000,0,0.0000,0.0000,0.0000,0.0000,0.0000,0.0000,0,0,0,0,0,0,0,0.00,0.00,0.00,0,
22:6:17:17:13:28:976,0.7000,151.0000,35.8000,A,32.6088,71.6281,32.1000,99375,163.6263,0,0.0000,0.0000,0.0000,0.0000,0.0000,0.0000,0,0.0000,0.0000,0.0000,0.0000,0.0000,0.0000,0,0,0,0,0,0,0,0.00,0.00,0.00,0,
22:6:17:17:13:29:92,0.5000,120.0000,35.9000,A,32.6101,71.6247,32.1100,99375,163.6263,0,0.0000,0.0000,0.0000,0.0000,0.0000,0.0000,0,0.0000,0.0000,0.0000,0.0000,0.0000,0.0000,0,0,0,0,0,0,0,0.00,0.00,0.00,0,
22:6:17:17:13:29:199,0.5000,120.0000,35.9000,A,32.6239,71.6345,32.1100,99376,163.5417,0,0.0000,0.0000,0.0000,0.0000,0.0000,0.0000,0,0.0000,0.0000,0.0000,0.0000,0.0000,0.0000,0,0,0,0,0,0,0,0.00,0.00,0.00,0,
22:6:17:17:13:29:315,0.7000,149.0000,35.8000,A,32.6231,71.6220,32.1100,99381,163.1188,0,0.0000,0.0000,0.0000,0.0000,0.0000,0.0000,0,0.0000,0.0000,0.0000,0.0000,0.0000,0.0000,0,0,0,0,0,0,0,0.00,0.00,0.00,0,
22:6:17:17:13:29:419,0.7000,149.0000,35.8000,A,32.6311,71.6088,32.1100,99374,163.7108,0,0.0000,0.0000,0.0000,0.0000,0.0000,0.0000,0,0.0000,0.0000,0.0000,0.0000,0.0000,0.0000,0,0,0,0,0,0,0,0.00,0.00,0.00,0,
22:6:17:17:13:29:539,0.8000,117.0000,35.8000,A,32.6258,71.6121,32.1100,99373,163.7954,0,0.0000,0.0000,0.0000,0.0000,0.0000,0.0000,0,0.0000,0.0000,0.0000,0.0000,0.0000,0.0000,0,0,0,0,0,0,0,0.00,0.00,0.00,0,
22:6:17:17:13:29:642,0.8000,117.0000,35.8000,A,32.6342,71.5823,32.1100,99372,163.8800,0,0.0000,0.0000,0.0000,0.0000,0.0000,0.0000,0,0.0000,0.0000,0.0000,0.0000,0.0000,0.0000,0,0,0,0,0,0,0,0.00,0.00,0.00,0,
