Timestamp,Wind speed,Wind angle,Acoustic temperature windsensor,Temperature validity,Temperature_aht10,Relative humidity_aht10,Temperature_ms5611,Pressure_ms5611,Absolute_altitude_ms5611,timestamp_pix_attitude,Roll,Pitch,Yaw,Roll speed,Pitch speed,Yaw speed,timestamp_pix_loc_pos,x,y,z,vx,vy,vz,timestamp_pix_gps,pix_lat,pix_lon,pix_alt,pix_gps_vx,pix_gps_vy,pix_gps_vz,latitude,longitude,altitude_gps,relative_altitude_gps,Pixel_0,Pixel_1,Pixel_2,Pixel_3,Pixel_4,Pixel_5,Pixel_6,Pixel_7,Pixel_8,Pixel_9,Pixel_10,Pixel_11,Pixel_12,Pixel_13,Pixel_14,Pixel_15,Pixel_16,Pixel_17,Pixel_18,Pixel_19,Pixel_20,Pixel_21,Pixel_22,Pixel_23,Pixel_24,Pixel_25,Pixel_26,Pixel_27,Pixel_28,Pixel_29,Pixel_30,Pixel_31,Pixel_32,Pixel_33,Pixel_34,Pixel_35,Pixel_36,Pixel_37,Pixel_38,Pixel_39,Pixel_40,Pixel_41,Pixel_42,Pixel_43,Pixel_44,Pixel_45,Pixel_46,Pixel_47,Pixel_48,Pixel_49,Pixel_50,Pixel_51,Pixel_52,Pixel_53,Pixel_54,Pixel_55,Pixel_56,Pixel_57,Pixel_58,Pixel_59,Pixel_60,Pixel_61,Pixel_62,Pixel_63,Pixel_64,Pixel_65,Pixel_66,Pixel_67,Pixel_68,Pixel_69,Pixel_70,Pixel_71,Pixel_72,Pixel_73,Pixel_74,Pixel_75,Pixel_76,Pixel_77,Pixel_78,Pixel_79,Pixel_80,Pixel_81,Pixel_82,Pixel_83,Pixel_84,Pixel_85,Pixel_86,Pixel_87,Pixel_88,Pixel_89,Pixel_90,Pixel_91,Pixel_92,Pixel_93,Pixel_94,Pixel_95,Pixel_96,Pixel_97,Pixel_98,Pixel_99,Pixel_100,Pixel_101,Pixel_102,Pixel_103,Pixel_104,Pixel_105,Pixel_106,Pixel_107,Pixel_108,Pixel_109,Pixel_110,Pixel_111,Pixel_112,Pixel_113,Pixel_114,Pixel_115,Pixel_116,Pixel_117,Pixel_118,Pixel_119,Pixel_120,Pixel_121,Pixel_122,Pixel_123,Pixel_124,Pixel_125,Pixel_126,Pixel_127,Pixel_128,Pixel_129,Pixel_130,Pixel_131,Pixel_132,Pixel_133,Pixel_134,Pixel_135,Pixel_136,Pixel_137,Pixel_138,Pixel_139,Pixel_140,Pixel_141,Pixel_142,Pixel_143,Pixel_144,Pixel_145,Pixel_146,Pixel_147,Pixel_148,Pixel_149,Pixel_150,Pixel_151,Pixel_152,Pixel_153,Pixel_154,Pixel_155,Pixel_156,Pixel_157,Pixel_158,Pixel_159,Pixel_160,Pixel_161,Pixel_162,Pixel_163,Pixel_164,Pixel_165,Pixel_166,Pixel_167,Pixel_168,Pixel_169,Pixel_170,Pixel_171,Pixel_172,Pixel_173,Pixel_174,Pixel_175,Pixel_176,Pixel_177,Pixel_178,Pixel_179,Pixel_180,Pixel_181,Pixel_182,Pixel_183,Pixel_184,Pixel_185,Pixel_186,Pixel_187,Pixel_188,Pixel_189,Pixel_190,Pixel_191,Pixel_192,Pixel_193,Pixel_194,Pixel_195,Pixel_196,Pixel_197,Pixel_198,Pixel_199,Pixel_200,Pixel_201,Pixel_202,Pixel_203,Pixel_204,Pixel_205,Pixel_206,Pixel_207,Pixel_208,Pixel_209,Pixel_210,Pixel_211,Pixel_212,Pixel_213,Pixel_214,Pixel_215,Pixel_216,Pixel_217,Pixel_218,Pixel_219,Pixel_220,Pixel_221,Pixel_222,Pixel_223,Pixel_224,Pixel_225,Pixel_226,Pixel_227,Pixel_228,Pixel_229,Pixel_230,Pixel_231,Pixel_232,Pixel_233,Pixel_234,Pixel_235,Pixel_236,Pixel_237,Pixel_238,Pixel_239,Pixel_240,Pixel_241,Pixel_242,Pixel_243,Pixel_244,Pixel_245,Pixel_246,Pixel_247,Pixel_248,Pixel_249,Pixel_250,Pixel_251,Pixel_252,Pixel_253,Pixel_254,Pixel_255,Pixel_256,Pixel_257,Pixel_258,Pixel_259,Pixel_260,Pixel_261,Pixel_262,Pixel_263,Pixel_264,Pixel_265,Pixel_266,Pixel_267,Pixel_268,Pixel_269,Pixel_270,Pixel_271,Pixel_272,Pixel_273,Pixel_274,Pixel_275,Pixel_276,Pixel_277,Pixel_278,Pixel_279,Pixel_280,Pixel_281,Pixel_282,Pixel_283,Pixel_284,Pixel_285,Pixel_286,Pixel_287,Pixel_288,Pixel_289,Pixel_290,Pixel_291,Pixel_292,Pixel_293,Pixel_294,Pixel_295,Pixel_296,Pixel_297,Pixel_298,Pixel_299,Pixel_300,Pixel_301,Pixel_302,Pixel_303,Pixel_304,Pixel_305,Pixel_306,Pixel_307,Pixel_308,Pixel_309,Pixel_310,Pixel_311,Pixel_312,Pixel_313,Pixel_314,Pixel_315,Pixel_316,Pixel_317,Pixel_318,Pixel_319,Pixel_320,Pixel_321,Pixel_322,Pixel_323,Pixel_324,Pixel_325,Pixel_326,Pixel_327,Pixel_328,Pixel_329,Pixel_330,Pixel_331,Pixel_332,Pixel_333,Pixel_334,Pixel_335,Pixel_336,Pixel_337,Pixel_338,Pixel_339,Pixel_340,Pixel_341,Pixel_342,Pixel_343,Pixel_344,Pixel_345,Pixel_346,Pixel_347,Pixel_348,Pixel_349,Pixel_350,Pixel_351,Pixel_352,Pixel_353,Pixel_354,Pixel_355,Pixel_356,Pixel_357,Pixel_358,Pixel_359,Pixel_360,Pixel_361,Pixel_362,Pixel_363,Pixel_364,Pixel_365,Pixel_366,Pixel_367,Pixel_368,Pixel_369,Pixel_370,Pixel_371,Pixel_372,Pixel_373,Pixel_374,Pixel_375,Pixel_376,Pixel_377,Pixel_378,Pixel_379,Pixel_380,Pixel_381,Pixel_382,Pixel_383,Pixel_384,Pixel_385,Pixel_386,Pixel_387,Pixel_388,Pixel_389,Pixel_390,Pixel_391,Pixel_392,Pixel_393,Pixel_394,Pixel_395,Pixel_396,Pixel_397,Pixel_398,Pixel_399,Pixel_400,Pixel_401,Pixel_402,Pixel_403,Pixel_404,Pixel_405,Pixel_406,Pixel_407,Pixel_408,Pixel_409,Pixel_410,Pixel_411,Pixel_412,Pixel_413,Pixel_414,Pixel_415,Pixel_416,Pixel_417,Pixel_418,Pixel_419,Pixel_420,Pixel_421,Pixel_422,Pixel_423,Pixel_424,Pixel_425,Pixel_426,Pixel_427,Pixel_428,Pixel_429,Pixel_430,Pixel_431,Pixel_432,Pixel_433,Pixel_434,Pixel_435,Pixel_436,Pixel_437,Pixel_438,Pixel_439,Pixel_440,Pixel_441,Pixel_442,Pixel_443,Pixel_444,Pixel_445,Pixel_446,Pixel_447,Pixel_448,Pixel_449,Pixel_450,Pixel_451,Pixel_452,Pixel_453,Pixel_454,Pixel_455,Pixel_456,Pixel_457,Pixel_458,Pixel_459,Pixel_460,Pixel_461,Pixel_462,Pixel_463,Pixel_464,Pixel_465,Pixel_466,Pixel_467,Pixel_468,Pixel_469,Pixel_470,Pixel_471,Pixel_472,Pixel_473,Pixel_474,Pixel_475,Pixel_476,Pixel_477,Pixel_478,Pixel_479,Pixel_480,Pixel_481,Pixel_482,Pixel_483,Pixel_484,Pixel_485,Pixel_486,Pixel_487,Pixel_488,Pixel_489,Pixel_490,Pixel_491,Pixel_492,Pixel_493,Pixel_494,Pixel_495,Pixel_496,Pixel_497,Pixel_498,Pixel_499,Pixel_500,Pixel_501,Pixel_502,Pixel_503,Pixel_504,Pixel_505,Pixel_506,Pixel_507,Pixel_508,Pixel_509,Pixel_510,Pixel_511,Pixel_512,Pixel_513,Pixel_514,Pixel_515,Pixel_516,Pixel_517,Pixel_518,Pixel_519,Pixel_520,Pixel_521,Pixel_522,Pixel_523,Pixel_524,Pixel_525,Pixel_526,Pixel_527,Pixel_528,Pixel_529,Pixel_530,Pixel_531,Pixel_532,Pixel_533,Pixel_534,Pixel_535,Pixel_536,Pixel_537,Pixel_538,Pixel_539,Pixel_540,Pixel_541,Pixel_542,Pixel_543,Pixel_544,Pixel_545,Pixel_546,Pixel_547,Pixel_548,Pixel_549,Pixel_550,Pixel_551,Pixel_552,Pixel_553,Pixel_554,Pixel_555,Pixel_556,Pixel_557,Pixel_558,Pixel_559,Pixel_560,Pixel_561,Pixel_562,Pixel_563,Pixel_564,Pixel_565,Pixel_566,Pixel_567,Pixel_568,Pixel_569,Pixel_570,Pixel_571,Pixel_572,Pixel_573,Pixel_574,Pixel_575,Pixel_576,Pixel_577,Pixel_578,Pixel_579,Pixel_580,Pixel_581,Pixel_582,Pixel_583,Pixel_584,Pixel_585,Pixel_586,Pixel_587,Pixel_588,Pixel_589,Pixel_590,Pixel_591,Pixel_592,Pixel_593,Pixel_594,Pixel_595,Pixel_596,Pixel_597,Pixel_598,Pixel_599,Pixel_600,Pixel_601,Pixel_602,Pixel_603,Pixel_604,Pixel_605,Pixel_606,Pixel_607,Pixel_608,Pixel_609,Pixel_610,Pixel_611,Pixel_612,Pixel_613,Pixel_614,Pixel_615,Pixel_616,Pixel_617,Pixel_618,Pixel_619,Pixel_620,Pixel_621,Pixel_622,Pixel_623,Pixel_624,Pixel_625,Pixel_626,Pixel_627,Pixel_628,Pixel_629,Pixel_630,Pixel_631,Pixel_632,Pixel_633,Pixel_634,Pixel_635,Pixel_636,Pixel_637,Pixel_638,Pixel_639,Pixel_640,Pixel_641,Pixel_642,Pixel_643,Pixel_644,Pixel_645,Pixel_646,Pixel_647,Pixel_648,Pixel_649,Pixel_650,Pixel_651,Pixel_652,Pixel_653,Pixel_654,Pixel_655,Pixel_656,Pixel_657,Pixel_658,Pixel_659,Pixel_660,Pixel_661,Pixel_662,Pixel_663,Pixel_664,Pixel_665,Pixel_666,Pixel_667,Pixel_668,Pixel_669,Pixel_670,Pixel_671,Pixel_672,Pixel_673,Pixel_674,Pixel_675,Pixel_676,Pixel_677,Pixel_678,Pixel_679,Pixel_680,Pixel_681,Pixel_682,Pixel_683,Pixel_684,Pixel_685,Pixel_686,Pixel_687,Pixel_688,Pixel_689,Pixel_690,Pixel_691,Pixel_692,Pixel_693,Pixel_694,Pixel_695,Pixel_696,Pixel_697,Pixel_698,Pixel_699,Pixel_700,Pixel_701,Pixel_702,Pixel_703,Pixel_704,Pixel_705,Pixel_706,Pixel_707,Pixel_708,Pixel_709,Pixel_710,Pixel_711,Pixel_712,Pixel_713,Pixel_714,Pixel_715,Pixel_716,Pixel_717,Pixel_718,Pixel_719,Pixel_720,Pixel_721,Pixel_722,Pixel_723,Pixel_724,Pixel_725,Pixel_726,Pixel_727,Pixel_728,Pixel_729,Pixel_730,Pixel_731,Pixel_732,Pixel_733,Pixel_734,Pixel_735,Pixel_736,Pixel_737,Pixel_738,Pixel_739,Pixel_740,Pixel_741,Pixel_742,Pixel_743,Pixel_744,Pixel_745,Pixel_746,Pixel_747,Pixel_748,Pixel_749,Pixel_750,Pixel_751,Pixel_752,Pixel_753,Pixel_754,Pixel_755,Pixel_756,Pixel_757,Pixel_758,Pixel_759,Pixel_760,Pixel_761,Pixel_762,Pixel_763,Pixel_764,Pixel_765,Pixel_766,Pixel_767,
22:6:17:17:37:17:425,0.0000,0.0000,0.0000,,0.0000,0.0000,31.9700,99398,161.6812,1074303,-0.0019,-0.0242,2.8217,0.0077,0.0101,-0.0007,0,0.0000,0.0000,0.0000,0.0000,0.0000,0.0000,0,0,0,0,0,0,0,0.00,0.00,0.00,0,
22:6:17:17:37:17:520,0.0000,0.0000,0.0000,,0.0000,0.0000,31.9800,99400,161.5121,1074862,-0.0019,-0.0240,2.8213,-0.0015,-0.0067,-0.0040,0,0.0000,0.0000,0.0000,0.0000,0.0000,0.0000,0,0,0,0,0,0,0,0.00,0.00,0.00,0,
22:6:17:17:37:17:632,0.0000,0.0000,0.0000,,0.0000,0.0000,32.0000,99404,161.1739,1074925,-0.0020,-0.0244,2.8214,-0.0109,-0.0058,-0.0024,0,0.0000,0.0000,0.0000,0.0000,0.0000,0.0000,0,0,0,0,0,0,0,0.00,0.00,0.00,0,
22:6:17:17:37:17:728,0.0000,0.0000,0.0000,,0.0000,0.0000,32.0000,99397,161.7658,1075047,-0.0017,-0.0241,2.8213,-0.0019,0.0013,-0.0009,0,0.0000,0.0000,0.0000,0.0000,0.0000,0.0000,0,0,0,0,0,0,0,0.00,0.00,0.00,0,
22:6:17:17:37:17:839,0.6000,0.0000,0.0000,,0.0000,0.0000,32.0100,99402,161.3430,1075172,-0.0018,-0.0242,2.8214,0.0006,-0.0078,-0.0017,0,0.0000,0.0000,0.0000,0.0000,0.0000,0.0000,0,0,0,0,0,0,0,0.00,0.00,0.00,0,
22:6:17:17:37:17:935,0.6000,0.0000,0.0000,,0.0000,0.0000,32.0200,99403,161.2585,1075295,-0.0018,-0.0238,2.8214,-0.0063,0.0085,-0.0012,0,0.0000,0.0000,0.0000,0.0000,0.0000,0.0000,0,0,0,0,0,0,0,0.00,0.00,0.00,0,44.2141,43.2782,43.6619,43.6751,44.1946,43.5736,43.6492,43.7560,43.3920,43.6711,43.4316,43.4112,43.5291,43.3726,43.0080,43.5464,43.3733,43.3331,43.1277,43.3954,43.5365,43.5956,43.0984,43.5458,43.5570,43.5672,43.2375,43.5080,0.0000,0.0000,0.0000,0.0000,0.0000,0.0000,0.0000,0.0000,0.0000,0.0000,0.0000,0.0000,0.0000,0.0000,0.0000,0.0000,0.0000,0.0000,0.0000,0.0000,0.0000,0.0000,0.0000,0.0000,0.0000,0.0000,0.0000,0.0000,0.0000,0.0000,0.0000,0.0000,0.0000,0.0000,0.0000,0.0000,0.0000,0.0000,0.0000,0.0000,0.0000,0.0000,0.0000,0.0000,0.0000,0.0000,0.0000,0.0000,0.0000,0.0000,0.0000,0.0000,0.0000,0.0000,0.0000,0.0000,0.0000,0.0000,0.0000,0.0000,0.0000,0.0000,0.0000,0.0000,0.0000,0.0000,0.0000,0.0000,0.0000,0.0000,0.0000,0.0000,0.0000,0.0000,0.0000,0.0000,0.0000,0.0000,0.0000,0.0000,0.0000,0.0000,0.0000,0.0000,43.4805,42.9926,43.3858,42.8022,43.5934,43.3222,43.4789,42.7988,43.6312,43.2776,43.6258,43.0548,43.2629,43.4912,44.0010,43.2352,43.4971,43.8087,43.3048,43.6405,43.4413,43.2305,43.1003,43.3185,43.3559,43.5190,43.0095,43.3404,43.4334,42.9365,42.8378,43.3857,43.3144,43.4652,42.7336,43.0160,43.2918,43.2490,42.7504,43.4471,43.4556,43.4856,43.2484,43.6446,43.9272,43.3532,43.6399,43.9088,43.6613,43.3503,43.2180,43.0209,43.2624,42.9547,43.4181,42.8722,43.2203,42.9790,43.2089,42.9865,43.3271,43.3271,43.6437,43.0231,43.4990,42.9646,43.1707,43.1355,43.2184,42.9263,43.4305,43.3976,43.6261,43.2585,43.3860,43.3416,43.5623,43.5907,43.4390,43.4335,43.5666,43.6178,43.2746,43.6026,43.3700,43.4332,42.8707,43.1260,43.3223,43.3442,42.8074,43.3672,43.4073,43.2213,43.0808,43.2518,43.0252,43.3462,42.8144,43.1383,43.0815,43.0102,42.9644,43.5920,43.5366,43.5516,43.2746,43.5526,43.5460,43.8428,43.2700,43.5944,43.6424,43.2448,43.3588,42.6993,43.3783,43.0531,43.1619,43.1094,43.2168,42.9952,43.2452,42.7852,43.0670,43.1996,43.4853,43.0619,43.2727,43.0280,42.9342,42.9434,43.2220,42.8455,43.3488,43.1896,43.6170,43.3947,43.6635,43.1957,43.6287,43.0649,43.5985,43.5192,43.5162,43.0948,42.6975,43.1247,43.3116,43.4550,42.8679,43.5310,43.0432,43.3760,43.0808,43.3206,43.2664,43.1937,42.6875,43.1344,43.1052,43.2616,43.1326,43.0883,43.1703,42.8855,43.1419,43.7288,43.4016,43.1942,43.2111,43.2907,43.6034,43.1494,43.4075,43.8322,43.1858,43.1600,43.1203,42.5947,43.4720,43.3440,43.1280,42.5869,42.8495,43.0633,43.2473,42.8803,43.3822,43.0672,43.0930,42.9331,43.2231,43.1055,43.2530,42.9263,43.2706,42.9234,43.3741,43.0964,43.5114,43.2904,43.6283,43.0843,43.6366,43.4464,43.2719,43.2087,43.7383,43.5601,42.9717,43.7050,43.6020,43.0063,43.0746,43.2344,43.0224,42.9774,43.0695,43.4646,43.1650,43.0966,43.2851,43.1854,43.0513,42.9865,42.6720,43.1068,43.1248,43.2118,43.1576,43.4046,43.4147,43.4262,42.9937,43.4916,43.3977,43.6268,43.1156,43.9104,43.3109,43.3315,43.3378,43.0634,43.2665,43.0649,42.8922,42.8089,43.4544,42.8569,42.9481,43.1417,43.1816,42.8157,43.3991,42.7372,43.4409,43.0846,42.9321,42.9263,43.0991,43.0487,43.4212,43.2665,43.4101,42.9605,43.7120,43.3116,43.5001,43.4316,43.7477,43.5319,43.3028,43.5210,42.9813,43.3123,43.2907,43.1704,42.4840,42.8395,43.1636,43.1763,42.8425,43.5482,43.2648,43.1296,42.8316,43.1051,43.1854,43.1123,43.2303,43.5210,43.2455,43.0821,43.0849,43.4656,43.7241,43.2229,43.2333,43.5600,43.4464,43.3255,43.5772,43.6421,43.5991,42.9424,43.4857,43.0420,42.9815,42.8936,42.9629,42.4345,43.1925,42.9403,43.2795,42.8627,43.4547,43.3121,43.3876,42.9885,43.0443,42.9652,43.0917,42.7958,43.2685,42.8971,43.0803,43.2941,43.4997,43.3632,43.5895,43.0647,43.6329,43.1577,43.7065,43.6813,43.6544,43.4520,43.1510,43.3136,43.3844,43.2946,42.7612,43.3158,43.0134,43.2077,43.0720,43.5919,43.6961,43.4400,43.3934,43.0920,42.9612,43.2592,43.0120,43.3663,43.0168,43.1690,43.0567,43.5995,43.6653,43.0780,42.9900,43.4046,43.3727,43.3775,43.0843,43.9326,43.3296,43.4030,43.1755,43.4326,43.7393,43.5585,43.2749,43.4222,43.4644,43.0971,43.2718,43.1404,43.3427,42.8164,43.4539,43.0087,43.3456,42.7715,43.3144,43.3286,43.4767,43.0289,43.2931,43.1645,43.3847,42.6483,43.3427,42.9887,43.3818,42.8938,44.0068,43.2454,43.6152,43.0910,43.1827,43.3889,43.5532,43.4959,43.2436,43.5680,43.1525,43.3406,43.1362,43.5882,43.4957,43.4076,43.0774,43.3061,43.4720,42.8450,42.9939,43.4447,43.5360,43.3889,43.1516,43.8562,43.8434,43.1835,42.9978,43.2481,43.5982,43.4250,43.4310,43.8155,43.2905,43.0918,43.1742,43.1497,43.1554,43.1290,43.5983,43.1105,43.5245,43.1331,43.2452,43.3475,43.3851,43.3835,43.6904,43.1545,43.5075,43.3123,43.1623,42.8693,43.6040,43.4172,43.4039,42.9729,43.3495,43.2554,43.6792,43.1163,43.7671,43.3250,43.8102,42.9743,43.4516,43.6529,43.0725,43.8274,43.2629,43.7111,43.2892,43.9787,43.4987,43.3166,43.0938,43.4656,43.4885,43.6519,43.1682,43.4404,43.2924,43.3124,43.1474,43.6576,43.3792,43.3873,43.3857,43.7335,43.9621,43.6408,43.2689,43.8708,43.5159,43.4067,43.5173,43.8212,43.4965,43.4782,43.6932,43.0969,43.3818,43.5045,43.4090,43.4526,43.4189,43.4825,43.4829,43.0660,43.6185,43.1899,43.5149,43.1910,43.4866,43.2076,43.3530,43.2491,43.4729,43.1190,43.7798,43.0624,43.8016,43.5935,44.0248,43.3551,43.7514,43.4946,43.7427,43.8383,43.6397,43.7603,43.3472,44.0948,43.4641,43.4741,42.9157,43.8229,43.3203,43.1527,43.3681,43.8843,43.3457,43.2620,43.2209,43.3857,43.2341,43.3030,43.1561,43.5174,43.2524,43.2128,43.3057,43.5058,43.3631,43.3775,43.6598,43.4601,43.9948,43.7209,43.5240,44.1236,43.1900,43.4822,43.6438,43.3894,43.7763,43.7385,43.5091,43.1505,43.1461,43.1170,43.5335,43.2024,43.4885,43.3559,43.4601,43.3022,43.1489,43.1618,43.2469,43.0919,43.3448,43.1751,43.2798,43.2036,43.6609,43.5474,43.8127,43.4287,43.7282,43.8393,44.2181,44.2675,43.4007,43.9020,43.5145,44.1257,43.7650,43.9468,43.4504,43.7672,43.4597,44.0352,43.2451,43.8706,43.5427,43.1674,42.9975,43.6265,43.6470,43.3253,43.4330,43.3568,43.3613,43.4126,43.0810,43.6966,43.9924,43.8767,43.3883,44.0704,44.2954,43.9353,43.1020,44.7159,43.9599,43.3180,43.8522,43.2360,43.6727,43.4415,43.2352,43.5676,43.6737,43.5470,43.5058,43.2808,43.4998,43.8018,43.3961,42.9074,43.5304,43.3355,43.8477,43.3739,43.5605,42.9713,43.4610,43.4450,43.7156,43.7830,44.3567,43.9721,43.9389,43.8269,44.3815,43.8245,
22:6:17:17:37:18:102,0.6000,61.0000,35.7000,A,0.0000,0.0000,32.0100,99402,161.3430,1075357,-0.0017,-0.0238,2.8213,0.0032,-0.0072,-0.0041,0,0.0000,0.0000,0.0000,0.0000,0.0000,0.0000,0,0,0,0,0,0,0,0.00,0.00,0.00,0,
22:6:17:17:37:18:201,0.6000,61.0000,35.7000,A,0.0000,0.0000,32.0200,99404,161.1739,1075482,-0.0018,-0.0238,2.8211,-0.0006,0.0094,-0.0030,1075465,-0.9729,-1.1744,0.7588,0.0214,-0.0184,0.1072,0,0,0,0,0,0,0,0.00,0.00,0.00,0,
22:6:17:17:37:18:310,0.0000,35.7000,0.0000,A,0.0000,0.0000,32.0200,99398,161.6812,1075605,-0.0017,-0.0239,2.8210,0.0064,-0.0020,-0.0030,1075465,-0.9729,-1.1744,0.7588,0.0214,-0.0184,0.1072,0,0,0,0,0,0,0,0.00,0.00,0.00,0,
22:6:17:17:37:18:406,0.0000,35.7000,0.0000,A,0.0000,0.0000,32.0300,99407,160.9202,1075730,-0.0018,-0.0239,2.8209,0.0078,0.0030,-0.0014,1075465,-0.9729,-1.1744,0.7588,0.0214,-0.0184,0.1072,0,0,0,0,0,0,0,0.00,0.00,0.00,0,
22:6:17:17:37:18:518,0.3000,91.0000,35.7000,A,0.0000,0.0000,32.0200,99411,160.5820,1075730,-0.0018,-0.0239,2.8209,0.0078,0.0030,-0.0014,1075465,-0.9729,-1.1744,0.7588,0.0214,-0.0184,0.1072,0,0,0,0,0,0,0,0.00,0.00,0.00,0,
22:6:17:17:37:18:614,0.3000,91.0000,35.7000,A,0.0000,0.0000,32.0300,99409,160.7511,1075915,-0.0019,-0.0242,2.8207,0.0030,-0.0005,-0.0016,1075966,-0.9444,-1.1848,0.7522,0.0266,-0.0145,0.1061,1075966,130713658,796876716,82820,2,-1,10,0.00,0.00,0.00,-302,
22:6:17:17:37:18:730,0.3000,91.0000,35.7000,A,0.0000,0.0000,32.0300,99414,160.3284,1076040,-0.0021,-0.0239,2.8207,-0.0042,-0.0082,-0.0021,1075966,-0.9444,-1.1848,0.7522,0.0266,-0.0145,0.1061,1075966,130713658,796876716,82820,2,-1,10,0.00,0.00,0.00,-302,
22:6:17:17:37:18:829,0.3000,91.0000,35.7000,A,0.0000,0.0000,32.0400,99412,160.4975,1076166,-0.0019,-0.0239,2.8207,-0.0070,0.0071,-0.0017,1075966,-0.9444,-1.1848,0.7522,0.0266,-0.0145,0.1061,1075966,130713658,796876716,82820,2,-1,10,0.00,0.00,0.00,-302,
22:6:17:17:37:18:945,0.4000,77.0000,35.7000,A,0.0000,0.0000,32.0400,99408,160.8357,1076225,-0.0020,-0.0239,2.8208,-0.0067,-0.0071,-0.0035,1075966,-0.9444,-1.1848,0.7522,0.0266,-0.0145,0.1061,1075966,130713658,796876716,82820,2,-1,10,0.00,0.00,0.00,-302,43.5194,43.4152,43.6592,43.3887,43.8356,43.4931,43.8552,43.3144,43.2524,43.4195,43.4678,43.4989,43.2425,43.2917,43.2141,43.4659,43.4189,42.9255,43.3346,43.6489,43.2388,43.1793,43.1315,43.8185,43.7641,43.3005,43.6371,43.8205,43.6868,43.2369,43.7667,43.8303,43.3072,43.1665,43.5123,43.6377,43.8692,42.9635,43.7319,43.5185,43.6241,42.9311,43.4734,43.2845,43.3905,43.1861,43.6129,43.3206,43.4068,43.2116,43.3906,43.5625,43.5723,43.0285,43.4727,43.4795,43.7906,43.1103,43.7509,43.4476,43.7039,43.2615,44.2737,43.7677,43.6174,43.5870,43.7275,43.7429,43.2469,43.1555,43.5550,43.6856,43.7238,43.1366,43.5418,43.4193,43.1664,43.0704,43.4075,43.3027,43.5068,43.3347,43.0944,43.2644,43.1726,43.0129,43.1918,42.9619,43.3893,43.3202,43.4646,43.2926,43.6881,43.2739,44.0354,43.6774,43.6706,43.1832,43.0266,43.5913,43.2774,43.1927,43.4706,43.5033,43.4465,42.8322,43.6033,43.4229,43.0026,42.7822,43.2809,43.4638,43.2472,43.2020,43.1522,43.3215,43.0507,43.0664,43.2380,43.3296,43.2213,42.9765,43.0134,43.4450,43.3680,43.1472,43.7192,43.8545,43.3073,43.3436,43.5114,43.1971,43.4753,43.3186,43.4705,42.9098,42.9393,43.2835,43.3686,43.4141,43.3440,43.3045,43.0451,43.1561,43.2250,42.7931,43.2410,42.9353,43.1969,43.0161,43.2691,43.2083,43.3458,43.2430,43.4561,43.3939,43.2483,42.9055,43.4557,43.6303,42.9930,42.9928,43.3240,43.0501,43.1812,43.1631,43.3382,43.2418,43.2938,42.8799,43.4295,43.3485,43.2464,42.9463,43.2710,43.0848,43.2712,43.1740,43.2392,43.3446,43.1375,42.9853,43.5033,43.2938,43.3880,43.3088,43.3055,43.5510,43.4810,43.0850,43.3583,43.8377,43.2023,43.3520,43.4812,43.3455,43.4131,43.1930,43.2370,43.0454,43.0832,43.1146,43.4595,42.9940,43.1797,43.2844,43.1425,42.8771,42.9445,43.1198,43.1672,43.2046,42.5658,42.9292,43.4784,43.5111,43.2899,42.9998,43.4822,43.3066,43.2428,43.4149,43.6651,43.7023,43.3724,43.2697,43.2781,43.2589,42.8097,42.7875,43.0813,43.0083,42.9886,42.9109,43.3120,43.2864,43.1303,42.9812,43.2615,43.1256,42.9056,43.0929,42.8537,43.0072,43.1411,42.6158,43.2685,43.5510,43.2350,43.1373,43.7429,43.7334,43.3785,42.7601,43.3343,43.7292,42.9832,43.5585,43.4229,43.2142,42.8923,42.9030,43.2308,42.8415,43.2510,42.9962,42.8516,43.0947,43.0459,42.9723,42.8950,43.0538,43.0327,42.8973,43.0492,43.1511,42.8073,43.2308,43.6443,43.3527,43.3059,43.4163,43.0974,43.2093,43.4785,43.2377,43.6150,43.5681,42.7367,42.6484,43.2107,42.6367,43.0783,42.9290,43.0474,42.7969,42.9145,42.8278,43.3112,43.0897,42.8762,43.1366,43.1540,43.0022,43.2813,42.8935,42.8830,43.1358,43.0475,42.8492,43.4398,43.3058,43.4302,43.1985,43.3887,43.4558,43.3902,42.8127,43.3715,43.2383,43.2217,43.2995,43.0076,43.2907,43.0269,43.0834,42.9770,42.8483,43.2301,42.8965,43.2764,43.0948,43.0904,43.1574,43.2128,43.3901,42.7047,43.0463,43.0226,42.7396,42.9073,42.9858,43.3653,43.3241,43.3245,43.0440,43.5127,43.5669,43.6052,43.3799,43.5029,43.4684,43.2293,43.0025,43.2571,43.1061,43.4957,42.9606,42.5074,43.3219,43.2283,43.0665,42.8675,43.2071,43.1007,43.0253,43.3188,43.2304,43.0844,42.8741,43.1337,42.9935,43.0181,42.8253,43.3409,43.3279,43.4778,42.8702,43.7858,43.5210,43.4189,42.9833,43.4899,43.5628,43.5117,43.2613,43.1894,43.0648,42.8606,42.9352,42.9988,42.9096,43.0804,43.0956,43.1956,43.4679,43.1936,43.0488,43.1790,43.1657,43.1160,43.0311,43.1554,43.1561,43.0283,43.1428,43.2927,43.2362,43.3359,43.4396,43.5978,43.3208,42.8488,43.4059,43.7856,43.3820,43.3361,42.9745,42.8988,43.0859,43.0590,42.7976,43.0343,42.6448,43.1114,42.7142,43.1990,43.5033,43.2345,42.8271,43.1689,43.1978,42.9633,42.7622,43.1522,43.1476,43.0461,42.8246,43.1456,43.3555,43.2706,43.1271,43.3519,42.8008,43.2294,43.0441,43.0988,43.5350,42.5834,43.3706,43.1904,43.2329,42.9642,43.3668,43.4236,43.3858,43.0749,43.1266,43.5657,43.3724,43.3480,43.2200,43.1844,43.1521,42.6106,42.9011,42.9353,42.8601,43.0821,42.8060,43.1162,43.2230,43.1214,43.1487,43.3564,43.1653,43.2567,42.8045,43.4704,43.4906,43.2477,43.2625,43.4309,43.1444,43.6581,43.1573,43.1942,43.3304,43.0897,43.0172,43.4774,43.2094,43.2616,42.8863,43.3735,43.3584,43.1251,42.8428,43.2339,43.1156,43.2538,43.0984,43.0637,43.0780,43.1528,42.8587,43.1039,43.3577,43.4622,42.9412,43.5717,43.6358,43.0858,43.1908,43.0491,43.4777,43.1216,43.4151,43.4512,43.3364,43.2131,43.2595,43.3430,43.5074,43.1417,43.3269,43.4250,43.3682,43.1112,43.1932,43.2019,43.0785,43.3163,43.0188,43.3594,43.3273,43.1517,43.1018,43.5276,43.3276,43.4772,43.3431,43.4583,43.3713,43.3936,43.1220,43.2642,43.0191,43.2338,43.1827,43.6711,43.0204,43.4434,42.8999,43.6070,43.4109,43.1621,42.8846,43.1908,43.2216,42.9986,43.0938,43.0817,43.5060,43.2372,43.1949,43.0232,43.4815,43.2682,43.4664,43.5982,43.3263,43.5203,43.1996,43.5492,43.1854,43.2777,43.7536,43.2808,43.4048,43.3085,43.1423,43.1826,43.7434,43.1078,43.2352,43.3017,43.3846,42.9735,43.2882,43.2292,43.2144,43.0680,43.2311,43.0626,43.4281,43.2912,43.3059,43.4401,43.8057,43.2452,43.5592,43.4767,43.1239,43.0405,43.1501,43.5393,43.7392,42.6412,43.1398,43.4353,43.4782,43.1368,43.0636,43.6409,43.3512,43.0389,43.1029,43.4023,43.2757,42.9558,42.8293,43.4343,43.1102,43.2621,43.1324,43.2723,43.6071,43.2437,42.8903,43.5463,43.4259,43.5663,43.1816,43.4564,43.3994,43.3272,42.6569,44.0307,43.4799,43.2688,43.6786,43.7358,44.0137,43.1768,43.3926,43.4474,43.5818,43.0660,43.3793,43.4235,43.6510,43.2611,43.1806,43.2790,43.3045,43.2932,43.0737,43.2125,43.2851,43.3089,43.4336,43.3567,43.7361,42.9376,43.6220,43.6977,43.3784,43.6765,43.6388,43.9252,43.8430,43.1071,43.1219,43.7446,43.9593,43.3633,43.2785,43.4282,43.6824,43.3737,43.1729,43.7568,43.5650,43.2600,42.8295,43.5291,43.2138,43.3680,43.0769,43.1656,42.8493,43.1099,42.9290,43.3555,43.7299,43.4206,43.2682,43.5607,43.6387,43.6464,43.3285,44.1366,44.0835,43.4061,43.8202,43.7223,44.0445,43.4385,43.5137,43.3146,43.8538,43.3432,43.3108,43.4530,43.9496,43.1298,43.2396,43.3624,43.5453,42.9252,43.3970,43.3292,43.4318,43.4130,43.4887,43.2892,43.6152,43.3713,43.4566,43.7729,43.9888,43.7684,43.4765,44.3181,44.0172,43.2617,43.1262,43.5762,43.4490,43.0521,42.9463,43.4984,43.9472,42.7775,43.1129,43.2621,43.1686,42.9468,43.3965,43.6276,42.9641,42.9834,42.9331,43.2976,43.2705,43.3210,43.1821,43.2144,43.4911,43.4662,43.1426,43.5631,43.6414,43.8565,43.4698,44.2995,44.2454,
22:6:17:17:37:19:105,0.4000,77.0000,35.7000,A,0.0000,0.0000,32.0400,99412,160.4975,1076350,-0.0018,-0.0243,2.8206,-0.0070,0.0019,-0.0037,1075966,-0.9444,-1.1848,0.7522,0.0266,-0.0145,0.1061,1075966,130713658,796876716,82820,2,-1,10,0.00,0.00,0.00,-302,
22:6:17:17:37:19:221,0.4000,77.0000,35.7000,A,0.0000,0.0000,32.0300,99411,160.5820,1076475,-0.0017,-0.0237,2.8205,-0.0001,-0.0019,-0.0041,1076465,-0.9073,-1.2202,0.7599,0.0310,-0.0254,0.1078,1075966,130713658,796876716,82820,2,-1,10,0.00,0.00,0.00,-302,
22:6:17:17:37:19:320,0.4000,77.0000,35.7000,A,0.0000,0.0000,32.0400,99411,160.5820,1076660,-0.0016,-0.0237,2.8204,0.0042,0.0112,-0.0005,1076465,-0.9073,-1.2202,0.7599,0.0310,-0.0254,0.1078,1075966,130713658,796876716,82820,2,-1,10,0.00,0.00,0.00,-302,
22:6:17:17:37:19:436,0.4000,77.0000,35.7000,A,0.0000,0.0000,32.0400,99406,161.0048,1076722,-0.0016,-0.0238,2.8204,0.0024,-0.0070,-0.0025,1076465,-0.9073,-1.2202,0.7599,0.0310,-0.0254,0.1078,1075966,130713658,796876716,82820,2,-1,10,0.00,0.00,0.00,-302,
22:6:17:17:37:19:536,0.4000,77.0000,35.7000,A,0.0000,0.0000,32.0300,99405,161.0893,1076845,-0.0016,-0.0240,2.8203,0.0069,0.0147,-0.0010,1076465,-0.9073,-1.2202,0.7599,0.0310,-0.0254,0.1078,1075966,130713658,796876716,82820,2,-1,10,0.00,0.00,0.00,-302,
22:6:17:17:37:19:652,0.4000,0.0000,35.7000,A,0.0000,0.0000,32.0400,99402,161.3430,1076845,-0.0016,-0.0240,2.8203,0.0069,0.0147,-0.0010,1076465,-0.9073,-1.2202,0.7599,0.0310,-0.0254,0.1078,1076966,130713663,796876711,82820,2,-2,10,0.00,0.00,0.00,-307,
22:6:17:17:37:19:751,0.4000,0.0000,35.7000,A,0.0000,0.0000,32.0400,99409,160.7511,1077093,-0.0018,-0.0241,2.8201,0.0007,0.0047,-0.0007,1076465,-0.9073,-1.2202,0.7599,0.0310,-0.0254,0.1078,1076966,130713663,796876711,82820,2,-2,10,0.00,0.00,0.00,-307,
22:6:17:17:37:19:867,0.4000,85.0000,35.6000,A,0.0000,0.0000,32.0400,99408,160.8357,1077156,-0.0019,-0.0241,2.8202,0.0013,0.0014,-0.0034,1076465,-0.9073,-1.2202,0.7599,0.0310,-0.0254,0.1078,1076966,130713663,796876711,82820,2,-2,10,0.00,0.00,0.00,-307,
22:6:17:17:37:19:967,0.4000,85.0000,35.6000,A,0.0000,0.0000,32.0400,99397,161.7658,1077280,-0.0020,-0.0246,2.8202,-0.0044,0.0001,-0.0018,1076465,-0.9073,-1.2202,0.7599,0.0310,-0.0254,0.1078,1076966,130713663,796876711,82820,2,-2,10,0.00,0.00,0.00,-307,43.6567,43.2102,43.5711,43.1951,43.3697,43.1255,43.4032,43.5076,43.5102,43.0879,43.5498,43.3427,43.1538,42.6437,43.4507,43.6417,43.4921,42.9374,43.5806,43.8280,43.4869,43.1915,43.5638,43.3009,43.4971,42.9417,43.3559,43.8344,44.1997,43.4577,44.1156,43.8467,43.5420,43.2892,43.5269,43.5492,43.1430,43.6175,43.9235,43.7844,43.1278,43.0109,43.3199,43.1960,42.9172,43.2588,43.3070,43.2316,42.9405,43.1229,43.5672,43.4740,42.9249,43.2679,43.3165,43.3905,43.2773,43.2024,43.7650,43.3583,43.1231,43.5760,43.8609,43.6783,43.5286,42.9866,43.4434,43.7554,43.5167,43.1673,43.2942,43.3597,43.3123,43.1480,43.4539,43.4310,43.5376,43.0817,43.6288,43.4690,43.2637,42.7278,43.4729,42.9629,43.2405,42.8668,43.2662,43.1376,43.6348,42.9869,43.5550,43.4895,43.5995,43.1000,43.5375,43.9005,42.6447,43.2952,43.2334,43.3155,43.1136,43.1041,43.4837,43.5808,42.8194,43.0622,43.3032,43.4892,42.7115,42.9969,43.5978,43.2234,42.9527,43.2651,43.6253,43.0777,42.9082,43.1325,43.4114,43.2405,43.3983,43.2279,43.3819,43.7156,43.0089,43.2427,43.9352,43.9691,44.0119,42.7780,43.2367,43.3910,43.5600,43.3301,43.2189,43.4133,43.1630,42.8290,43.4323,43.5797,43.5520,42.8667,43.4034,43.3169,43.1360,42.8044,43.3023,43.0977,43.4106,42.7230,43.0252,43.3788,43.5748,42.9315,43.5387,43.5765,43.6919,42.9190,43.3669,44.0383,43.0066,43.0928,42.9652,43.1407,42.8528,43.4064,43.1908,43.1532,42.8426,42.9450,43.2917,43.4122,42.9645,43.1524,43.4296,43.2906,42.9875,43.2310,43.2516,43.1064,42.8484,42.8961,43.2095,43.3612,42.9269,43.2196,42.9814,43.4620,42.9696,43.5325,43.7594,43.5544,43.6853,42.8075,42.8591,43.5342,43.1600,42.8845,43.1487,42.9000,43.1435,42.9766,43.5193,43.1519,43.3811,42.8636,43.1993,43.1827,43.2883,42.8390,42.7873,43.3631,42.9115,42.4975,43.2368,43.3695,43.5042,43.0118,43.5549,43.6486,43.6647,43.0807,43.7619,44.0957,42.6286,42.9974,43.1170,43.1697,42.9850,43.1727,43.4087,43.2296,42.8526,42.8217,43.3244,43.1974,42.8533,43.0348,43.5607,43.1820,42.9171,43.0038,43.0104,43.2092,42.8643,42.8197,43.2811,43.4621,43.0961,43.0481,43.4365,43.4804,43.3914,43.3570,43.7153,43.6399,43.4502,42.8436,42.8165,43.3963,43.5867,42.9143,42.9871,43.1581,43.1623,42.7074,42.9087,43.3968,43.2427,42.8424,43.0935,43.3484,43.2242,42.7664,42.9604,43.1627,43.0042,42.8159,43.7029,43.5125,43.6725,42.9726,43.4904,43.2222,43.8888,43.0803,44.0713,43.5827,42.9345,42.7397,43.0538,43.0515,43.2472,43.4640,42.9069,42.8585,42.4883,42.8871,43.3235,43.2899,42.8879,43.4665,43.3076,42.9131,42.8754,43.0854,43.3295,43.1889,42.9168,43.0438,43.3064,43.2167,43.4422,43.2601,43.4019,43.5285,43.4031,43.2300,43.5656,43.5102,43.3141,42.7708,43.2613,43.1356,43.4081,42.7785,43.0410,43.0127,43.1414,42.6173,43.0433,43.3953,43.2839,42.8852,43.1241,43.2590,43.1707,42.9164,42.9337,43.1802,43.1024,42.9973,43.2766,43.4844,43.3848,42.7545,43.5793,43.1093,43.1900,43.2272,43.5932,43.6632,43.2429,43.2726,43.4406,43.1838,42.7307,43.0284,42.6726,43.2329,42.6572,42.9773,42.8802,43.4054,42.9716,42.9361,43.3312,43.1414,42.6810,43.2048,43.2869,43.0467,42.6036,42.8805,43.0593,43.3867,43.0424,43.0811,43.3363,43.5878,43.1072,43.2234,44.2097,43.6525,43.6046,42.5549,43.1006,43.2437,43.0910,42.7920,42.9099,42.7704,42.8458,42.9610,43.2517,43.3355,43.5228,42.7807,43.2296,43.4589,43.3042,42.6279,43.2080,43.5936,43.0813,42.4425,43.2040,43.5450,43.3961,43.0041,43.5092,43.3336,43.4046,43.4188,43.8722,43.3966,42.9867,42.8850,43.2507,43.1624,42.7537,43.0142,43.0477,42.7060,42.6870,42.9156,43.3558,43.2708,43.1070,43.1549,43.0429,43.2493,42.8370,42.9482,43.0239,43.0585,42.7748,42.7353,43.3042,43.4143,42.8374,43.0378,43.3654,43.6574,42.9195,43.6011,43.9894,43.9794,43.5912,43.3827,43.6067,43.0786,43.1896,42.9185,43.4859,43.2469,43.1330,42.9928,43.3342,43.3839,43.3984,42.9519,43.2346,43.0230,43.0804,42.6344,42.9888,43.2972,43.4205,42.6765,43.0274,43.0872,43.6342,42.8560,43.2676,43.4940,43.0056,43.1452,43.7370,43.8655,43.0797,43.3485,42.9407,43.3871,43.0455,43.2210,43.3590,43.5422,42.8079,43.2174,43.3475,43.4007,42.9953,42.9369,43.2476,43.4094,42.8582,42.7535,43.2469,42.8853,42.6964,42.8689,43.3735,43.1369,43.1653,43.0744,43.2754,43.4254,43.1518,43.0149,43.7636,43.7262,43.1814,43.0220,43.3025,43.4901,43.5124,43.4268,43.3625,43.6496,43.2715,42.8289,43.2547,43.6647,43.4742,43.1972,43.1960,43.5229,43.3069,42.9185,43.1131,43.2333,43.2272,43.0306,43.4199,43.3397,43.8128,42.9599,43.4389,43.5015,43.3880,43.0204,43.5499,43.5675,43.0380,43.0326,43.2793,43.2703,43.0874,43.0934,43.3784,43.3806,43.0149,43.1060,43.4732,43.6131,42.7490,43.2208,43.3440,43.2748,42.7248,42.8616,43.2385,43.1324,42.8204,43.2498,43.0369,43.2431,43.1312,43.5295,43.2916,43.3976,43.2025,43.4458,44.1026,43.6401,43.5714,43.4014,43.5445,43.7591,43.2197,43.1543,43.4082,43.7556,43.1688,42.9489,43.0649,43.5450,43.0295,43.0165,43.5803,43.2266,43.4112,42.9567,43.4126,43.5890,43.4981,43.0247,43.6575,43.6647,43.9272,43.4159,44.0361,43.6370,43.6347,43.1637,44.0066,43.5652,42.6573,43.5988,43.2740,43.3889,42.8244,43.3000,43.4990,43.7279,43.0526,43.3085,43.8595,43.3350,42.9690,43.1679,43.4481,43.6010,42.8440,43.4701,43.4322,43.5181,42.9610,43.2396,43.7129,43.6435,42.9610,43.0916,43.7962,43.3094,42.8259,43.4413,44.2307,43.9601,43.5664,43.5033,44.0076,43.8481,43.5831,42.9022,43.3586,43.5945,43.4392,42.9289,43.6390,43.5108,43.3185,42.7503,43.3399,43.1678,43.3537,43.0858,43.4266,43.4489,43.3720,42.8404,43.5813,43.5935,43.3240,43.4719,43.7785,43.5637,43.5877,43.1110,43.8365,43.6608,42.9275,43.6032,43.3972,43.8703,42.8802,43.1885,43.1189,43.9145,42.7683,43.2377,43.4669,43.4759,42.6840,43.1823,43.3937,43.5715,42.7792,43.2832,43.4810,43.3632,43.1236,43.4474,43.3703,43.4827,43.1175,43.6687,43.9172,43.8937,43.4845,43.7801,43.9592,44.1914,43.5200,43.8338,43.6335,43.8719,43.7059,43.1739,43.5694,43.8670,43.5786,42.6767,43.8466,43.8024,43.1963,42.9441,43.4300,43.7107,43.6112,43.1026,43.3962,43.4449,43.1666,43.0276,43.6941,43.7944,43.9456,43.3005,43.6842,44.1819,44.0472,43.6794,44.0290,44.6495,42.8693,43.8416,43.5951,43.9236,42.8891,43.5636,43.6880,43.8573,42.6298,43.6687,43.6019,43.4018,42.8044,43.3064,43.6434,43.3363,43.1534,43.4563,43.4699,43.4947,43.0212,43.4085,43.5600,43.7327,42.9781,43.7340,44.1147,43.7325,43.6880,43.5697,44.7213,44.1550,
22:6:17:17:37:20:140,0.5000,79.0000,35.6000,A,0.0000,0.0000,32.0300,99404,161.1739,1077403,-0.0021,-0.0242,2.8201,-0.0030,-0.0074,-0.0034,1076465,-0.9073,-1.2202,0.7599,0.0310,-0.0254,0.1078,1076966,130713663,796876711,82820,2,-2,10,0.00,0.00,0.00,-307,
22:6:17:17:37:20:240,0.5000,79.0000,35.6000,A,0.0000,0.0000,32.0400,99406,161.0048,1077590,-0.0021,-0.0241,2.8197,-0.0031,-0.0017,-0.0030,1076465,-0.9073,-1.2202,0.7599,0.0310,-0.0254,0.1078,1076966,130713663,796876711,82820,2,-2,10,0.00,0.00,0.00,-307,
22:6:17:17:37:20:358,0.3000,71.0000,35.6000,A,0.0000,0.0000,32.0400,99405,161.0893,1077653,-0.0022,-0.0244,2.8197,-0.0069,-0.0057,-0.0040,1076465,-0.9073,-1.2202,0.7599,0.0310,-0.0254,0.1078,1076966,130713663,796876711,82820,2,-2,10,0.00,0.00,0.00,-307,
22:6:17:17:37:20:458,0.3000,71.0000,35.6000,A,0.0000,0.0000,32.0500,99404,161.1739,1077775,-0.0021,-0.0243,2.8197,0.0004,0.0025,-0.0015,1076465,-0.9073,-1.2202,0.7599,0.0310,-0.0254,0.1078,1076966,130713663,796876711,82820,2,-2,10,0.00,0.00,0.00,-307,
22:6:17:17:37:20:574,0.9000,70.0000,35.6000,A,0.0000,0.0000,32.0300,99403,161.2585,1077900,-0.0021,-0.0244,2.8196,0.0035,-0.0056,-0.0023,1076465,-0.9073,-1.2202,0.7599,0.0310,-0.0254,0.1078,1076966,130713663,796876711,82820,2,-2,10,0.00,0.00,0.00,-307,
22:6:17:17:37:20:673,0.9000,70.0000,35.6000,A,0.0000,0.0000,32.0500,99406,161.0048,1077900,-0.0021,-0.0244,2.8196,0.0035,-0.0056,-0.0023,1076465,-0.9073,-1.2202,0.7599,0.0310,-0.0254,0.1078,1077966,130713669,796876709,82830,3,-1,10,0.00,0.00,0.00,-299,
22:6:17:17:37:20:790,0.8000,78.0000,35.6000,A,0.0000,0.0000,32.0500,99407,160.9202,1078085,-0.0021,-0.0242,2.8195,0.0066,-0.0034,-0.0019,1076465,-0.9073,-1.2202,0.7599,0.0310,-0.0254,0.1078,1077966,130713669,796876709,82830,3,-1,10,0.00,0.00,0.00,-299,
22:6:17:17:37:20:890,0.8000,78.0000,35.6000,A,0.0000,0.0000,32.0500,99405,161.0893,1078210,-0.0021,-0.0244,2.8194,0.0023,0.0070,-0.0011,1076465,-0.9073,-1.2202,0.7599,0.0310,-0.0254,0.1078,1077966,130713669,796876709,82830,3,-1,10,0.00,0.00,0.00,-299,
22:6:17:17:37:21:6,0.0000,3.0000,35.6000,A,0.0000,0.0000,32.0400,99404,161.1739,1078333,-0.0020,-0.0243,2.8192,0.0031,-0.0005,-0.0017,1076465,-0.9073,-1.2202,0.7599,0.0310,-0.0254,0.1078,1077966,130713669,796876709,82830,3,-1,10,0.00,0.00,0.00,-299,43.4409,43.6518,43.3724,43.4075,43.7582,42.9418,43.4138,43.5141,43.5210,43.0948,43.3903,43.3494,43.3294,43.3105,43.1367,42.9920,43.3410,42.9442,43.2569,43.1660,43.1607,43.1982,43.2275,43.1292,43.5078,42.9475,43.3664,43.2485,43.6086,43.2559,44.1262,43.1811,43.3271,43.5095,43.7359,43.5587,42.9638,43.4418,43.2153,43.2620,43.4743,43.0205,43.6592,43.2057,43.2483,43.2685,42.8339,43.4026,43.4262,43.4518,42.9171,43.4837,43.2625,43.2775,43.4923,43.4000,43.2843,43.2117,43.7707,43.3675,43.1289,43.9878,43.6509,43.9047,43.5391,43.1975,43.4540,43.3808,43.3481,43.1742,43.3048,43.0275,43.4849,43.1553,43.3055,43.2809,43.2419,43.0890,43.6397,43.1667,43.4290,43.1992,43.0166,43.1264,43.2512,42.8736,42.9502,42.9806,42.9759,43.1663,43.0272,43.3116,43.4224,43.4803,43.9575,43.9042,43.0674,43.1037,43.4311,43.3251,43.2970,43.1136,43.3202,43.0918,42.9868,43.3899,43.3100,43.1892,43.1731,43.0066,43.4527,43.3848,43.4192,42.9701,43.3253,42.9323,42.9157,42.9868,42.9357,42.9290,43.0757,43.4075,43.0330,43.1848,43.3877,42.8815,43.5376,43.3651,43.6265,43.3625,43.0603,42.8517,43.3974,43.3374,43.2295,42.9285,43.3297,42.9919,43.1388,43.2786,43.5629,43.1738,43.2654,43.0255,43.2957,43.2557,43.0133,42.6520,43.1189,42.8825,43.1910,43.0686,43.4267,43.2619,43.3780,43.4129,43.8795,42.9245,43.5734,43.2552,43.0126,42.9127,43.1573,43.3293,43.2008,43.0840,43.5177,43.1629,42.8502,42.4922,42.9976,43.2695,43.1191,43.1623,42.9970,43.3006,42.9954,42.6553,42.8111,43.1162,43.0065,43.0564,42.9088,43.2143,43.4075,43.2292,43.1564,43.3045,43.1512,43.1840,43.5717,43.7575,43.5056,43.3708,43.2258,43.5409,43.4995,42.8918,43.1593,42.9070,43.3031,43.1333,42.9368,42.7191,43.2469,43.1594,43.2101,42.7483,42.7218,43.1385,43.0895,42.7818,42.7774,42.8003,42.9408,43.3762,43.5150,43.0186,43.5656,43.1606,43.6754,43.4340,43.7726,43.3414,43.2033,43.0067,42.9475,43.0046,43.1547,43.0245,42.9432,43.0842,42.7120,43.1252,43.3314,43.0614,42.7164,42.7589,43.1371,42.7546,42.9249,43.1580,42.7284,42.9277,43.1605,42.8293,43.1360,43.4719,43.1037,43.2134,43.1223,42.9962,43.0593,43.1950,43.3540,43.4614,43.2757,42.8503,43.1727,42.8921,43.2846,43.2362,43.1527,43.3174,43.0265,42.8650,42.9193,42.9677,42.9678,42.9910,42.8171,43.0725,42.9546,43.0579,42.8252,42.7391,43.1578,42.6807,43.2716,43.0755,43.5317,42.8270,43.5012,42.7377,43.4000,43.0864,43.5370,43.4046,42.5719,42.7490,42.8886,42.8932,42.9412,43.3180,43.0669,42.7172,43.0795,42.7482,43.0418,43.1552,43.1792,43.3370,43.0319,42.7824,43.0225,42.9546,43.1920,43.0564,42.9244,43.0535,43.1669,43.0788,43.2987,42.9680,43.2487,43.2143,43.2443,43.2393,43.5713,43.3386,43.1430,43.1384,42.9295,43.3095,43.4189,42.9442,42.8987,43.1726,43.2985,43.0601,43.0540,43.1136,42.8709,43.0346,43.1348,42.5509,43.1815,42.9240,43.0865,42.9015,42.8287,42.8596,43.1393,43.0455,43.3956,43.2134,43.5901,42.8005,43.3640,43.2333,43.4247,43.3069,42.7053,43.1024,43.1069,43.0265,42.8936,42.7237,42.6789,42.9390,42.8106,42.6990,42.8869,43.1279,42.9793,42.9459,43.1993,42.8675,42.9655,43.0747,43.0121,43.0564,43.0374,43.1787,43.2133,43.1004,43.0499,42.9405,43.4971,43.2853,43.2763,43.0679,43.3326,43.6616,43.6152,42.7416,42.9414,42.9164,43.1016,42.6445,42.6142,42.6263,43.2933,42.9686,43.4072,43.1988,43.2551,42.6484,43.3794,43.0432,43.3150,42.9119,43.5011,43.3171,43.2337,43.0195,42.9216,43.1063,43.2575,43.0109,43.2056,43.1814,43.4152,43.1001,43.5312,43.4011,43.1743,42.8942,43.0875,43.1720,42.7604,43.0238,42.9016,42.7155,42.8399,42.9253,43.2185,43.2806,43.1144,43.0257,42.9109,43.2591,42.8445,43.0953,43.0306,43.0682,42.9238,42.8861,42.8731,43.1280,43.1418,43.0473,43.5283,43.3524,43.2491,43.2876,43.6453,43.6329,43.2371,43.0379,43.1119,43.4179,43.2002,43.0792,43.1943,43.1032,43.1437,43.1454,43.2017,43.2517,43.2700,43.2388,43.2454,43.0301,43.2304,42.7809,42.9994,42.8789,43.0040,42.9657,43.0380,42.9454,43.1937,43.3199,43.2782,43.1842,43.3404,43.1512,43.2140,43.5098,43.0850,42.8310,42.9457,43.3966,43.0518,43.3833,43.0624,43.1002,42.9621,42.7925,43.4970,43.1301,43.1419,42.9465,43.3930,43.2791,43.2838,42.6241,43.1118,43.0360,42.8462,43.1589,43.2317,43.1464,43.1724,42.9313,43.1236,43.2773,42.8331,42.6973,43.4143,43.3753,43.1918,43.2096,43.3130,43.3267,43.3633,43.4340,43.2191,43.5060,43.4292,43.1311,43.2653,43.3806,43.3447,42.9221,42.9246,43.1006,43.3177,42.9258,42.9794,43.2400,43.0949,43.1822,43.1317,43.4958,43.5240,42.9664,43.4495,42.8628,43.3985,43.1943,43.7406,43.5718,42.8572,43.0417,42.9418,43.2797,43.4135,42.9465,43.2304,43.0906,43.3161,43.4104,42.8882,43.3315,43.0400,42.8048,43.3503,43.2845,43.1610,42.8710,42.8135,43.1420,43.2569,43.4032,43.1928,43.4019,43.4375,43.0798,43.1365,42.9244,43.3744,43.1192,43.3892,43.2862,43.3902,43.5904,43.3787,43.4237,43.2301,43.4865,43.4188,43.1420,43.1794,43.2541,42.9271,43.1063,43.0400,43.3071,43.2979,43.2332,43.1339,43.2500,43.2771,43.1494,43.2130,43.1783,43.3620,43.5171,43.3212,43.4223,43.5609,43.3096,43.1330,42.9944,43.4608,43.5691,42.8552,43.4253,42.9229,43.3982,43.3199,43.3093,43.5043,43.2714,43.0587,43.1705,43.2739,43.1960,42.8296,42.7492,43.3076,43.3209,43.1382,43.1951,43.1457,43.5277,43.2634,42.9566,43.5661,43.3462,43.2771,43.5686,43.6391,43.3186,43.3472,43.1013,44.0510,43.9690,43.5767,43.6978,43.6574,43.4953,43.5935,43.0766,43.3690,43.2799,43.4498,43.0901,43.1928,43.2113,43.4752,43.0522,43.5000,43.1742,43.0647,43.3880,43.1341,43.3040,43.3826,43.1501,43.2784,43.4434,43.4926,43.8039,43.4498,42.8818,43.0700,43.2970,43.6533,43.6643,43.3241,43.0409,43.5829,43.8795,43.0513,43.3659,43.2859,43.4417,43.2390,43.0928,43.6246,43.4853,42.9852,42.8969,43.2492,43.5810,43.0870,42.9963,43.3361,42.9201,43.1298,43.3050,43.2182,43.4920,43.2821,43.3511,43.7515,43.7308,43.3124,43.6088,43.9630,44.2002,43.7328,43.4394,43.6438,43.6904,43.7164,43.7088,43.2360,43.5369,43.7510,43.4909,42.8900,43.4876,43.5172,43.1047,43.4405,43.5643,43.7763,43.1091,43.4067,43.2943,43.0195,43.1920,43.5402,43.3021,43.4590,43.3062,43.5177,43.8291,44.0576,43.8724,43.8376,44.4479,43.6931,43.4479,43.4030,43.7443,43.0725,43.2189,43.1733,43.8663,43.1241,43.3550,43.1202,43.4107,42.9668,43.1607,43.4913,42.8834,43.1587,43.1593,43.1611,43.5037,43.8118,43.4174,43.2346,43.4099,43.6539,43.4027,43.7620,43.7411,43.5061,43.3885,44.5223,44.3704,
22:6:17:17:37:21:165,0.0000,3.0000,35.6000,A,0.0000,0.0000,32.0400,99408,160.8357,1078457,-0.0021,-0.0245,2.8189,0.0013,0.0031,-0.0016,1076465,-0.9073,-1.2202,0.7599,0.0310,-0.0254,0.1078,1077966,130713669,796876709,82830,3,-1,10,0.00,0.00,0.00,-299,
22:6:17:17:37:21:281,0.9000,62.0000,35.7000,A,0.0000,0.0000,32.0500,99408,160.8357,1078582,-0.0022,-0.0245,2.8186,-0.0049,-0.0068,-0.0034,1076465,-0.9073,-1.2202,0.7599,0.0310,-0.0254,0.1078,1077966,130713669,796876709,82830,3,-1,10,0.00,0.00,0.00,-299,
22:6:17:17:37:21:381,0.9000,62.0000,35.7000,A,0.0000,0.0000,32.0500,99406,161.0048,1078705,-0.0021,-0.0244,2.8184,-0.0056,0.0040,-0.0028,1076465,-0.9073,-1.2202,0.7599,0.0310,-0.0254,0.1078,1077966,130713669,796876709,82830,3,-1,10,0.00,0.00,0.00,-299,
22:6:17:17:37:21:498,0.8000,64.0000,35.0000,A,0.0000,0.0000,32.0500,99405,161.0893,1078705,-0.0021,-0.0244,2.8184,-0.0056,0.0040,-0.0028,1076465,-0.9073,-1.2202,0.7599,0.0310,-0.0254,0.1078,1077966,130713669,796876709,82830,3,-1,10,0.00,0.00,0.00,-299,
22:6:17:17:37:21:598,0.8000,64.0000,35.0000,A,0.0000,0.0000,32.0500,99404,161.1739,1078953,-0.0022,-0.0245,2.8179,-0.0035,-0.0003,-0.0026,1076465,-0.9073,-1.2202,0.7599,0.0310,-0.0254,0.1078,1077966,130713669,796876709,82830,3,-1,10,0.00,0.00,0.00,-299,
22:6:17:17:37:21:714,0.8000,71.0000,35.8000,A,0.0000,0.0000,32.0600,99407,160.9202,1079015,-0.0021,-0.0246,2.8178,-0.0010,-0.0022,-0.0031,1078966,-0.7490,-1.3031,0.7639,0.0355,-0.0190,0.1112,1078966,130713675,796876705,82810,3,-1,11,0.00,0.00,0.00,-313,
22:6:17:17:37:21:814,0.8000,71.0000,35.8000,A,0.0000,0.0000,32.0600,99406,161.0048,1079140,-0.0020,-0.0247,2.8177,0.0011,0.0021,-0.0019,1078966,-0.7490,-1.3031,0.7639,0.0355,-0.0190,0.1112,1078966,130713675,796876705,82810,3,-1,11,0.00,0.00,0.00,-313,
22:6:17:17:37:21:931,0.6000,75.0000,35.9000,A,0.0000,0.0000,32.0600,99404,161.1739,1079265,-0.0019,-0.0246,2.8178,0.0034,-0.0036,-0.0017,1078966,-0.7490,-1.3031,0.7639,0.0355,-0.0190,0.1112,1078966,130713675,796876705,82810,3,-1,11,0.00,0.00,0.00,-313,
22:6:17:17:37:22:31,0.6000,75.0000,35.9000,A,0.0000,0.0000,32.0600,99396,161.8504,1079387,-0.0019,-0.0245,2.8178,0.0066,0.0063,-0.0014,1078966,-0.7490,-1.3031,0.7639,0.0355,-0.0190,0.1112,1078966,130713675,796876705,82810,3,-1,11,0.00,0.00,0.00,-313,43.6765,43.3234,43.5906,43.7201,43.9555,43.2388,43.4226,43.8006,43.3566,43.2013,43.3989,43.7921,43.5026,43.2526,42.8197,43.5911,43.5114,43.3777,43.0979,43.6074,43.5063,43.4731,43.4098,43.5911,44.0513,43.2417,43.1821,43.5540,43.6178,43.3652,43.9169,44.1822,43.4354,43.7299,43.6389,43.3657,43.6268,43.6364,43.6791,43.0933,43.2416,43.3663,43.2657,43.0493,43.3547,43.6005,43.4194,42.7653,43.3731,43.1417,42.8592,43.1662,43.3693,43.4508,43.5982,43.2354,43.7421,43.2214,43.4992,43.5704,43.8310,43.9979,44.1876,43.4795,43.7590,43.5095,43.0701,43.6775,43.7151,43.2806,42.9665,43.9790,43.4934,43.4232,43.4731,43.3872,43.5569,43.0405,43.1827,43.4277,43.4374,43.4606,43.0252,43.2331,43.2598,42.8227,43.2855,43.5759,43.4872,43.6198,43.5745,43.6033,43.8064,43.4016,43.3520,43.8069,43.5909,43.5145,43.5378,43.1468,43.2274,43.2974,43.5960,43.4336,43.4127,43.3989,43.4157,42.7320,43.2792,43.3184,43.7107,43.2423,43.2200,43.2840,43.4310,43.0965,43.3310,43.1513,43.2034,42.7775,43.5119,43.2469,43.4949,43.0139,43.3090,43.2618,43.6453,42.9653,43.8337,43.4704,42.8821,43.6853,43.4060,43.2750,43.2381,43.3630,43.1821,43.2536,42.9948,43.5389,43.4230,43.4294,43.1249,43.2811,43.4527,43.3621,42.8716,43.0606,43.4299,42.8371,43.1997,43.6498,43.5942,43.2075,43.3868,43.5210,43.5342,43.2166,42.9935,43.9557,43.5122,43.6781,43.2640,42.8004,43.1378,43.2593,43.3033,42.8492,43.2651,42.9637,43.2540,42.9724,43.3720,43.4659,43.2499,43.0144,43.3966,43.1037,43.5133,42.8262,43.1132,43.0656,43.3226,43.0668,43.5141,43.2385,43.6001,43.1469,43.4339,43.5516,43.8720,43.1842,43.5146,43.1073,43.0567,43.2940,43.5081,42.9985,42.8492,43.3270,43.4603,43.0905,42.9453,43.4114,43.4003,43.2655,42.9277,43.1492,43.0192,43.2448,42.6603,43.0358,43.2197,42.9072,42.9494,43.6369,43.5236,43.1258,43.2513,43.4335,43.6842,43.1954,43.4094,43.8308,42.9331,43.5664,43.4049,42.6636,43.4237,43.3491,43.5217,42.6266,42.8186,43.2808,43.4375,42.7782,43.1120,42.9108,43.0994,42.7636,43.1745,43.1670,43.2678,42.6448,43.2671,42.8384,43.5458,43.1762,43.5120,43.2228,43.2292,43.0058,43.5056,43.3760,43.4614,43.4716,43.4698,43.1397,43.1815,43.5095,43.1366,43.0283,42.6959,43.5753,43.0350,42.8215,42.9277,43.2195,43.4044,43.2378,42.6817,43.3203,43.1032,42.8805,42.9796,43.1328,43.4514,43.2141,42.9844,43.7736,43.5402,43.3910,43.0279,43.1730,43.5757,43.1950,43.5460,43.8787,42.8644,43.2995,43.1662,42.7344,43.3615,43.4829,43.1736,42.5752,43.0404,43.0542,43.4366,42.8745,43.5684,43.0663,43.1382,42.9318,43.1290,43.1042,43.2981,42.7804,43.1735,43.2043,43.5655,43.0881,43.5568,43.4295,43.5148,42.8991,43.3520,43.5858,43.3184,42.9869,43.3337,43.2454,42.9384,43.7498,43.1142,43.2085,42.7543,43.2787,43.3069,43.0216,43.0625,43.2202,43.1620,43.1408,43.0031,43.2297,43.0513,43.0309,42.8106,43.1514,43.1216,43.2564,42.9996,43.3008,43.7023,43.3210,43.2880,43.5369,43.6990,43.3418,43.4337,43.2356,43.1765,43.1119,43.3841,43.0358,43.1567,43.2040,43.2408,42.9482,43.0634,42.9961,43.2813,42.8488,42.9452,43.0954,43.3055,42.8765,42.9338,43.0838,43.1185,42.6377,43.0023,43.0437,43.1725,43.1096,43.1573,43.2499,43.9117,43.2948,43.5461,43.4068,43.6177,43.3134,43.6243,43.0286,42.9503,43.6897,42.9507,43.2147,42.3158,42.8840,42.8650,43.0750,42.6902,43.4488,43.4029,43.1737,43.2488,43.1494,43.3234,43.1567,42.9442,43.4238,43.2422,43.1267,43.0769,43.5105,43.5646,43.4170,43.2144,43.4475,43.2632,43.0462,43.0108,43.6886,43.1013,43.6152,43.1951,42.8494,43.3449,42.8801,43.1608,42.5742,43.0927,42.7891,43.4688,43.1458,43.3607,43.1737,43.4330,42.8459,43.0894,42.9669,42.8549,42.7929,43.3137,42.8953,43.4173,42.9891,43.1004,43.2054,43.3223,42.8885,43.5181,43.2974,43.9282,43.6431,43.6109,43.1458,42.9520,43.5244,43.3660,43.1858,42.9000,43.5106,43.1524,43.2522,43.2103,43.6362,43.5566,43.0659,42.8363,43.1364,42.9601,43.0264,42.8656,43.2696,43.0126,42.9322,43.3434,43.3491,43.3530,43.5794,42.9702,43.4501,43.3494,43.0963,43.2231,43.7993,43.1943,43.1922,43.0538,42.9077,43.3166,43.5452,43.4720,43.1094,43.2166,43.2363,43.4605,43.1392,43.3882,43.2350,43.6380,42.8669,43.2519,43.0494,43.0768,42.7629,43.0960,43.3082,43.1908,42.8592,43.2802,42.9409,43.7036,42.8133,43.4282,43.1968,43.7001,43.2053,43.3858,43.3169,43.1508,43.4341,43.5319,43.5405,43.0738,43.6128,43.4378,43.3852,42.9789,43.6329,43.4935,43.5926,43.3560,43.4938,43.4684,43.0330,43.1324,43.3472,42.9604,43.2895,42.8409,43.4535,43.5327,43.2287,43.2976,43.6153,43.5726,43.1352,43.5697,43.6813,43.1527,42.8712,42.8789,42.9486,43.5216,43.4243,43.4913,42.9500,43.2765,43.2724,43.2912,43.1948,43.2895,42.9562,43.5967,43.0087,43.4106,42.8804,43.4949,43.0087,43.3646,43.2687,43.4501,43.1125,43.5448,43.3958,43.5657,42.7731,43.4828,43.4649,44.0369,42.9329,43.7826,43.8805,43.2116,43.7022,43.5636,43.5939,43.2705,43.7146,43.4876,43.2125,43.0843,43.8067,43.3381,43.2727,43.3066,43.7747,43.4306,43.3572,42.9931,43.7026,43.3697,43.4323,43.2174,43.6253,43.4846,43.5303,43.4075,43.9166,43.1423,43.4527,43.4703,44.0570,43.1591,43.6180,43.2095,42.7216,43.2658,43.6438,43.4560,43.2810,43.4653,43.3275,43.6771,43.3540,43.2290,43.1868,43.4147,43.0399,43.2459,43.4891,43.3991,43.0907,43.3716,42.8198,43.8263,43.2020,43.2304,43.5783,43.9097,42.9934,43.4561,43.6345,43.6056,43.4090,43.5866,43.6177,43.4862,44.3188,43.6028,43.3521,43.2166,44.1873,43.4588,43.1978,43.3543,43.6245,43.4841,42.7173,43.0597,43.7283,43.3732,43.3480,43.1431,43.5627,43.5438,42.9552,43.2875,43.8628,43.5016,43.4232,43.4591,43.6774,43.9582,43.2258,43.6630,44.1712,43.2391,43.6224,43.6920,43.3488,43.4931,43.5438,43.3942,43.2903,43.3477,43.2567,43.7328,43.0356,43.2411,43.3484,43.3568,42.6947,43.6456,43.5977,43.5946,42.9299,43.5440,43.4665,43.4840,43.1848,43.7078,43.5247,43.5189,43.2233,43.7757,43.7993,43.8783,44.0130,43.7429,43.7485,43.6536,44.1717,43.7258,43.6410,43.2455,43.9806,43.9217,43.7596,43.2226,43.7558,43.6811,43.3664,43.1364,43.6719,43.4762,43.3706,42.7910,43.2458,43.3434,43.1423,43.3848,43.7425,43.7999,43.9226,43.5273,44.1169,44.2506,43.9819,43.8475,44.5591,43.6012,43.4591,43.5149,43.3781,43.7215,43.4064,43.6294,43.5408,43.2342,43.6880,43.0680,43.2597,43.3905,43.3257,43.6006,43.2017,43.2680,43.3225,43.5835,43.0430,43.2940,43.2698,43.3445,43.4203,43.4286,43.4132,44.0502,43.7518,44.1726,43.9673,44.6330,43.9672,
22:6:17:17:37:22:204,0.6000,75.0000,35.9000,A,0.0000,0.0000,32.0500,99404,161.1739,1079450,-0.0019,-0.0245,2.8179,0.0039,-0.0004,-0.0005,1078966,-0.7490,-1.3031,0.7639,0.0355,-0.0190,0.1112,1078966,130713675,796876705,82810,3,-1,11,0.00,0.00,0.00,-313,
22:6:17:17:37:22:303,0.6000,75.0000,35.9000,A,0.0000,0.0000,32.0600,99404,161.1739,1079450,-0.0019,-0.0245,2.8179,0.0039,-0.0004,-0.0005,1078966,-0.7490,-1.3031,0.7639,0.0355,-0.0190,0.1112,1078966,130713675,796876705,82810,3,-1,11,0.00,0.00,0.00,-313,
22:6:17:17:37:22:421,0.5000,3.0000,35.8000,A,0.0000,0.0000,32.0600,99406,161.0048,1079760,-0.0021,-0.0249,2.8180,-0.0002,-0.0028,-0.0036,1078966,-0.7490,-1.3031,0.7639,0.0355,-0.0190,0.1112,1078966,130713675,796876705,82810,3,-1,11,0.00,0.00,0.00,-313,
22:6:17:17:37:22:521,0.5000,3.0000,35.8000,A,0.0000,0.0000,32.0600,99398,161.6812,1079822,-0.0021,-0.0249,2.8180,-0.0033,0.0005,-0.0028,1078966,-0.7490,-1.3031,0.7639,0.0355,-0.0190,0.1112,1078966,130713675,796876705,82810,3,-1,11,0.00,0.00,0.00,-313,
22:6:17:17:37:22:637,0.7000,91.0000,35.8000,A,0.0000,0.0000,32.0600,99407,160.9202,1079945,-0.0021,-0.0249,2.8182,-0.0039,-0.0044,-0.0022,1078966,-0.7490,-1.3031,0.7639,0.0355,-0.0190,0.1112,1078966,130713675,796876705,82810,3,-1,11,0.00,0.00,0.00,-313,
22:6:17:17:37:22:737,0.7000,91.0000,35.8000,A,0.0000,0.0000,32.0700,99407,160.9202,1080070,-0.0023,-0.0250,2.8182,-0.0047,0.0013,-0.0029,1078966,-0.7490,-1.3031,0.7639,0.0355,-0.0190,0.1112,1078966,130713675,796876705,82810,3,-1,11,0.00,0.00,0.00,-313,
22:6:17:17:37:22:855,0.7000,64.0000,0.0000,A,0.0000,0.0000,32.0700,99406,161.0048,1080132,-0.0023,-0.0250,2.8183,-0.0034,-0.0022,-0.0030,1078966,-0.7490,-1.3031,0.7639,0.0355,-0.0190,0.1112,1078966,130713675,796876705,82810,3,-1,11,0.00,0.00,0.00,-313,
22:6:17:17:37:22:955,0.7000,64.0000,0.0000,A,0.0000,0.0000,32.0800,99385,162.7806,1080255,-0.0024,-0.0251,2.8184,-0.0018,-0.0001,-0.0031,1078966,-0.7490,-1.3031,0.7639,0.0355,-0.0190,0.1112,1078966,130713675,796876705,82810,3,-1,11,0.00,0.00,0.00,-313,
22:6:17:17:37:23:71,0.7000,64.0000,0.0000,A,0.0000,0.0000,32.0600,99400,161.5121,1080380,-0.0023,-0.0250,2.8186,-0.0001,-0.0006,-0.0024,1078966,-0.7490,-1.3031,0.7639,0.0355,-0.0190,0.1112,1078966,130713675,796876705,82810,3,-1,11,0.00,0.00,0.00,-313,43.7909,43.5610,43.7042,43.3272,43.3135,43.6375,43.5360,43.2775,43.2969,43.3921,43.3420,43.4753,43.2871,43.4363,43.2583,43.2826,43.1394,43.2340,43.3790,43.2925,43.2834,43.6600,43.3499,43.4339,43.4519,43.2616,43.4891,43.1795,43.1278,43.5919,44.0312,43.5368,43.6766,43.4225,43.4558,43.8841,44.0159,43.3797,43.1629,43.0294,43.6006,43.1439,43.1189,42.8320,43.2128,42.9065,43.1201,43.3650,43.3927,42.9360,43.0440,43.4436,43.3891,43.2374,43.2794,43.1762,43.9371,42.9736,43.5199,43.4926,43.6540,43.5089,44.2089,44.0310,43.2406,43.5291,43.3804,43.5066,43.4711,43.2998,43.4264,42.9839,43.2831,43.1196,43.4270,43.2492,43.2109,43.2141,43.1412,43.2924,42.9321,43.1712,43.4501,43.0957,42.9032,43.1581,43.3996,42.9444,43.2666,43.2943,43.5095,43.0733,43.1699,43.4217,43.2611,43.4122,43.4042,43.4284,43.5584,43.8225,43.4240,43.2369,43.1060,43.3813,43.5917,43.0358,43.2791,43.1570,43.6003,42.8263,43.2740,43.8103,43.2395,42.9415,42.9893,43.3658,43.1966,42.9556,43.0626,43.2139,43.6961,42.8506,42.9831,43.4899,43.7011,43.1923,43.4646,43.9001,43.1533,43.6819,43.3698,42.9784,43.5199,43.4631,43.5149,43.2184,43.1399,43.2726,43.4129,43.2496,43.3883,43.2990,43.5358,43.4492,43.4182,43.3811,43.1353,43.2303,43.0899,42.8563,43.0033,43.0365,43.2312,43.3886,43.5009,43.0317,43.2934,43.4192,44.0877,43.1887,43.5327,43.0376,43.0981,43.6312,43.4979,42.8746,43.1630,43.2859,43.2847,42.7699,43.1233,43.3928,43.5379,43.1382,43.1231,43.1290,43.5632,42.6326,43.0867,43.3889,43.2830,43.1803,43.0355,43.4947,43.5339,43.0345,43.1149,43.5958,43.8031,42.9505,43.3128,43.8832,43.4383,42.9410,43.1704,43.3134,42.9638,43.3371,43.4402,43.1894,42.8291,43.4073,43.3557,42.8447,42.9332,43.1406,43.3318,43.0212,42.9888,43.4094,43.2115,42.6128,43.1892,42.9264,43.0636,43.3489,43.3345,43.4591,43.6882,43.2885,43.2877,43.7356,43.5243,43.4717,43.5210,42.9467,43.2506,43.4777,42.9560,42.6733,42.9123,43.3629,43.1338,42.9552,43.1632,43.0390,43.2757,42.8827,42.9751,43.0241,43.0509,43.1372,42.7102,43.0515,43.2867,42.3662,43.2624,43.5955,43.3813,43.1819,43.4097,43.4499,43.5259,42.9769,43.6657,43.7745,43.2138,43.5222,43.1225,43.1887,43.2507,43.3615,43.1204,42.9857,42.8558,43.1402,43.0413,42.5089,43.0902,43.1161,43.3692,43.0560,43.0769,42.8994,43.2391,43.0085,42.8519,42.8067,43.3940,43.3502,43.3506,43.2586,43.4634,43.0293,43.0222,43.3850,43.6601,43.5345,43.0689,42.8739,43.0159,43.1852,43.2253,42.9734,43.0403,43.1427,43.3511,42.8721,42.8788,43.4231,43.4468,42.9009,43.0165,43.0464,43.2876,42.9377,43.1734,43.1801,43.0508,43.1773,43.2934,43.6445,43.2745,42.9413,43.3757,43.3386,43.5376,43.0267,43.1587,43.6447,42.9029,43.4445,43.2233,42.9341,43.0715,43.0696,43.1742,42.8394,42.9815,43.0405,43.1760,43.3838,43.2758,43.3011,43.1171,42.8200,42.8881,42.7675,43.0669,43.0278,42.9518,43.2756,43.4098,43.0227,43.3691,43.1900,43.4021,43.0859,42.9964,43.3617,43.3688,43.0751,43.5584,43.0472,43.0651,43.3175,42.8653,42.6906,42.5019,43.3662,43.0831,42.6789,43.1574,43.2514,43.1056,42.7882,43.0473,42.9912,43.0916,43.0585,42.9973,42.7526,43.1637,42.7251,43.0452,43.2243,43.1771,42.7645,43.3150,43.7215,43.8900,43.3575,43.2843,43.7870,43.1922,43.2272,43.2343,43.2095,42.9053,43.0796,43.1961,42.6010,42.9792,43.5301,43.2400,43.1799,43.2380,43.1926,43.2235,43.1685,43.1604,43.0379,43.1998,43.1589,42.7888,43.1459,43.1910,43.0844,43.2311,43.1381,43.4857,43.1507,43.2164,43.5531,43.6551,43.7091,43.4855,42.4834,42.8780,42.9645,43.0476,42.8421,42.7242,42.9899,43.1125,42.6129,43.2010,43.2604,43.6589,42.7322,43.0375,43.3826,42.9710,42.8065,42.5920,43.4755,43.1922,42.8690,43.1460,43.4000,43.4169,42.7247,43.4996,43.6340,43.5385,43.0890,43.4238,43.5804,43.1783,43.5165,43.5722,43.2114,42.6939,43.5110,43.1658,43.0779,42.8246,43.2713,43.3243,43.2375,43.1140,43.0849,43.2289,43.1556,42.6550,43.0454,43.1222,42.8635,42.5550,42.9515,43.1608,43.0725,43.0153,43.4470,43.0846,43.1541,43.1396,43.4431,43.5156,43.4593,43.5802,43.1320,42.9061,43.1891,43.3371,43.2019,43.0386,43.3749,43.0896,42.9167,43.0511,43.3940,43.4081,42.7907,43.1028,43.4028,43.4109,42.7485,42.9550,43.0190,42.9735,42.8623,43.0627,42.9742,43.6006,42.9034,42.9365,43.4027,43.2868,42.8229,43.5439,43.6812,43.1314,43.3363,43.4371,43.1133,43.4863,43.5597,43.3422,43.4816,43.4048,43.4044,43.3875,43.2149,43.1862,43.4710,43.3288,43.0837,43.1558,43.0522,43.1023,43.0812,43.0751,43.3089,43.2547,43.0237,43.4972,43.2483,43.4119,43.3137,43.0268,43.3231,43.5037,43.1576,43.5443,42.6254,42.9001,43.5742,43.3826,43.0712,43.0507,43.2149,43.2968,42.9444,43.1638,43.4554,43.4510,42.7870,43.3375,43.2661,43.4305,42.9954,42.9411,42.9809,43.5274,43.2395,43.0212,43.2274,43.5650,43.3586,43.1048,43.5317,43.1716,43.0767,43.5195,43.2309,43.3237,43.7181,43.6786,43.5512,43.1913,43.4509,43.3848,43.5793,43.3025,43.3807,43.4943,43.3816,43.0183,43.5747,43.5673,43.3599,43.1127,43.5192,43.4000,43.5738,43.3360,43.4518,43.6380,43.6451,43.4449,43.3940,43.1965,43.4382,43.2570,43.6469,43.9557,43.5104,43.5664,43.0018,42.8756,43.6940,43.2869,42.9454,43.4770,43.5514,43.6346,43.4423,43.2537,43.3203,43.3948,43.1593,43.1422,43.5899,43.4095,43.1771,43.2735,43.8000,43.3920,42.9351,43.5420,43.6241,43.5599,43.2268,43.6059,43.2773,43.4771,43.2272,43.6273,43.9064,43.7023,43.6377,43.7815,43.6234,42.8910,43.5390,43.4926,43.4074,43.1111,43.3713,43.6207,43.3384,43.0133,43.3264,43.0241,43.3013,43.0385,43.3675,43.4089,43.1289,43.2015,43.4289,43.7150,43.5713,43.6158,43.4431,44.0815,43.3550,43.8974,43.6073,43.7776,43.7968,43.0649,43.1674,43.3496,43.6447,43.3487,43.1556,43.2531,43.7274,43.2139,42.9091,43.2964,43.7624,43.5556,42.8743,43.2276,43.5566,43.0651,43.1220,43.1640,43.4972,43.5647,43.1261,43.1907,43.6169,44.0442,43.3136,43.8817,43.5116,43.6203,43.5546,43.7059,44.5254,43.4524,43.9684,43.5761,44.0057,43.4841,43.8367,44.0461,43.6649,43.5507,43.4575,43.4983,43.7756,43.4855,43.3860,43.4075,43.3861,43.2807,43.2368,43.5301,43.2657,43.3012,43.6354,43.4993,43.2645,43.4167,43.4352,44.1713,43.6004,43.8143,44.1902,44.1630,44.1698,43.6246,43.1723,43.3439,43.6837,43.3856,43.3466,43.1336,43.8253,43.4185,43.3204,43.0898,43.6973,43.5685,43.4420,43.6222,43.4708,43.4440,43.1317,43.2923,43.7856,43.4725,43.2275,43.3663,43.5368,43.7849,43.1882,43.8946,43.8677,44.3794,43.3261,44.2523,44.7061,
22:6:17:17:37:23:231,0.7000,64.0000,0.0000,A,0.0000,0.0000,32.0700,99405,161.0893,1080443,-0.0023,-0.0251,2.8185,0.0028,-0.0017,-0.0027,1078966,-0.7490,-1.3031,0.7639,0.0355,-0.0190,0.1112,1080465,130713682,796876702,82790,2,0,11,0.00,0.00,0.00,-332,
22:6:17:17:37:23:347,0.0000,64.0000,0.0000,A,0.0000,0.0000,32.0700,99404,161.1739,1080628,-0.0022,-0.0250,2.8185,0.0053,-0.0014,-0.0014,1078966,-0.7490,-1.3031,0.7639,0.0355,-0.0190,0.1112,1080465,130713682,796876702,82790,2,0,11,0.00,0.00,0.00,-332,
22:6:17:17:37:23:447,0.0000,64.0000,0.0000,A,0.0000,0.0000,32.0800,99403,161.2585,1080753,-0.0023,-0.0250,2.8187,0.0037,0.0033,-0.0012,1078966,-0.7490,-1.3031,0.7639,0.0355,-0.0190,0.1112,1080465,130713682,796876702,82790,2,0,11,0.00,0.00,0.00,-332,
22:6:17:17:37:23:562,86.0000,0.0000,0.0000,A,0.0000,0.0000,32.0800,99399,161.5967,1080875,-0.0023,-0.0251,2.8188,0.0029,-0.0003,-0.0024,1078966,-0.7490,-1.3031,0.7639,0.0355,-0.0190,0.1112,1080465,130713682,796876702,82790,2,0,11,0.00,0.00,0.00,-332,
22:6:17:17:37:23:662,86.0000,0.0000,0.0000,A,0.0000,0.0000,32.0800,99400,161.5121,1080875,-0.0023,-0.0251,2.8188,0.0029,-0.0003,-0.0024,1078966,-0.7490,-1.3031,0.7639,0.0355,-0.0190,0.1112,1080966,130713684,796876702,82780,2,0,11,0.00,0.00,0.00,-340,
22:6:17:17:37:23:779,0.7000,93.0000,0.0000,A,0.0000,0.0000,32.0800,99404,161.1739,1081062,-0.0024,-0.0251,2.8189,-0.0033,-0.0006,-0.0025,1078966,-0.7490,-1.3031,0.7639,0.0355,-0.0190,0.1112,1080966,130713684,796876702,82780,2,0,11,0.00,0.00,0.00,-340,
22:6:17:17:37:23:878,0.7000,93.0000,0.0000,A,0.0000,0.0000,32.0900,99402,161.3430,1081185,-0.0025,-0.0253,2.8190,-0.0037,0.0001,-0.0030,1078966,-0.7490,-1.3031,0.7639,0.0355,-0.0190,0.1112,1080966,130713684,796876702,82780,2,0,11,0.00,0.00,0.00,-340,
22:6:17:17:37:23:994,0.6000,82.0000,35.7000,A,0.0000,0.0000,32.0800,99395,161.9349,1081310,-0.0025,-0.0253,2.8190,-0.0054,-0.0038,-0.0036,1078966,-0.7490,-1.3031,0.7639,0.0355,-0.0190,0.1112,1080966,130713684,796876702,82780,2,0,11,0.00,0.00,0.00,-340,
