Timestamp,Wind speed,Wind angle,Acoustic temperature windsensor,Temperature validity,Temperature_aht10,Relative humidity_aht10,Temperature_ms5611,Pressure_ms5611,Absolute_altitude_ms5611,timestamp_pix_attitude,Roll,Pitch,Yaw,Roll speed,Pitch speed,Yaw speed,timestamp_pix_loc_pos,x,y,z,vx,vy,vz,timestamp_pix_gps,pix_lat,pix_lon,pix_alt,pix_gps_vx,pix_gps_vy,pix_gps_vz,latitude,longitude,altitude_gps,relative_altitude_gps,Pixel_0,Pixel_1,Pixel_2,Pixel_3,Pixel_4,Pixel_5,Pixel_6,Pixel_7,Pixel_8,Pixel_9,Pixel_10,Pixel_11,Pixel_12,Pixel_13,Pixel_14,Pixel_15,Pixel_16,Pixel_17,Pixel_18,Pixel_19,Pixel_20,Pixel_21,Pixel_22,Pixel_23,Pixel_24,Pixel_25,Pixel_26,Pixel_27,Pixel_28,Pixel_29,Pixel_30,Pixel_31,Pixel_32,Pixel_33,Pixel_34,Pixel_35,Pixel_36,Pixel_37,Pixel_38,Pixel_39,Pixel_40,Pixel_41,Pixel_42,Pixel_43,Pixel_44,Pixel_45,Pixel_46,Pixel_47,Pixel_48,Pixel_49,Pixel_50,Pixel_51,Pixel_52,Pixel_53,Pixel_54,Pixel_55,Pixel_56,Pixel_57,Pixel_58,Pixel_59,Pixel_60,Pixel_61,Pixel_62,Pixel_63,Pixel_64,Pixel_65,Pixel_66,Pixel_67,Pixel_68,Pixel_69,Pixel_70,Pixel_71,Pixel_72,Pixel_73,Pixel_74,Pixel_75,Pixel_76,Pixel_77,Pixel_78,Pixel_79,Pixel_80,Pixel_81,Pixel_82,Pixel_83,Pixel_84,Pixel_85,Pixel_86,Pixel_87,Pixel_88,Pixel_89,Pixel_90,Pixel_91,Pixel_92,Pixel_93,Pixel_94,Pixel_95,Pixel_96,Pixel_97,Pixel_98,Pixel_99,Pixel_100,Pixel_101,Pixel_102,Pixel_103,Pixel_104,Pixel_105,Pixel_106,Pixel_107,Pixel_108,Pixel_109,Pixel_110,Pixel_111,Pixel_112,Pixel_113,Pixel_114,Pixel_115,Pixel_116,Pixel_117,Pixel_118,Pixel_119,Pixel_120,Pixel_121,Pixel_122,Pixel_123,Pixel_124,Pixel_125,Pixel_126,Pixel_127,Pixel_128,Pixel_129,Pixel_130,Pixel_131,Pixel_132,Pixel_133,Pixel_134,Pixel_135,Pixel_136,Pixel_137,Pixel_138,Pixel_139,Pixel_140,Pixel_141,Pixel_142,Pixel_143,Pixel_144,Pixel_145,Pixel_146,Pixel_147,Pixel_148,Pixel_149,Pixel_150,Pixel_151,Pixel_152,Pixel_153,Pixel_154,Pixel_155,Pixel_156,Pixel_157,Pixel_158,Pixel_159,Pixel_160,Pixel_161,Pixel_162,Pixel_163,Pixel_164,Pixel_165,Pixel_166,Pixel_167,Pixel_168,Pixel_169,Pixel_170,Pixel_171,Pixel_172,Pixel_173,Pixel_174,Pixel_175,Pixel_176,Pixel_177,Pixel_178,Pixel_179,Pixel_180,Pixel_181,Pixel_182,Pixel_183,Pixel_184,Pixel_185,Pixel_186,Pixel_187,Pixel_188,Pixel_189,Pixel_190,Pixel_191,Pixel_192,Pixel_193,Pixel_194,Pixel_195,Pixel_196,Pixel_197,Pixel_198,Pixel_199,Pixel_200,Pixel_201,Pixel_202,Pixel_203,Pixel_204,Pixel_205,Pixel_206,Pixel_207,Pixel_208,Pixel_209,Pixel_210,Pixel_211,Pixel_212,Pixel_213,Pixel_214,Pixel_215,Pixel_216,Pixel_217,Pixel_218,Pixel_219,Pixel_220,Pixel_221,Pixel_222,Pixel_223,Pixel_224,Pixel_225,Pixel_226,Pixel_227,Pixel_228,Pixel_229,Pixel_230,Pixel_231,Pixel_232,Pixel_233,Pixel_234,Pixel_235,Pixel_236,Pixel_237,Pixel_238,Pixel_239,Pixel_240,Pixel_241,Pixel_242,Pixel_243,Pixel_244,Pixel_245,Pixel_246,Pixel_247,Pixel_248,Pixel_249,Pixel_250,Pixel_251,Pixel_252,Pixel_253,Pixel_254,Pixel_255,Pixel_256,Pixel_257,Pixel_258,Pixel_259,Pixel_260,Pixel_261,Pixel_262,Pixel_263,Pixel_264,Pixel_265,Pixel_266,Pixel_267,Pixel_268,Pixel_269,Pixel_270,Pixel_271,Pixel_272,Pixel_273,Pixel_274,Pixel_275,Pixel_276,Pixel_277,Pixel_278,Pixel_279,Pixel_280,Pixel_281,Pixel_282,Pixel_283,Pixel_284,Pixel_285,Pixel_286,Pixel_287,Pixel_288,Pixel_289,Pixel_290,Pixel_291,Pixel_292,Pixel_293,Pixel_294,Pixel_295,Pixel_296,Pixel_297,Pixel_298,Pixel_299,Pixel_300,Pixel_301,Pixel_302,Pixel_303,Pixel_304,Pixel_305,Pixel_306,Pixel_307,Pixel_308,Pixel_309,Pixel_310,Pixel_311,Pixel_312,Pixel_313,Pixel_314,Pixel_315,Pixel_316,Pixel_317,Pixel_318,Pixel_319,Pixel_320,Pixel_321,Pixel_322,Pixel_323,Pixel_324,Pixel_325,Pixel_326,Pixel_327,Pixel_328,Pixel_329,Pixel_330,Pixel_331,Pixel_332,Pixel_333,Pixel_334,Pixel_335,Pixel_336,Pixel_337,Pixel_338,Pixel_339,Pixel_340,Pixel_341,Pixel_342,Pixel_343,Pixel_344,Pixel_345,Pixel_346,Pixel_347,Pixel_348,Pixel_349,Pixel_350,Pixel_351,Pixel_352,Pixel_353,Pixel_354,Pixel_355,Pixel_356,Pixel_357,Pixel_358,Pixel_359,Pixel_360,Pixel_361,Pixel_362,Pixel_363,Pixel_364,Pixel_365,Pixel_366,Pixel_367,Pixel_368,Pixel_369,Pixel_370,Pixel_371,Pixel_372,Pixel_373,Pixel_374,Pixel_375,Pixel_376,Pixel_377,Pixel_378,Pixel_379,Pixel_380,Pixel_381,Pixel_382,Pixel_383,Pixel_384,Pixel_385,Pixel_386,Pixel_387,Pixel_388,Pixel_389,Pixel_390,Pixel_391,Pixel_392,Pixel_393,Pixel_394,Pixel_395,Pixel_396,Pixel_397,Pixel_398,Pixel_399,Pixel_400,Pixel_401,Pixel_402,Pixel_403,Pixel_404,Pixel_405,Pixel_406,Pixel_407,Pixel_408,Pixel_409,Pixel_410,Pixel_411,Pixel_412,Pixel_413,Pixel_414,Pixel_415,Pixel_416,Pixel_417,Pixel_418,Pixel_419,Pixel_420,Pixel_421,Pixel_422,Pixel_423,Pixel_424,Pixel_425,Pixel_426,Pixel_427,Pixel_428,Pixel_429,Pixel_430,Pixel_431,Pixel_432,Pixel_433,Pixel_434,Pixel_435,Pixel_436,Pixel_437,Pixel_438,Pixel_439,Pixel_440,Pixel_441,Pixel_442,Pixel_443,Pixel_444,Pixel_445,Pixel_446,Pixel_447,Pixel_448,Pixel_449,Pixel_450,Pixel_451,Pixel_452,Pixel_453,Pixel_454,Pixel_455,Pixel_456,Pixel_457,Pixel_458,Pixel_459,Pixel_460,Pixel_461,Pixel_462,Pixel_463,Pixel_464,Pixel_465,Pixel_466,Pixel_467,Pixel_468,Pixel_469,Pixel_470,Pixel_471,Pixel_472,Pixel_473,Pixel_474,Pixel_475,Pixel_476,Pixel_477,Pixel_478,Pixel_479,Pixel_480,Pixel_481,Pixel_482,Pixel_483,Pixel_484,Pixel_485,Pixel_486,Pixel_487,Pixel_488,Pixel_489,Pixel_490,Pixel_491,Pixel_492,Pixel_493,Pixel_494,Pixel_495,Pixel_496,Pixel_497,Pixel_498,Pixel_499,Pixel_500,Pixel_501,Pixel_502,Pixel_503,Pixel_504,Pixel_505,Pixel_506,Pixel_507,Pixel_508,Pixel_509,Pixel_510,Pixel_511,Pixel_512,Pixel_513,Pixel_514,Pixel_515,Pixel_516,Pixel_517,Pixel_518,Pixel_519,Pixel_520,Pixel_521,Pixel_522,Pixel_523,Pixel_524,Pixel_525,Pixel_526,Pixel_527,Pixel_528,Pixel_529,Pixel_530,Pixel_531,Pixel_532,Pixel_533,Pixel_534,Pixel_535,Pixel_536,Pixel_537,Pixel_538,Pixel_539,Pixel_540,Pixel_541,Pixel_542,Pixel_543,Pixel_544,Pixel_545,Pixel_546,Pixel_547,Pixel_548,Pixel_549,Pixel_550,Pixel_551,Pixel_552,Pixel_553,Pixel_554,Pixel_555,Pixel_556,Pixel_557,Pixel_558,Pixel_559,Pixel_560,Pixel_561,Pixel_562,Pixel_563,Pixel_564,Pixel_565,Pixel_566,Pixel_567,Pixel_568,Pixel_569,Pixel_570,Pixel_571,Pixel_572,Pixel_573,Pixel_574,Pixel_575,Pixel_576,Pixel_577,Pixel_578,Pixel_579,Pixel_580,Pixel_581,Pixel_582,Pixel_583,Pixel_584,Pixel_585,Pixel_586,Pixel_587,Pixel_588,Pixel_589,Pixel_590,Pixel_591,Pixel_592,Pixel_593,Pixel_594,Pixel_595,Pixel_596,Pixel_597,Pixel_598,Pixel_599,Pixel_600,Pixel_601,Pixel_602,Pixel_603,Pixel_604,Pixel_605,Pixel_606,Pixel_607,Pixel_608,Pixel_609,Pixel_610,Pixel_611,Pixel_612,Pixel_613,Pixel_614,Pixel_615,Pixel_616,Pixel_617,Pixel_618,Pixel_619,Pixel_620,Pixel_621,Pixel_622,Pixel_623,Pixel_624,Pixel_625,Pixel_626,Pixel_627,Pixel_628,Pixel_629,Pixel_630,Pixel_631,Pixel_632,Pixel_633,Pixel_634,Pixel_635,Pixel_636,Pixel_637,Pixel_638,Pixel_639,Pixel_640,Pixel_641,Pixel_642,Pixel_643,Pixel_644,Pixel_645,Pixel_646,Pixel_647,Pixel_648,Pixel_649,Pixel_650,Pixel_651,Pixel_652,Pixel_653,Pixel_654,Pixel_655,Pixel_656,Pixel_657,Pixel_658,Pixel_659,Pixel_660,Pixel_661,Pixel_662,Pixel_663,Pixel_664,Pixel_665,Pixel_666,Pixel_667,Pixel_668,Pixel_669,Pixel_670,Pixel_671,Pixel_672,Pixel_673,Pixel_674,Pixel_675,Pixel_676,Pixel_677,Pixel_678,Pixel_679,Pixel_680,Pixel_681,Pixel_682,Pixel_683,Pixel_684,Pixel_685,Pixel_686,Pixel_687,Pixel_688,Pixel_689,Pixel_690,Pixel_691,Pixel_692,Pixel_693,Pixel_694,Pixel_695,Pixel_696,Pixel_697,Pixel_698,Pixel_699,Pixel_700,Pixel_701,Pixel_702,Pixel_703,Pixel_704,Pixel_705,Pixel_706,Pixel_707,Pixel_708,Pixel_709,Pixel_710,Pixel_711,Pixel_712,Pixel_713,Pixel_714,Pixel_715,Pixel_716,Pixel_717,Pixel_718,Pixel_719,Pixel_720,Pixel_721,Pixel_722,Pixel_723,Pixel_724,Pixel_725,Pixel_726,Pixel_727,Pixel_728,Pixel_729,Pixel_730,Pixel_731,Pixel_732,Pixel_733,Pixel_734,Pixel_735,Pixel_736,Pixel_737,Pixel_738,Pixel_739,Pixel_740,Pixel_741,Pixel_742,Pixel_743,Pixel_744,Pixel_745,Pixel_746,Pixel_747,Pixel_748,Pixel_749,Pixel_750,Pixel_751,Pixel_752,Pixel_753,Pixel_754,Pixel_755,Pixel_756,Pixel_757,Pixel_758,Pixel_759,Pixel_760,Pixel_761,Pixel_762,Pixel_763,Pixel_764,Pixel_765,Pixel_766,Pixel_767,
22:6:18:5:33:8:444,0.0000,0.0000,0.0000,,27.5902,96.9543,27.6000,99688,137.1880,0,0.0000,0.0000,0.0000,0.0000,0.0000,0.0000,0,0.0000,0.0000,0.0000,0.0000,0.0000,0.0000,0,0,0,0,0,0,0,0.00,0.00,0.00,0,
22:6:18:5:33:8:548,0.0000,0.0000,0.0000,,27.6403,96.9798,27.6100,99693,136.7662,46306,-0.0257,-0.0422,-3.1012,0.0078,0.0214,0.0119,0,0.0000,0.0000,0.0000,0.0000,0.0000,0.0000,46306,130713417,796876382,82730,0,1,1,0.00,0.00,0.00,68,
22:6:18:5:33:8:675,0.1000,263.0000,22.4000,A,27.6623,96.9847,27.6300,99691,136.9349,46431,-0.0258,-0.0406,-3.1013,-0.0068,-0.0211,-0.0003,0,0.0000,0.0000,0.0000,0.0000,0.0000,0.0000,46306,130713417,796876382,82730,0,1,1,0.00,0.00,0.00,68,34.9514,34.2230,34.5895,34.5008,34.2660,33.7892,34.1088,34.2764,34.1331,34.0951,34.0824,34.0955,33.6519,33.2882,33.7446,33.8560,34.1134,33.4720,33.6795,33.7544,33.5206,33.9349,33.6181,33.9506,33.9097,33.6797,33.9346,34.1019,0.0000,0.0000,0.0000,0.0000,0.0000,0.0000,0.0000,0.0000,0.0000,0.0000,0.0000,0.0000,0.0000,0.0000,0.0000,0.0000,0.0000,0.0000,0.0000,0.0000,0.0000,0.0000,0.0000,0.0000,0.0000,0.0000,0.0000,0.0000,0.0000,0.0000,0.0000,0.0000,0.0000,0.0000,0.0000,0.0000,0.0000,0.0000,0.0000,0.0000,0.0000,0.0000,0.0000,0.0000,0.0000,0.0000,0.0000,0.0000,0.0000,0.0000,0.0000,0.0000,0.0000,0.0000,0.0000,0.0000,0.0000,0.0000,0.0000,0.0000,0.0000,0.0000,0.0000,0.0000,0.0000,0.0000,0.0000,0.0000,0.0000,0.0000,0.0000,0.0000,0.0000,0.0000,0.0000,0.0000,0.0000,0.0000,0.0000,0.0000,0.0000,0.0000,0.0000,0.0000,0.0000,0.0000,0.0000,0.0000,0.0000,0.0000,0.0000,0.0000,0.0000,0.0000,0.0000,0.0000,0.0000,0.0000,0.0000,0.0000,0.0000,0.0000,0.0000,0.0000,0.0000,0.0000,0.0000,0.0000,0.0000,0.0000,0.0000,0.0000,0.0000,0.0000,0.0000,0.0000,0.0000,0.0000,0.0000,0.0000,0.0000,0.0000,0.0000,0.0000,0.0000,0.0000,0.0000,0.0000,0.0000,0.0000,0.0000,0.0000,0.0000,0.0000,0.0000,0.0000,0.0000,0.0000,0.0000,0.0000,0.0000,0.0000,0.0000,0.0000,0.0000,0.0000,0.0000,0.0000,0.0000,0.0000,0.0000,0.0000,0.0000,0.0000,0.0000,0.0000,0.0000,0.0000,0.0000,0.0000,0.0000,0.0000,0.0000,0.0000,0.0000,0.0000,0.0000,0.0000,0.0000,0.0000,0.0000,0.0000,0.0000,0.0000,0.0000,0.0000,0.0000,0.0000,0.0000,0.0000,0.0000,0.0000,0.0000,0.0000,0.0000,0.0000,0.0000,0.0000,0.0000,0.0000,0.0000,0.0000,0.0000,0.0000,0.0000,0.0000,0.0000,0.0000,0.0000,0.0000,0.0000,0.0000,0.0000,0.0000,0.0000,0.0000,0.0000,0.0000,0.0000,0.0000,0.0000,0.0000,0.0000,0.0000,0.0000,0.0000,0.0000,0.0000,0.0000,0.0000,0.0000,0.0000,0.0000,0.0000,0.0000,0.0000,0.0000,0.0000,0.0000,0.0000,0.0000,0.0000,0.0000,0.0000,0.0000,0.0000,0.0000,0.0000,0.0000,0.0000,0.0000,0.0000,0.0000,0.0000,0.0000,0.0000,0.0000,0.0000,0.0000,0.0000,0.0000,0.0000,0.0000,0.0000,0.0000,0.0000,0.0000,0.0000,0.0000,0.0000,0.0000,0.0000,0.0000,0.0000,0.0000,0.0000,0.0000,0.0000,0.0000,0.0000,0.0000,0.0000,0.0000,0.0000,0.0000,0.0000,0.0000,0.0000,0.0000,0.0000,0.0000,0.0000,0.0000,0.0000,0.0000,0.0000,0.0000,0.0000,0.0000,0.0000,0.0000,0.0000,0.0000,0.0000,0.0000,0.0000,0.0000,0.0000,0.0000,0.0000,0.0000,0.0000,0.0000,0.0000,0.0000,0.0000,0.0000,0.0000,0.0000,0.0000,0.0000,0.0000,0.0000,0.0000,0.0000,0.0000,0.0000,0.0000,0.0000,0.0000,0.0000,0.0000,0.0000,0.0000,0.0000,0.0000,0.0000,0.0000,0.0000,0.0000,0.0000,0.0000,0.0000,0.0000,0.0000,0.0000,0.0000,0.0000,0.0000,0.0000,0.0000,0.0000,0.0000,0.0000,0.0000,0.0000,0.0000,0.0000,0.0000,0.0000,0.0000,0.0000,0.0000,0.0000,0.0000,0.0000,0.0000,0.0000,0.0000,0.0000,0.0000,0.0000,0.0000,0.0000,0.0000,0.0000,0.0000,0.0000,0.0000,0.0000,0.0000,0.0000,0.0000,0.0000,0.0000,0.0000,0.0000,0.0000,0.0000,0.0000,0.0000,0.0000,0.0000,0.0000,0.0000,0.0000,0.0000,0.0000,0.0000,0.0000,0.0000,0.0000,33.3933,33.5905,33.8154,33.5247,33.1733,33.1460,33.5027,33.4204,33.9925,33.6557,33.8480,33.5323,33.4820,33.7892,33.8879,33.8776,33.5693,33.7220,33.6887,33.7063,33.8474,33.5942,34.1150,33.9150,33.6431,33.8679,34.1301,34.0265,34.0809,34.4288,33.9981,33.7075,33.9549,33.7997,33.6629,33.6074,33.7501,33.8357,33.5171,33.7392,33.6041,33.7104,34.0353,33.6097,33.8635,33.5582,33.8019,33.8363,33.4926,33.3499,33.7677,33.6686,33.9897,33.7328,33.8221,34.3951,33.7509,33.8157,34.3740,34.5927,34.2573,33.8525,34.1897,34.5529,33.9326,33.9598,34.1661,34.2207,33.7036,33.7883,33.6788,33.7031,33.7288,33.5383,33.8949,33.8616,33.5679,33.6875,33.6385,33.4288,33.4521,33.5904,33.9498,33.2481,34.0999,33.6588,34.3282,33.9731,34.0357,33.7227,34.3812,33.8852,34.1407,34.3044,34.2851,33.9958,33.8528,33.7164,33.5802,34.1625,34.0701,34.0473,33.5869,34.0562,33.7795,33.7584,33.7877,34.0139,34.1158,33.6709,33.7062,34.0276,34.0063,33.7332,33.8213,33.8704,34.3474,33.4467,33.9050,33.9563,34.2033,33.7133,34.2808,34.4387,34.3324,33.9401,34.1034,34.3011,33.8594,33.7079,34.0948,33.7576,33.9081,33.7133,33.9421,33.9984,33.5028,33.6033,33.6539,33.9317,33.9198,33.6322,34.0094,33.7795,34.1384,33.6842,33.6901,33.9388,33.9401,33.9157,34.2439,33.6869,34.3112,33.8301,34.4672,34.3270,34.1413,34.4234,34.5903,34.2399,33.9643,34.2131,34.0047,34.2739,33.5375,33.4751,33.6550,34.1380,33.7469,33.9744,33.9376,33.7711,33.8702,33.4003,33.6232,34.1708,33.9613,33.9517,33.7550,34.1796,33.9730,33.5127,33.7856,34.0732,34.1223,33.8338,34.4055,34.3952,33.9227,34.2525,34.2686,34.3858,34.3336,34.0313,34.4097,34.0630,33.7045,33.9244,34.0117,33.5942,33.9149,33.6616,33.8002,33.8607,33.8548,33.6788,33.9509,33.9359,33.8049,33.5918,33.7935,34.0433,33.9066,34.0009,34.3492,34.0259,34.4627,33.5920,34.2264,34.3493,34.2719,34.5602,34.3637,34.4266,34.0745,34.1500,34.1350,34.4160,33.9845,33.9127,33.6062,34.2536,33.8303,33.9544,33.8788,34.0269,33.8762,33.5013,33.9039,34.2495,33.7889,33.5823,34.1982,33.8870,34.0459,33.9904,34.1197,34.1864,34.6422,33.9608,34.1703,35.0459,34.1025,34.0265,34.6302,34.2237,34.1218,34.2297,34.1933,34.2157,34.0162,34.2510,34.0236,34.2124,33.3825,33.9540,33.9175,33.8185,34.0160,33.6858,34.1207,33.6953,33.9491,34.0606,33.9246,34.1892,33.7361,33.8251,34.5542,34.5005,34.6286,34.3107,34.6440,34.5403,34.6326,34.3799,34.1986,34.8061,34.6948,34.5436,34.3749,34.7955,34.5169,34.0832,33.9782,34.4520,34.1753,33.9354,34.0460,33.9724,34.1366,34.1121,34.1995,34.2182,34.0577,33.7090,34.2093,34.6073,34.2497,33.9474,34.5165,34.7662,34.8739,34.1210,35.0065,34.8012,34.2192,34.3541,34.4615,34.3628,34.0986,33.9680,34.4184,34.3754,34.1175,34.2354,34.5026,34.3420,33.9715,34.0931,34.3808,34.1915,34.0775,33.8514,34.2068,34.0825,34.3324,34.1214,34.1916,34.3194,34.1692,34.0305,34.4938,34.2349,34.7701,33.9878,35.1980,35.0885,
22:6:18:5:33:8:846,0.1000,263.0000,22.4000,A,27.6657,96.9963,27.6300,99692,136.8506,46554,-0.0254,-0.0427,-3.1025,-0.0000,0.0045,-0.0013,0,0.0000,0.0000,0.0000,0.0000,0.0000,0.0000,46306,130713417,796876382,82730,0,1,1,0.00,0.00,0.00,68,
22:6:18:5:33:8:973,262.0000,0.0000,0.0000,A,27.6892,97.0111,27.6300,99690,137.0193,46741,-0.0255,-0.0403,-3.1021,-0.0060,0.0060,-0.0012,0,0.0000,0.0000,0.0000,0.0000,0.0000,0.0000,46306,130713417,796876382,82730,0,1,1,0.00,0.00,0.00,68,
22:6:18:5:33:9:84,262.0000,0.0000,0.0000,A,27.7077,97.0284,27.6400,99692,136.8506,46864,-0.0257,-0.0428,-3.1031,0.0022,-0.0091,-0.0038,0,0.0000,0.0000,0.0000,0.0000,0.0000,0.0000,46806,130713415,796876383,82700,-1,0,1,0.00,0.00,0.00,80,
22:6:18:5:33:9:213,0.4000,318.0000,32.5000,A,27.7113,97.0098,27.6400,99694,136.6819,47051,-0.0257,-0.0408,-3.1026,0.0013,0.0148,-0.0006,0,0.0000,0.0000,0.0000,0.0000,0.0000,0.0000,46806,130713415,796876383,82700,-1,0,1,0.00,0.00,0.00,80,
22:6:18:5:33:9:326,0.4000,318.0000,32.5000,A,27.7256,97.0192,27.6500,99691,136.9349,47114,-0.0256,-0.0408,-3.1029,-0.0070,-0.0141,-0.0059,0,0.0000,0.0000,0.0000,0.0000,0.0000,0.0000,46806,130713415,796876383,82700,-1,0,1,0.00,0.00,0.00,80,
22:6:18:5:33:9:453,0.5000,323.0000,32.4000,A,27.7302,97.0084,27.6400,99683,137.6098,47114,-0.0256,-0.0408,-3.1029,-0.0070,-0.0141,-0.0059,0,0.0000,0.0000,0.0000,0.0000,0.0000,0.0000,46806,130713415,796876383,82700,-1,0,1,0.00,0.00,0.00,80,
22:6:18:5:33:9:563,0.5000,323.0000,32.4000,A,27.7426,97.0279,27.6400,99693,136.7662,47114,-0.0256,-0.0408,-3.1029,-0.0070,-0.0141,-0.0059,0,0.0000,0.0000,0.0000,0.0000,0.0000,0.0000,47306,130713411,796876384,82700,0,0,0,0.00,0.00,0.00,89,
22:6:18:5:33:9:690,0.7000,318.0000,0.0000,A,27.7403,97.0275,27.6500,99694,136.6819,47484,-0.0256,-0.0415,-3.1036,-0.0033,-0.0203,-0.0052,0,0.0000,0.0000,0.0000,0.0000,0.0000,0.0000,47306,130713411,796876384,82700,0,0,0,0.00,0.00,0.00,89,34.9664,34.4846,34.6046,33.6487,34.4828,34.0198,34.1243,34.3045,33.9637,34.1219,34.0979,33.9435,33.8441,33.6680,33.9337,33.3568,34.1289,33.8485,34.0530,33.7832,34.0771,33.6041,33.8196,33.6016,34.1164,33.9084,33.7436,33.9237,34.5830,34.0832,34.1941,34.0332,34.7349,34.4844,34.4865,34.3189,34.1314,34.0582,34.2295,34.1056,34.0120,33.7762,33.8161,34.2460,33.8674,33.5361,34.0456,33.6935,33.9722,33.4888,33.6191,34.0737,33.5774,33.8011,33.5262,33.9619,34.1499,34.1069,33.8718,34.5344,34.3709,34.3163,34.5223,34.4356,34.9358,34.0941,34.1676,33.6682,33.9324,34.0241,33.9369,33.9375,34.1257,33.7880,34.2167,33.7433,33.4896,33.8122,33.8428,33.8805,33.8095,33.5574,33.8452,33.4323,0.0000,0.0000,0.0000,0.0000,0.0000,0.0000,0.0000,0.0000,0.0000,0.0000,0.0000,0.0000,0.0000,0.0000,0.0000,0.0000,0.0000,0.0000,0.0000,0.0000,0.0000,0.0000,0.0000,0.0000,0.0000,0.0000,0.0000,0.0000,33.6900,33.4025,33.2734,33.9301,33.5922,33.4764,33.5834,33.9056,34.2764,34.0960,33.4889,33.9103,33.9614,34.0388,34.0869,34.2180,34.4668,34.3530,34.4181,33.7552,34.3556,33.5399,33.9790,34.0054,33.6556,33.9987,34.0957,33.6827,33.8656,33.8989,34.0274,33.6077,34.0314,33.7332,33.7258,33.3241,33.6054,33.3331,33.7033,33.4768,33.9524,33.7095,33.8388,34.1201,34.5457,33.9414,34.2662,34.3092,34.1044,34.5749,33.9622,34.3290,33.8672,33.5611,33.7265,33.9900,33.7086,33.8564,33.7056,34.1921,33.4526,33.7901,33.6660,33.7811,34.0764,33.3022,33.5398,33.6734,33.8338,33.5616,33.6395,34.1627,33.8218,33.7455,34.0847,34.2586,34.2107,34.1343,33.9449,34.2769,34.5537,33.7889,34.0654,34.2491,34.0361,33.5677,33.8853,33.5368,34.2095,33.5597,34.1733,33.5475,33.8182,33.3243,33.7953,33.4003,33.7664,33.8423,33.6549,33.7487,33.6574,33.5827,33.8334,33.6074,33.6616,33.6193,33.8552,33.4810,34.0130,33.8075,34.1343,33.7726,34.2572,34.2475,33.8510,34.2776,33.9137,33.6166,33.5387,33.7519,33.6305,33.6256,33.8437,33.9039,33.5846,33.7019,33.4600,33.7428,33.8496,33.7476,33.3200,33.7692,33.9030,33.7979,33.7748,33.9248,33.5719,33.6913,33.7919,34.0129,34.0960,33.8243,33.8156,34.3610,34.2635,33.7340,33.9841,33.7692,33.9102,33.6920,33.8416,33.6440,33.6943,33.8898,33.7953,33.6881,33.7693,33.4302,33.7574,33.9430,33.8568,33.4576,33.9790,33.5261,33.8021,33.6487,33.7417,33.5207,0.0000,0.0000,0.0000,0.0000,0.0000,0.0000,0.0000,0.0000,0.0000,0.0000,0.0000,0.0000,0.0000,0.0000,0.0000,0.0000,0.0000,0.0000,0.0000,0.0000,0.0000,0.0000,0.0000,0.0000,0.0000,0.0000,0.0000,0.0000,33.8743,33.8891,33.5430,34.1670,33.9173,33.6125,33.7798,33.9766,33.8740,33.7792,33.7726,34.0486,34.2043,34.0917,33.9566,34.1076,34.0557,33.5251,33.8111,33.6406,33.9866,33.6480,33.6489,33.5458,33.7278,33.5956,33.8955,33.1937,33.5500,33.6292,33.4693,33.5460,33.4824,33.7197,33.9053,33.8076,34.1082,34.0387,33.6020,33.7146,34.4430,33.8629,34.0068,34.0274,33.7546,34.0443,33.8110,33.6266,33.6816,33.6420,33.3075,34.0411,33.9420,33.7490,33.3442,33.7369,33.6913,33.3773,33.7202,33.5434,33.7785,33.6846,33.5965,33.7225,34.0144,33.7771,33.7157,33.8550,33.8874,33.7750,33.7233,33.7406,33.6670,33.7311,33.9669,34.0481,34.4798,34.0767,33.8115,33.9008,33.9603,33.9893,34.1576,33.7812,33.5429,33.6724,33.6879,33.8325,33.8942,33.4157,33.5911,33.4792,33.7054,33.4403,33.7819,33.5534,33.7873,33.5337,33.7348,33.5308,33.4800,33.7050,34.1337,34.0759,34.2307,34.0004,34.0009,34.1921,34.4147,34.0581,34.0053,33.9930,33.7622,33.7711,33.6830,33.7024,33.8232,33.4746,33.5319,33.8992,33.8705,33.3757,33.4319,33.8502,33.3610,33.6597,33.4644,33.7431,33.5965,33.5886,33.5620,33.8818,33.8748,33.6117,33.8103,33.9324,34.1897,33.8855,33.9753,34.4247,34.4850,34.4561,34.1934,34.2681,34.3051,33.9893,33.8404,33.7955,34.2368,33.7066,33.9923,33.6166,33.7689,34.0338,33.7541,33.4860,33.7304,33.8801,33.8176,33.5608,33.8132,33.8280,33.7835,33.5387,33.6834,33.7608,34.1756,33.9199,34.2853,33.6709,34.0097,33.8563,34.2898,34.0571,33.8635,34.2168,33.9623,34.3026,33.5502,34.0771,34.2019,33.8055,33.8615,34.0199,33.9053,33.7049,33.7755,34.0284,33.5952,33.5568,33.8193,33.7478,33.4799,33.7576,33.8212,33.5833,33.6460,33.6764,34.1913,33.8223,34.0660,33.9143,34.0356,34.4795,34.1563,34.3320,34.1182,34.3867,34.5500,34.0778,33.9256,34.0289,33.9287,33.6017,34.0751,33.9275,33.7952,33.7844,33.8033,33.8882,33.9796,33.5442,33.7220,33.7506,33.8694,34.0684,33.8370,33.7390,33.8821,33.6404,33.9207,33.9868,34.5703,34.1023,34.4885,34.0862,34.1685,34.3411,33.9551,34.3182,34.0609,33.3912,33.6337,34.0947,34.0939,33.7307,34.1300,34.1711,33.8341,33.6207,33.8337,34.1007,33.9472,34.1067,33.7328,33.7968,34.0140,34.0093,33.7209,33.7965,33.9688,34.0966,33.9331,33.8764,34.1653,34.2060,34.6925,34.3447,34.5652,34.4522,34.4180,34.2693,33.8065,33.8932,34.1880,33.9709,34.0336,33.6617,34.1449,33.8487,33.6080,33.8497,33.7965,33.6440,34.0396,33.8863,34.1077,33.8815,33.9769,33.9792,34.4250,33.7147,33.9887,34.0433,33.8014,33.9265,34.1379,34.0513,34.6185,34.0259,33.9585,34.2701,34.1153,34.7667,34.0182,34.0487,33.9408,34.2461,33.8945,33.7842,34.0433,33.9294,33.6335,33.9833,33.8313,34.0329,33.8837,33.6963,33.9819,34.2706,33.6763,33.7656,33.9889,34.0606,33.7711,34.0185,34.0348,34.2221,34.4947,33.6101,34.4597,33.9605,34.6994,34.5899,34.7639,34.4570,34.6174,34.3564,34.1505,34.1031,34.1643,33.9403,34.1108,33.7922,34.3138,34.1386,33.8945,33.7370,34.2114,33.8453,33.7576,33.7946,33.9676,33.7727,34.0464,34.2508,34.0615,34.3684,34.4973,33.8522,34.0956,34.1858,34.5992,34.6605,34.3501,34.2473,33.8903,34.6255,33.9790,33.8886,34.2278,34.2330,34.0481,34.2682,33.8937,34.0664,33.8862,34.1283,34.1100,34.3131,34.0459,33.8617,33.9924,34.1954,33.9797,34.0780,33.9580,34.0375,34.4440,34.0179,34.4067,34.5179,34.6286,34.3107,34.6440,34.5403,34.6326,34.3799,34.1986,34.8061,34.6948,34.5436,34.3749,34.7955,34.5169,34.0832,33.9782,34.4520,34.1753,33.9354,34.0460,33.9724,34.1366,34.1121,34.1995,34.2182,34.0577,33.7090,34.2093,34.6073,34.4421,34.5204,34.5318,34.7995,34.4970,34.5564,35.2356,34.6193,34.4810,34.3723,34.2972,34.7821,34.5184,34.3633,33.9048,34.9297,34.1524,34.4252,34.1942,34.7022,34.3395,34.2757,33.9146,34.0452,33.9450,34.0327,33.9084,34.7674,34.1981,34.1391,34.4035,34.3372,34.0249,34.4116,34.3422,34.8303,34.8074,34.2086,35.0240,34.8857,
22:6:18:5:33:9:865,0.7000,318.0000,0.0000,A,27.7208,97.0247,27.6400,99690,137.0193,47484,-0.0256,-0.0415,-3.1036,-0.0033,-0.0203,-0.0052,0,0.0000,0.0000,0.0000,0.0000,0.0000,0.0000,47306,130713411,796876384,82700,0,0,0,0.00,0.00,0.00,89,
22:6:18:5:33:9:992,0.7000,318.0000,0.0000,A,27.7323,97.0067,27.6400,99687,137.2724,47484,-0.0256,-0.0415,-3.1036,-0.0033,-0.0203,-0.0052,0,0.0000,0.0000,0.0000,0.0000,0.0000,0.0000,47306,130713411,796876384,82700,0,0,0,0.00,0.00,0.00,89,
22:6:18:5:33:10:102,0.7000,318.0000,0.0000,A,27.7454,97.0447,27.6400,99692,136.8506,47918,-0.0257,-0.0423,-3.1057,0.0060,0.0086,0.0025,0,0.0000,0.0000,0.0000,0.0000,0.0000,0.0000,47306,130713411,796876384,82700,0,0,0,0.00,0.00,0.00,89,
22:6:18:5:33:10:225,0.9000,310.0000,32.0000,A,27.7483,97.0289,27.6500,99694,136.6819,47981,-0.0255,-0.0412,-3.1060,0.0065,0.0181,0.0031,0,0.0000,0.0000,0.0000,0.0000,0.0000,0.0000,47306,130713411,796876384,82700,0,0,0,0.00,0.00,0.00,89,
22:6:18:5:33:10:339,0.9000,310.0000,32.0000,A,27.7538,97.0277,27.6500,99693,136.7662,48104,-0.0258,-0.0413,-3.1063,0.0045,-0.0012,-0.0047,0,0.0000,0.0000,0.0000,0.0000,0.0000,0.0000,47306,130713411,796876384,82700,0,0,0,0.00,0.00,0.00,89,
22:6:18:5:33:10:462,0.7000,299.0000,32.1000,A,27.7555,97.0363,27.6500,99690,137.0193,48229,-0.0257,-0.0423,-3.1067,-0.0036,-0.0091,0.0007,0,0.0000,0.0000,0.0000,0.0000,0.0000,0.0000,47306,130713411,796876384,82700,0,0,0,0.00,0.00,0.00,89,
22:6:18:5:33:10:577,0.7000,299.0000,32.1000,A,27.7599,97.0226,27.6500,99689,137.1037,48354,-0.0255,-0.0410,-3.1065,-0.0005,0.0064,0.0023,0,0.0000,0.0000,0.0000,0.0000,0.0000,0.0000,48306,130713404,796876389,82730,0,0,0,0.00,0.00,0.00,104,
22:6:18:5:33:10:702,297.0000,0.0000,0.0000,A,27.7580,97.0386,27.6500,99691,136.9349,48476,-0.0257,-0.0416,-3.1069,0.0006,-0.0017,-0.0041,0,0.0000,0.0000,0.0000,0.0000,0.0000,0.0000,48306,130713404,796876389,82730,0,0,0,0.00,0.00,0.00,104,35.2072,34.4819,34.6056,34.0874,34.4838,34.6240,34.3196,33.9156,34.1494,34.3028,34.2804,33.5804,34.0209,33.8418,33.9345,33.5302,33.9569,34.0205,34.0538,33.9595,33.7177,34.1396,33.8203,34.3559,34.4984,34.1037,33.9509,34.1308,34.1548,34.2999,34.6629,34.7409,35.1998,34.4841,34.2664,34.1025,34.1294,34.0579,34.4180,34.4840,34.3722,34.1351,34.3476,33.7167,34.0385,33.8818,33.8732,33.6932,33.8006,33.4883,33.9682,33.8990,33.7523,33.9761,33.8871,33.7755,34.1483,34.1065,34.0720,34.3285,34.1574,34.7455,34.7482,34.6673,34.9370,34.5267,34.7948,34.6827,34.1247,34.2116,34.1226,33.9351,34.2992,34.1306,33.7073,33.9091,34.1463,33.6450,33.6773,33.7128,33.6447,33.8856,33.8460,33.9327,33.5432,33.7777,34.1954,33.5640,34.0918,34.1059,34.3531,33.7619,34.1395,34.2141,34.6390,34.4902,34.5143,34.5306,34.4815,34.2780,34.3446,34.2330,34.0540,34.2677,34.3395,33.7906,33.8086,33.8861,33.6726,33.6621,33.7642,33.7078,34.0153,33.7282,33.7657,33.5989,33.7556,33.6420,33.7533,33.7338,34.0993,33.9141,34.4334,34.1023,34.3562,33.6431,34.5147,34.4354,34.4678,34.3507,34.0214,33.9467,34.3566,34.0797,34.1541,34.0033,33.8231,34.1623,33.7714,34.0105,34.0250,33.5773,33.7100,33.6055,33.7141,33.7312,33.7265,33.6440,33.7679,33.8190,33.7039,33.9822,34.1231,33.5337,34.0229,34.1171,34.5468,34.3276,34.2671,34.0947,34.3110,34.3739,34.1584,34.1381,34.0472,33.9159,34.4085,34.1616,33.8719,33.6921,33.8646,33.8659,33.9217,33.9473,33.5072,33.6231,33.9179,33.7711,33.5379,33.1930,33.8325,33.8829,33.9656,33.9955,33.6516,33.7451,33.5417,34.2583,34.3950,34.3246,34.3555,34.0685,34.1484,34.3793,33.8764,34.0582,34.2124,34.0777,34.0558,33.7024,33.7336,33.7173,33.6991,33.7020,34.1288,33.6307,33.6407,33.7127,33.7671,34.1515,33.8111,33.7465,33.5035,33.8954,33.8341,33.9344,33.6623,33.6168,34.0286,33.4779,33.8316,33.9900,34.3340,33.9719,34.4562,34.2472,34.0354,34.0915,33.7384,34.1216,33.8732,33.7516,34.1015,33.6253,33.6845,33.4359,33.5832,33.7017,33.6122,33.5869,34.0010,33.4382,33.6269,34.2346,33.7477,33.6414,33.9352,33.7615,33.8927,34.0236,33.7897,33.8368,34.4549,33.8237,34.0094,34.3605,34.4615,34.1198,34.1689,33.7668,34.0781,34.1930,33.8423,34.1296,33.6949,33.8881,33.7960,33.6860,33.7700,33.7294,33.9111,33.7897,33.5579,33.4557,33.6689,33.6772,33.8028,33.7984,33.5842,33.8349,33.9931,33.8958,33.9978,33.4405,34.3498,33.9174,34.2289,34.0609,34.1490,34.4239,33.9435,33.8173,33.8640,33.7973,33.6523,33.8466,33.7784,33.4841,33.6416,33.5805,33.8619,33.5177,33.7465,34.1127,34.0949,33.5358,33.7919,33.7223,33.7210,34.1910,33.8540,33.8522,34.2385,34.0951,34.1186,33.8030,34.2255,34.3183,34.1551,34.4331,34.0115,34.4727,33.9573,34.4612,34.0565,33.8606,33.6487,33.8017,33.9874,33.4913,33.6495,33.6986,33.5775,33.8962,33.7466,33.4977,33.8469,33.7779,33.4699,33.5437,34.2408,33.8723,33.5894,33.6462,33.6299,33.8759,33.7692,33.3752,33.9214,33.8600,34.1990,34.0235,33.9455,34.2354,33.9898,33.6261,33.8459,33.4737,33.4676,34.0409,34.0958,33.5951,33.4963,33.5828,33.6899,33.5273,33.8669,33.8461,33.7772,33.6843,33.2926,33.8742,33.5589,33.7769,33.7137,33.8547,33.8859,33.9346,34.0516,33.5727,34.3583,34.2574,34.1536,33.8558,34.4808,34.2655,33.9931,34.0764,33.7908,34.1519,33.6698,33.9397,34.1650,33.9815,33.6886,33.5221,33.8949,33.8610,33.8895,33.4770,33.8541,33.5859,33.7826,33.5511,33.6365,33.8352,33.7355,33.8463,33.8006,34.1805,33.7987,34.2418,34.2315,34.1708,34.5656,34.1884,34.4125,34.2472,34.0028,34.1694,33.9298,33.7707,33.8432,33.8622,33.8216,33.7844,33.6840,33.7454,33.8690,33.8209,33.5783,33.8499,33.8018,33.3653,33.7639,33.7428,33.7461,33.5882,33.7158,33.7233,34.1896,33.6112,34.3104,34.2681,34.3596,33.8849,34.5340,34.0436,34.4850,34.4561,34.1934,34.2681,34.3051,33.9893,33.8404,33.7955,34.2368,33.7066,33.9923,33.6166,33.7689,34.0338,33.7541,33.4860,33.7304,33.8801,33.8176,33.5608,33.8132,33.8280,33.7835,33.5387,33.6834,33.7608,34.1756,33.9199,34.1135,34.0174,34.2006,34.4305,34.2873,34.2435,34.2197,34.3932,34.4609,34.1397,33.8715,34.0769,33.8870,33.4956,33.8595,33.5699,34.0523,33.7046,33.7735,33.8785,33.8914,33.7044,33.6658,33.8979,33.9343,33.7572,33.8190,33.8994,34.2863,33.6759,34.0210,34.1583,34.4091,33.9138,34.4116,34.0949,34.3540,34.3298,34.1190,34.3844,34.2107,34.0758,33.7617,34.0267,33.9294,33.7571,33.7611,34.0811,33.7959,33.9331,33.9544,33.8860,33.9804,33.6952,34.0304,33.7482,33.7173,33.9123,33.9974,33.5760,33.8828,34.1316,33.7493,34.1555,34.0435,34.2782,34.2971,34.0821,34.3630,33.9571,33.9521,34.1367,34.0587,33.8916,33.9599,33.9346,33.9351,33.7303,33.8125,34.0153,33.9836,33.9231,33.8315,33.7964,34.0978,33.8018,33.8839,33.6441,34.0124,34.0090,33.7185,33.9558,34.1267,34.2593,33.9306,34.0474,34.5164,34.0265,34.8810,34.5372,34.1578,34.6441,34.4189,34.2666,34.1539,34.4114,34.3563,34.2996,33.8745,34.1366,33.8298,33.8463,33.7634,33.9989,33.9540,33.9518,34.0404,33.7314,33.9525,34.3551,34.2932,33.9770,33.7714,34.2063,34.1545,34.0407,34.3230,34.2789,34.1387,34.0482,35.0142,34.2241,34.5714,34.4642,34.1120,34.2204,34.0156,33.8744,34.1055,34.5769,34.2106,33.6260,34.0409,33.9290,34.2525,33.5261,34.1418,34.3419,34.0350,33.8481,33.9796,34.2703,33.8322,33.7651,33.4949,33.7317,34.0994,33.8514,34.0320,34.0430,34.4923,34.1686,35.0473,34.1632,34.7005,34.5872,34.5727,34.6452,34.2670,34.1758,34.1513,34.6132,34.0009,33.9380,33.9489,33.9531,34.0030,34.1364,33.8952,33.8937,33.8927,34.0007,34.0821,33.9534,33.9683,33.9318,34.2146,34.0813,34.2310,34.3658,34.4983,34.2151,34.6585,34.3749,34.8064,34.6562,34.1371,34.2466,34.2759,34.4331,34.5064,34.2468,34.2248,34.2326,34.2105,34.4318,34.0540,34.2292,34.3544,33.8138,34.1075,33.9948,34.0439,33.8612,34.1505,33.8735,33.9775,33.5905,34.1230,34.2061,33.7652,34.1920,34.4037,34.5175,34.8475,34.1352,34.2625,34.9807,34.8645,35.0464,34.6253,35.0331,34.3314,34.5703,34.3912,34.6441,34.5331,34.4530,34.3386,34.6499,34.3571,33.9611,34.0624,33.9992,33.9876,34.3015,34.0495,34.0784,33.9063,34.0731,34.4012,34.4585,34.0887,34.3370,34.5328,34.6051,34.8901,34.5529,35.4507,34.8344,34.9126,34.5857,34.2926,34.7815,34.3240,34.1741,34.2695,34.3926,34.3227,34.5964,34.1908,34.5305,34.3368,34.2751,34.5799,34.0446,34.1077,34.0320,33.9050,34.4338,34.5301,33.9699,34.4002,34.5135,34.2008,34.2294,34.9086,34.6374,34.8040,34.2076,35.2353,34.8847,
22:6:18:5:33:10:879,297.0000,0.0000,0.0000,A,27.7370,97.0138,27.6400,99693,136.7662,48601,-0.0258,-0.0421,-3.1070,-0.0093,0.0006,0.0027,0,0.0000,0.0000,0.0000,0.0000,0.0000,0.0000,48306,130713404,796876389,82730,0,0,0,0.00,0.00,0.00,104,
22:6:18:5:33:11:2,0.6000,306.0000,0.0000,A,27.7475,97.0278,27.6500,99692,136.8506,48786,-0.0258,-0.0418,-3.1065,-0.0081,-0.0106,-0.0028,0,0.0000,0.0000,0.0000,0.0000,0.0000,0.0000,48306,130713404,796876389,82730,0,0,0,0.00,0.00,0.00,104,
22:6:18:5:33:11:116,0.6000,306.0000,0.0000,A,27.7607,97.0329,27.6500,99692,136.8506,48786,-0.0258,-0.0418,-3.1065,-0.0081,-0.0106,-0.0028,0,0.0000,0.0000,0.0000,0.0000,0.0000,0.0000,48306,130713404,796876389,82730,0,0,0,0.00,0.00,0.00,104,
22:6:18:5:33:11:238,0.6000,306.0000,0.0000,A,27.7569,97.0264,27.6600,99691,136.9349,49034,-0.0256,-0.0411,-3.1069,0.0014,0.0076,-0.0002,0,0.0000,0.0000,0.0000,0.0000,0.0000,0.0000,48306,130713404,796876389,82730,0,0,0,0.00,0.00,0.00,104,
22:6:18:5:33:11:352,0.6000,306.0000,0.0000,A,27.7653,97.0338,27.6600,99690,137.0193,49159,-0.0257,-0.0419,-3.1072,-0.0036,-0.0036,-0.0037,0,0.0000,0.0000,0.0000,0.0000,0.0000,0.0000,48306,130713404,796876389,82730,0,0,0,0.00,0.00,0.00,104,
22:6:18:5:33:11:475,0.0000,306.0000,0.0000,A,27.7653,97.0188,27.6600,99690,137.0193,49159,-0.0257,-0.0419,-3.1072,-0.0036,-0.0036,-0.0037,0,0.0000,0.0000,0.0000,0.0000,0.0000,0.0000,48306,130713404,796876389,82730,0,0,0,0.00,0.00,0.00,104,
22:6:18:5:33:11:589,0.0000,306.0000,0.0000,A,27.7657,97.0166,27.6500,99691,136.9349,49344,-0.0257,-0.0415,-3.1072,0.0007,0.0094,0.0026,0,0.0000,0.0000,0.0000,0.0000,0.0000,0.0000,48306,130713404,796876389,82730,0,0,0,0.00,0.00,0.00,104,
22:6:18:5:33:11:712,0.0000,306.0000,0.0000,A,27.7681,97.0254,27.6600,99694,136.6819,49468,-0.0255,-0.0419,-3.1078,0.0010,-0.0098,-0.0002,0,0.0000,0.0000,0.0000,0.0000,0.0000,0.0000,48306,130713404,796876389,82730,0,0,0,0.00,0.00,0.00,104,34.7321,34.3759,34.6098,34.2021,34.6888,33.9121,34.3230,34.0039,33.7826,33.8314,34.2836,34.0155,33.6715,33.3837,34.1109,34.1265,33.9598,33.7404,34.4138,34.2109,34.0811,33.6749,33.8239,33.8712,34.1208,33.7984,34.3672,34.0234,34.3741,34.1916,35.1337,34.3934,34.1550,34.0389,34.3767,34.7539,34.2197,33.8638,34.5022,34.4879,33.7227,33.7797,34.0642,33.7204,33.7597,33.7127,34.1083,33.6969,33.6948,33.4923,33.8618,33.9029,33.8221,33.6292,34.1433,33.9660,34.2286,33.7241,34.3692,34.3336,34.0496,34.1060,34.8683,34.6740,34.9413,34.6375,34.3815,34.5777,33.9368,34.1066,34.3104,33.8297,33.9568,33.6805,34.0508,33.8039,33.4932,33.7054,33.8464,34.2680,33.8130,33.9446,34.0152,33.8272,33.7140,33.6718,33.8506,33.6320,33.9164,33.6292,34.3568,33.8501,34.5439,33.9062,34.6435,34.3804,34.1853,34.3220,34.5793,34.4817,34.0499,34.0508,33.9480,34.2714,33.5518,33.4538,33.8704,34.2203,33.7285,33.5036,33.9841,34.0353,33.5828,33.5689,33.6600,33.9335,33.8140,33.6459,33.9902,34.0804,34.1691,33.7366,34.1376,34.4911,33.8518,33.6485,34.6214,34.6595,34.2600,34.0390,34.6211,33.6466,33.9896,33.9744,33.8083,33.8981,33.8259,33.7262,33.7744,33.9056,33.8690,33.6322,33.8720,33.6600,33.5573,33.7839,33.8895,33.8604,33.2843,33.3880,33.7071,33.5378,33.9562,33.7736,34.0265,34.1908,34.5507,33.8302,34.2714,34.6157,34.2035,34.1771,33.8530,34.1422,33.9404,33.7423,33.9612,34.1651,33.6015,33.8596,33.7591,33.8693,33.3450,33.9508,34.0281,34.0991,33.6546,33.6184,33.5913,33.8362,33.7265,33.4038,33.8594,33.8320,33.5450,33.5788,33.9758,33.9064,33.7276,33.3728,33.8341,34.2823,34.1525,33.8785,34.4484,34.3299,34.2156,33.6313,34.0588,34.0994,33.7364,33.2930,34.1769,33.9098,33.8217,33.3716,33.9538,33.4504,33.4612,33.5795,33.9693,33.9551,33.5063,33.4750,33.8371,33.6634,33.6653,33.3423,34.0321,33.5473,33.4703,33.8822,34.3380,34.2690,33.5410,34.0561,34.1147,34.0955,33.6319,33.7887,33.9349,34.0863,33.5231,33.6288,33.5784,34.0626,33.7854,33.4000,33.8140,34.0566,33.7427,33.4418,33.6751,34.2380,33.4873,33.4887,33.8291,33.7654,33.7860,33.1942,34.0254,34.1923,33.8059,33.6454,34.0979,34.3663,34.0709,34.0140,34.1724,34.2062,33.9141,33.5848,33.8453,33.8623,33.6978,33.7832,33.6435,34.2023,33.3141,33.4740,33.6075,33.6847,33.7104,33.1984,33.8272,33.8783,33.6530,33.6931,33.7454,33.8869,33.8335,33.3012,33.6577,33.6830,33.9972,33.6278,34.2328,34.7309,34.0414,33.4676,34.2007,34.1788,33.5896,33.6342,33.7097,34.1710,33.8280,33.4876,33.5354,34.0475,33.7558,33.3714,33.6405,33.9667,33.3945,33.5394,33.6859,34.0294,33.6148,33.7412,33.5912,34.0135,33.9706,33.6162,33.8415,34.1534,33.7645,33.6031,34.4316,34.0536,34.0152,34.1757,34.3252,34.3556,33.8923,33.7556,34.1404,33.5334,33.8338,33.6960,33.4975,33.7478,33.5801,33.6402,33.7494,33.8507,33.8494,33.3707,33.6247,33.4379,33.3336,33.6118,33.9091,33.8585,33.7928,33.4474,33.6061,34.1078,34.0995,34.1062,34.0117,34.1077,33.8373,33.8568,34.2444,33.9867,33.7389,33.8130,33.5230,33.7206,33.3673,33.5988,33.6979,33.7401,33.2824,33.5308,33.9094,33.6981,33.6714,33.5383,33.4884,33.8777,33.6044,33.4722,33.9220,33.7003,33.6194,33.2973,33.7796,33.7446,33.5571,33.3828,34.0453,34.6262,34.2907,33.9689,33.9968,34.3264,33.7941,34.0469,34.1616,33.9953,33.3905,33.8766,33.8464,33.7254,33.7487,33.4580,33.8923,33.6741,33.8568,33.4802,33.9365,33.7495,33.4877,33.5775,34.0510,33.7401,33.8037,33.4361,34.1381,33.6278,33.8918,34.0633,34.1941,34.4602,34.3039,33.6825,34.0750,33.9969,33.4829,33.6114,33.8987,34.1855,33.4040,33.4779,33.5775,33.7489,33.6133,33.5276,33.6202,33.8535,33.2529,33.5161,33.3560,33.8981,33.6396,33.2901,33.6093,33.8855,33.4489,33.7745,33.8680,33.9364,34.2521,33.7170,34.2387,34.6196,34.2961,34.1607,34.3776,34.1604,33.8072,34.0457,34.0060,33.8493,33.7697,33.9088,33.9962,33.6585,33.6237,33.6290,33.7577,33.3784,33.4356,33.6251,33.9732,34.0579,33.6646,33.5696,33.7874,34.0625,33.6873,33.8144,34.0113,33.9786,33.9446,33.7351,34.2048,34.5141,33.5930,34.0616,34.1118,34.3975,34.0196,33.8176,34.2486,34.2414,33.7799,33.8090,33.7528,33.7237,33.3495,33.5590,33.8155,34.0319,33.6355,33.7082,33.8620,33.7513,33.8277,33.6114,33.5529,34.0615,33.5365,33.6803,33.9130,34.1629,33.7826,33.3961,34.3029,34.2931,34.3583,34.0312,34.4877,34.2782,34.0438,33.4676,33.9299,34.4033,33.7754,33.8086,33.7644,34.1311,33.7990,33.6771,33.8073,33.7801,33.9833,33.4361,33.7259,33.7946,33.5675,33.8061,34.3193,34.1097,34.3671,33.5308,33.9254,34.2200,34.3997,33.8123,34.3017,34.5532,33.8582,33.9622,34.3900,34.6841,33.9504,33.7293,33.8523,33.9388,33.8277,33.5766,33.8632,33.8634,33.7248,33.6242,34.0237,34.1044,33.8389,33.6532,33.9304,33.9525,33.9049,33.7055,34.0907,34.1195,33.8596,33.9374,34.3361,34.2236,33.8775,34.2108,34.7721,34.5434,34.5712,34.3428,34.0474,34.5244,34.3311,33.7844,34.3601,34.5240,33.7181,33.7125,34.1492,33.8989,33.6121,33.8929,33.9575,34.3099,33.7360,33.4720,34.1120,34.0904,33.8230,33.8705,34.1028,33.9343,33.9932,33.4317,34.3271,34.3489,33.9608,33.5667,34.8218,34.3169,33.8442,34.4698,34.1918,34.7715,33.5574,33.7052,34.1641,34.2503,33.9434,33.9457,34.0915,33.9332,33.8346,33.9871,34.1908,34.3460,34.0807,33.5477,34.1843,34.4330,33.5659,33.6134,34.2048,34.2286,33.6609,33.6895,34.2708,34.4050,34.3835,33.9882,34.5440,34.5760,34.5003,34.2789,34.9619,34.9198,34.2717,34.0691,34.4997,34.6774,34.1692,33.9961,34.1155,34.3364,34.1627,33.8731,34.0589,33.7872,33.7362,33.4199,34.2474,34.1694,33.8092,33.6632,34.3856,34.4735,34.0663,33.7351,34.1406,34.2900,34.6633,34.0738,34.6054,34.7566,34.4432,34.0498,34.3601,34.8224,34.2199,34.0728,34.6342,34.5807,33.9367,34.2727,34.4335,34.5596,33.6179,33.8185,34.1596,34.1585,33.9359,33.7077,34.0420,34.1997,33.8686,33.9204,34.1818,34.5486,33.6557,34.0227,34.2942,34.3393,34.3613,34.1414,34.5672,34.7764,34.6550,34.9387,34.6308,34.7270,34.3363,34.4631,34.2128,34.7160,34.0188,34.1744,34.1711,34.5433,34.3611,34.0185,34.4002,34.2189,33.8258,33.7034,34.2199,33.9712,33.7422,33.7972,34.5808,34.5279,34.2705,34.0482,34.9141,34.6876,34.8955,34.4438,35.0286,34.7230,34.3618,34.3789,34.7988,34.9883,34.2122,34.3689,34.5257,34.9354,33.8651,34.6022,34.4253,34.7075,33.8924,34.1159,34.6368,34.3777,33.9982,33.8741,34.1292,34.2724,33.9173,33.8070,34.2899,34.3426,34.0905,34.2359,35.1763,34.6443,34.2968,33.6063,34.4746,35.1142,
22:6:18:5:33:11:888,0.0000,306.0000,0.0000,A,27.7458,97.0066,27.6500,99690,137.0193,49593,-0.0254,-0.0417,-3.1083,0.0082,0.0041,0.0018,0,0.0000,0.0000,0.0000,0.0000,0.0000,0.0000,48306,130713404,796876389,82730,0,0,0,0.00,0.00,0.00,104,
22:6:18:5:33:12:10,0.4000,337.0000,32.5000,A,27.7552,97.0139,27.6500,99693,136.7662,49779,-0.0255,-0.0415,-3.1083,0.0068,-0.0063,-0.0001,0,0.0000,0.0000,0.0000,0.0000,0.0000,0.0000,48306,130713404,796876389,82730,0,0,0,0.00,0.00,0.00,104,
22:6:18:5:33:12:121,0.4000,337.0000,32.5000,A,27.7668,97.0264,27.6600,99691,136.9349,49904,-0.0257,-0.0418,-3.1085,0.0042,0.0077,-0.0001,0,0.0000,0.0000,0.0000,0.0000,0.0000,0.0000,48306,130713404,796876389,82730,0,0,0,0.00,0.00,0.00,104,
22:6:18:5:33:12:248,0.4000,345.0000,32.5000,A,27.7660,97.0303,27.6600,99693,136.7662,50026,-0.0256,-0.0416,-3.1087,-0.0034,0.0033,0.0005,0,0.0000,0.0000,0.0000,0.0000,0.0000,0.0000,48306,130713404,796876389,82730,0,0,0,0.00,0.00,0.00,104,
22:6:18:5:33:12:359,0.4000,345.0000,32.5000,A,27.7729,97.0064,27.6600,99693,136.7662,50151,-0.0255,-0.0418,-3.1092,-0.0002,-0.0091,-0.0013,0,0.0000,0.0000,0.0000,0.0000,0.0000,0.0000,48306,130713404,796876389,82730,0,0,0,0.00,0.00,0.00,104,
22:6:18:5:33:12:486,0.3000,353.0000,32.4000,A,27.7681,97.0239,27.6500,99686,137.3567,50151,-0.0255,-0.0418,-3.1092,-0.0002,-0.0091,-0.0013,0,0.0000,0.0000,0.0000,0.0000,0.0000,0.0000,48306,130713404,796876389,82730,0,0,0,0.00,0.00,0.00,104,
22:6:18:5:33:12:596,0.3000,353.0000,32.4000,A,27.7800,97.0113,27.6700,99694,136.6819,50399,-0.0257,-0.0416,-3.1097,-0.0079,0.0003,-0.0019,0,0.0000,0.0000,0.0000,0.0000,0.0000,0.0000,48306,130713404,796876389,82730,0,0,0,0.00,0.00,0.00,104,
22:6:18:5:33:12:723,0.4000,8.0000,32.4000,A,27.7767,97.0052,27.6700,99695,136.5975,50524,-0.0255,-0.0420,-3.1101,-0.0047,-0.0065,0.0001,0,0.0000,0.0000,0.0000,0.0000,0.0000,0.0000,48306,130713404,796876389,82730,0,0,0,0.00,0.00,0.00,104,35.3528,34.7231,34.7348,34.3173,34.3905,34.2294,34.6145,34.3116,34.0562,34.3120,34.1873,33.9506,33.7511,33.6753,34.0151,34.0664,33.5165,33.6813,34.4956,34.3261,33.8043,33.7908,34.2829,34.1768,34.0234,34.1136,34.4756,34.3512,34.2756,34.5298,34.5689,34.7517,34.9756,34.3909,34.4932,34.8714,34.3358,34.1626,34.4270,34.5798,34.3810,33.8624,34.1790,34.3288,33.8748,33.7880,34.0527,33.5993,33.9797,33.3949,34.3272,34.5024,33.9375,33.8822,34.0775,34.6090,33.7822,34.0125,34.4858,34.4401,34.1667,34.2214,34.9860,34.8048,34.8432,34.3189,34.9098,34.0830,34.4133,34.0314,34.2145,34.1253,34.0334,34.1398,34.2946,33.9186,34.0528,33.9844,34.0816,34.3823,33.7166,33.8950,34.2510,33.9423,33.7848,33.7872,33.9278,34.2690,34.1767,34.2998,34.4502,34.3590,34.2459,34.4237,34.7632,34.7221,34.3025,34.4374,34.6949,34.7826,34.1656,33.3935,34.2444,34.1746,34.1783,33.6973,34.1520,34.2889,33.8430,33.5688,34.0989,33.9381,33.8610,33.7971,34.2668,34.0013,34.2577,33.7140,34.1055,34.1535,34.2839,34.0017,33.8755,34.7754,34.1671,33.9439,34.9528,34.5589,34.1621,34.5647,34.7224,34.1501,34.4478,34.2691,34.4091,33.8377,33.7296,33.8406,34.0034,34.1845,33.9316,33.7466,33.7760,34.0931,33.7795,33.7406,33.9534,33.6536,33.9975,33.5033,33.7760,33.8228,33.8591,34.0621,34.1122,34.1270,34.0745,33.7533,34.3822,34.5256,34.1115,34.2800,34.1676,34.8063,34.2375,33.8226,34.2468,34.5823,33.8808,33.5988,33.8735,34.0985,33.9306,33.5383,33.8299,34.1593,33.7693,33.3645,33.7064,33.7389,34.1616,33.6283,34.1383,34.4023,33.8292,33.6510,34.0917,33.9862,33.8448,34.0397,34.1585,34.5963,34.0545,34.1915,34.5408,34.2563,34.2940,33.7460,34.1322,33.8792,33.9582,33.5672,34.0811,33.8677,34.0354,33.6400,33.8580,33.8791,33.5194,33.8498,33.8733,33.9128,33.7188,33.5900,34.0674,33.6146,33.4053,33.7944,34.4515,33.6646,33.5552,33.8145,34.2396,34.5906,34.2643,34.1539,34.2311,34.1838,33.9211,33.6916,34.2179,34.1544,33.7956,33.6883,34.0080,34.1211,33.7463,33.6079,33.7751,33.9597,33.8572,33.6536,33.4817,33.8307,33.7567,33.7038,33.6195,33.8307,33.7406,33.5968,34.4824,33.5666,33.9226,33.9126,34.4105,34.2661,34.3678,34.3227,34.2594,34.6823,33.9845,33.6994,34.2439,34.3010,33.6013,33.7375,33.7028,34.0061,33.9813,33.5883,33.9709,33.9503,33.7640,33.4650,33.8863,33.6867,33.7089,33.8078,33.8066,33.8445,33.8991,33.9054,33.5604,33.7998,34.0775,33.7455,34.1350,34.4609,33.9626,33.9465,34.4975,34.0811,33.8731,33.7035,33.9888,34.2341,33.9427,33.3902,33.9591,33.7961,33.8708,33.5736,33.7555,33.4202,33.5096,33.4420,33.9553,33.9323,33.8818,33.7951,33.8631,34.0731,33.9248,33.5180,33.9574,33.8822,34.2346,34.4037,34.1644,33.9535,34.3044,33.9069,34.4104,34.2928,34.1300,33.8699,34.2065,33.8111,33.8939,33.5006,33.5562,34.0169,33.7858,34.0561,34.1015,33.9648,33.4566,33.4859,33.5282,33.8585,33.6927,33.7271,33.9705,34.1319,34.0151,33.8855,33.8418,33.7216,34.0020,34.0468,34.2963,34.4190,34.5324,34.1415,34.1801,34.2445,34.0209,33.7153,33.6389,33.9472,33.7942,33.6549,33.6594,33.7966,33.8491,33.5838,33.5787,33.7524,33.6386,33.4408,33.6038,33.7805,33.4162,33.5288,34.0372,33.7608,33.8949,33.6805,34.3903,34.1468,34.0213,33.8122,34.3519,34.3356,34.5804,33.8929,34.2605,34.2635,33.8673,33.5025,33.9022,33.9491,33.4497,33.8354,34.2136,33.9935,33.8014,33.2738,33.9446,33.9391,33.7606,33.5952,33.9909,34.0164,33.6943,33.5411,33.7982,33.8559,33.8663,33.7123,34.3759,34.4199,34.1378,33.6603,34.2836,34.1987,34.2284,33.7737,34.0122,34.2520,33.7695,33.5135,33.6900,33.9284,33.6755,33.6906,33.6932,33.8053,33.5796,33.5787,34.0313,33.9063,33.8108,33.5655,33.7730,33.9521,33.7551,33.4943,33.7250,33.9457,33.5650,33.8350,34.1524,33.8379,34.5401,33.9634,34.3566,34.7093,34.3921,34.4634,34.4593,34.2753,34.0450,33.9967,34.2316,33.8028,33.5150,33.7141,34.0523,33.6238,33.8247,33.7434,34.1063,33.6438,33.6374,33.5915,33.8765,34.0220,33.7202,33.6852,33.6904,34.1782,33.7510,33.4421,34.2513,34.0954,34.0196,33.8527,34.6751,34.6328,34.2968,34.5225,34.2291,34.2994,33.9695,34.0459,34.2035,34.3042,34.0528,33.2464,34.3266,33.9260,33.6150,33.3117,33.9311,33.9345,33.6027,33.4624,33.9776,34.2545,33.9433,33.5134,34.3027,33.9635,33.8142,33.4186,34.0303,34.0637,34.0731,33.8195,34.0424,34.3847,34.4560,34.1467,34.5714,34.2129,33.9463,34.0851,34.3253,34.3578,33.9928,34.3940,34.2969,34.0905,34.0024,33.9424,34.0114,33.8955,33.8864,33.8574,33.7830,33.9102,33.6231,33.7676,34.3814,33.9061,33.4666,33.8124,34.3424,34.5080,34.4770,34.1093,34.5875,34.2862,34.3725,34.2466,34.3260,34.2240,34.2385,33.4636,34.2970,34.1602,34.1012,33.4784,34.2943,34.0772,33.8415,33.6779,33.8407,34.1585,33.8022,33.7079,33.8932,33.8547,34.0215,34.0688,33.7279,34.1807,33.8161,33.8380,34.2826,34.1246,34.1724,33.9322,34.3161,34.2495,34.2673,34.6537,34.3249,34.4585,33.8866,34.0742,34.4299,34.6392,33.6204,33.9872,34.2097,34.0145,33.8241,34.1592,34.1735,34.1162,34.1003,33.8937,34.1707,34.2062,34.0418,33.6733,34.1690,34.2161,33.7298,34.2170,34.4023,34.4661,33.8622,33.6854,34.7231,34.2347,34.1708,34.5645,34.3106,34.4908,34.0251,33.9541,34.4492,34.3177,34.0609,34.0046,34.0502,34.1521,33.4849,34.0410,34.1510,34.4025,33.8910,33.4492,33.9889,34.4932,33.8415,33.8271,34.1591,33.9662,33.9436,33.9231,34.3890,34.1267,34.3191,33.8880,34.8603,34.6767,34.3995,34.7974,34.8630,34.6550,34.3489,34.5416,34.5735,34.6227,34.0713,34.1120,34.1803,34.1261,33.9091,34.1459,34.4398,34.0627,33.7984,33.8526,33.9883,34.2856,33.8740,33.7799,34.1207,34.0912,33.9683,34.7226,34.7655,34.2252,34.3773,34.3850,35.1237,34.6669,34.1473,34.3548,34.4800,34.7229,34.1628,34.5098,34.4071,34.6532,34.3846,34.1739,34.3890,34.6237,33.8932,33.7196,34.4363,34.2189,33.8926,33.7664,33.8384,34.2615,33.9869,33.6588,34.3000,34.2809,34.4511,33.7472,34.5953,34.7902,34.2919,34.2333,35.1015,35.3070,34.7701,35.0562,35.1438,35.0428,34.4272,34.3924,34.6628,34.6538,34.2665,34.8049,34.4163,34.6596,34.0978,34.1347,34.3022,34.1723,34.0591,34.1477,34.2880,34.2551,33.6435,34.0828,34.3073,34.2915,34.3491,34.1662,35.0028,34.9966,34.6000,34.7636,34.7142,35.0645,34.9229,34.4909,34.3031,35.2857,34.5248,34.0786,34.4635,35.0127,34.3324,34.3295,34.3731,34.4363,34.0119,34.0152,34.4228,34.6048,33.9519,33.9377,34.4156,34.3396,34.3724,34.0440,34.5852,34.5951,34.0316,33.9530,34.9184,35.1187,35.0109,34.3150,35.2454,35.6709,
22:6:18:5:33:12:896,0.4000,8.0000,32.4000,A,27.7525,97.0030,27.6600,99691,136.9349,50524,-0.0255,-0.0420,-3.1101,-0.0047,-0.0065,0.0001,0,0.0000,0.0000,0.0000,0.0000,0.0000,0.0000,48306,130713404,796876389,82730,0,0,0,0.00,0.00,0.00,104,
22:6:18:5:33:13:23,0.4000,8.0000,32.4000,A,27.7582,97.0119,27.6500,99690,137.0193,50771,-0.0257,-0.0417,-3.1103,-0.0045,-0.0007,-0.0025,0,0.0000,0.0000,0.0000,0.0000,0.0000,0.0000,48306,130713404,796876389,82730,0,0,0,0.00,0.00,0.00,104,
22:6:18:5:33:13:133,0.4000,8.0000,32.4000,A,27.7702,96.9990,27.6600,99694,136.6819,50956,-0.0258,-0.0418,-3.1111,-0.0021,0.0057,0.0006,0,0.0000,0.0000,0.0000,0.0000,0.0000,0.0000,48306,130713404,796876389,82730,0,0,0,0.00,0.00,0.00,104,
22:6:18:5:33:13:259,0.4000,8.0000,32.4000,A,27.7685,96.9989,27.6700,99692,136.8506,51019,-0.0257,-0.0418,-3.1115,0.0038,-0.0014,0.0004,0,0.0000,0.0000,0.0000,0.0000,0.0000,0.0000,48306,130713404,796876389,82730,0,0,0,0.00,0.00,0.00,104,
22:6:18:5:33:13:369,0.4000,8.0000,32.4000,A,27.7760,97.0054,27.6700,99695,136.5975,51144,-0.0258,-0.0419,-3.1119,0.0030,0.0001,-0.0017,0,0.0000,0.0000,0.0000,0.0000,0.0000,0.0000,48306,130713404,796876389,82730,0,0,0,0.00,0.00,0.00,104,
22:6:18:5:33:13:496,0.5000,338.0000,32.3000,A,27.7733,96.9956,27.6700,99688,137.1880,51266,-0.0257,-0.0420,-3.1119,0.0010,0.0047,0.0007,0,0.0000,0.0000,0.0000,0.0000,0.0000,0.0000,48306,130713404,796876389,82730,0,0,0,0.00,0.00,0.00,104,
22:6:18:5:33:13:607,0.5000,338.0000,32.3000,A,27.7817,96.9961,27.6700,99693,136.7662,51391,-0.0256,-0.0419,-3.1119,0.0066,-0.0033,-0.0002,0,0.0000,0.0000,0.0000,0.0000,0.0000,0.0000,48306,130713404,796876389,82730,0,0,0,0.00,0.00,0.00,104,
22:6:18:5:33:13:734,0.5000,350.0000,32.3000,A,27.7763,97.0089,27.6700,99692,136.8506,51514,-0.0258,-0.0420,-3.1123,0.0056,0.0000,0.0005,0,0.0000,0.0000,0.0000,0.0000,0.0000,0.0000,48306,130713404,796876389,82730,0,0,0,0.00,0.00,0.00,104,
22:6:18:5:33:13:844,0.5000,350.0000,32.3000,A,27.7843,97.0065,27.6600,99695,136.5975,51639,-0.0258,-0.0419,-3.1122,0.0010,0.0060,0.0014,0,0.0000,0.0000,0.0000,0.0000,0.0000,0.0000,48306,130713404,796876389,82730,0,0,0,0.00,0.00,0.00,104,35.2319,35.4287,34.6302,34.1104,34.7096,34.4457,34.5384,34.3253,34.3586,34.5089,34.1234,33.9645,34.0458,33.6896,33.7856,33.9050,34.3273,33.6955,33.8997,33.9828,33.9228,33.8048,33.8450,34.1901,34.7134,34.1271,33.7688,34.1536,34.8227,34.1025,34.4538,34.5261,34.9894,34.7329,34.5064,34.3430,34.5471,34.2803,34.4408,34.3194,34.2150,33.9802,34.1931,33.9179,34.2346,34.0791,33.8964,33.7179,33.9945,33.6839,33.6403,33.9235,33.9524,33.8253,33.9101,34.1719,34.5459,34.3242,34.4994,34.3530,34.1805,33.9088,34.9991,34.6916,35.4083,34.9837,34.1931,34.0965,34.5317,34.6133,34.3318,33.7776,34.3240,34.4979,34.2422,33.9327,34.1712,33.8340,33.8684,33.7363,34.3302,34.2389,34.0370,33.6211,34.2375,34.1380,33.8721,33.5873,34.4733,34.3138,34.3778,34.1768,34.3646,34.4369,34.4453,34.2909,34.5374,34.7679,34.2995,34.1025,34.3680,33.8852,34.0770,34.2923,33.8524,33.9850,34.1662,34.0762,34.1802,33.5247,33.7876,33.8946,34.0393,33.5899,33.9532,33.7893,33.7795,33.9982,33.7765,33.7585,34.2986,34.1203,33.8891,34.1269,34.3795,34.4564,34.3221,34.2416,34.0686,34.9869,34.2451,33.7759,34.3814,34.1035,34.0045,33.8518,34.1811,34.3513,33.7962,34.0342,34.0499,34.0806,33.8940,33.4692,33.7391,34.0707,33.9114,33.5065,34.1159,33.8428,33.7288,33.4975,33.9781,34.2485,34.0477,33.9592,34.3825,34.5451,34.5008,34.3277,34.3342,34.3985,34.1812,34.3534,33.8892,34.2945,33.9189,34.3576,33.8957,33.7166,33.7270,34.0538,33.9457,34.1294,33.6876,33.6479,34.0993,34.1076,33.7208,33.6978,34.1768,33.7468,33.6608,33.6852,34.0125,33.9400,33.7454,34.2829,34.0458,34.5396,34.1718,34.0930,34.5795,34.4030,34.0909,34.0816,34.2372,34.2717,33.9109,33.7260,33.9176,34.0594,33.5651,33.8821,34.1537,33.8085,33.6655,33.5792,34.2531,33.8644,33.6804,33.6129,33.6830,33.9192,34.0225,33.4633,34.0120,33.8085,33.7078,33.6779,34.4020,34.0135,34.3589,34.4006,34.4796,34.0761,33.8716,33.9300,34.2820,34.1461,34.0644,34.1075,33.8105,33.8068,33.5503,33.6168,33.7613,33.8787,33.7895,33.7673,33.7195,33.7721,33.8044,34.1043,33.9256,33.6661,33.6337,33.7862,34.2381,33.5488,34.1552,33.6854,34.2982,34.0313,34.0322,33.9840,34.4863,34.5302,34.0096,33.9721,34.1030,33.8818,33.8672,33.9909,34.0325,33.9120,33.8208,33.7097,33.9474,33.7534,33.6296,33.8134,33.8824,33.7829,33.8494,33.5475,34.1325,33.8223,33.7672,33.7002,34.1804,33.7573,33.8510,33.4639,34.1967,34.1226,34.2536,34.2788,34.1722,34.4485,33.9663,34.3778,33.8877,33.6551,33.6756,33.7105,33.8022,33.8257,33.6650,33.7600,33.8858,33.5425,33.4672,33.8385,33.8221,33.7108,33.6606,33.7470,34.3514,34.3664,33.8773,33.5614,33.7781,33.7979,33.8008,34.0008,34.2490,33.9834,33.9855,34.0724,34.4235,34.4964,33.7994,34.1290,34.2483,33.8845,33.8367,33.4988,34.1683,33.8248,33.8290,33.5676,33.7534,33.7691,33.7715,33.6742,33.8719,33.5005,33.4948,33.4145,33.9633,34.0506,33.7727,34.1459,34.2933,34.0603,33.9604,33.5669,34.6424,34.5894,33.6485,34.0464,34.3544,34.0686,34.1938,34.1852,33.7035,34.0012,33.4908,33.5794,33.6535,33.7734,33.6737,33.6075,33.7138,33.5521,33.7418,33.7194,33.5058,33.8585,33.6180,33.5948,33.8858,33.8016,33.5795,34.0374,34.0691,33.4784,33.9096,33.7647,34.0357,33.9310,33.9874,34.0719,34.3115,34.6699,34.1986,33.9219,33.8157,34.1757,33.6947,33.6418,34.0348,34.0054,33.7135,33.8541,34.0687,33.8849,33.7656,33.8028,33.4343,34.0515,33.9585,33.8790,33.8128,33.8591,33.6038,33.7110,33.8256,34.0453,33.8235,33.7583,34.2563,34.1943,34.5905,34.0207,34.6287,34.2718,33.8455,34.0174,34.1227,33.9584,33.8663,33.8869,33.8454,33.4989,33.8614,33.6162,33.8928,33.8456,33.7498,34.0247,33.6785,33.5371,33.3347,33.4636,33.6187,33.7636,33.5831,33.7480,34.2134,34.2705,33.8312,33.9566,34.3831,33.9095,34.1830,34.2585,34.5107,34.6644,34.2191,34.1120,33.9962,34.5006,34.0276,33.8170,34.2627,34.1928,33.7119,33.7873,34.0918,34.0560,33.6309,33.8083,33.9048,33.9022,33.9950,33.4303,33.8388,33.8499,33.6503,34.0344,34.1918,34.1073,33.8634,33.7715,34.3110,33.8663,34.4151,34.2609,34.3104,34.4546,34.2424,34.5942,34.1509,34.1644,34.0561,34.1016,34.0674,33.8299,34.0355,33.8947,33.9274,33.7293,33.9452,34.3518,33.9153,33.8768,33.6890,33.9226,33.6541,33.7819,34.0008,33.9241,34.1500,34.0258,34.0441,33.8466,34.6047,33.5901,34.4344,34.3116,34.3788,34.7376,34.3264,34.4079,34.4058,34.4332,33.9512,33.8891,33.9543,33.9384,33.9434,34.1048,34.1209,33.9570,33.6781,33.9097,34.3089,33.7192,33.9015,33.6191,34.0477,33.9362,34.0222,33.9199,33.9078,33.9910,33.9462,34.0070,34.2446,34.4803,34.3218,34.1048,34.5830,34.3652,34.3391,34.7041,34.2526,33.5824,33.9827,33.9592,34.1157,33.9125,34.1509,34.1956,34.0074,33.9478,33.7049,33.9732,34.1216,34.1311,34.2132,33.9732,34.1886,33.8799,33.7417,33.9804,33.9905,34.2841,34.2963,33.9004,34.1864,33.8717,34.5210,34.3684,34.3870,35.0555,34.4436,34.2900,34.3517,34.4352,34.2136,34.1577,34.0592,34.1605,34.0127,33.8699,34.0970,34.1738,34.1355,33.9754,34.2188,33.9081,34.1334,34.0614,34.1603,33.8442,34.1240,33.9004,33.8491,33.8974,34.1744,34.4794,34.3455,34.0716,34.2483,34.0442,33.9780,34.6831,34.1343,34.6093,34.2127,34.2463,34.4627,34.1045,34.2340,34.1232,34.0637,33.9536,33.8105,34.0076,33.8519,34.0572,34.2115,33.7204,34.1586,34.2950,33.8559,34.1015,34.3359,34.0848,34.1229,33.8761,34.0548,34.0678,34.6978,34.0069,34.4791,34.3911,34.3132,34.8112,34.7896,34.4773,34.6431,34.5559,34.5203,34.6366,34.3540,34.4543,33.9737,33.9766,34.1838,34.3170,34.2396,33.9172,34.2372,33.8667,33.7831,33.9768,34.1560,34.2782,34.5733,34.1046,34.2558,34.5630,34.3420,33.8717,34.8699,34.3982,34.8310,34.6789,34.1596,34.6759,34.2979,34.4575,34.7056,34.2715,34.2472,34.6004,34.7271,34.7835,34.2398,34.2538,34.0643,34.1525,34.1302,34.0194,33.9068,34.0440,34.0127,34.2196,34.1640,34.2640,33.9780,34.2306,34.1275,34.2167,34.7902,34.7254,34.4940,34.5444,34.4927,34.5821,35.1042,35.2817,34.8545,34.8575,34.7356,34.7812,34.4159,34.6673,34.5578,34.4766,34.1915,34.6732,34.5470,34.3127,34.2541,34.0226,34.0124,34.1617,34.0743,33.9345,34.2668,34.2650,34.4259,34.1274,34.4678,34.7211,34.7457,34.6279,34.9147,34.7765,34.8322,34.6370,34.4982,35.0375,34.5210,35.2060,34.5374,34.5752,34.4755,34.5964,34.5187,34.2772,34.3857,34.8972,34.5268,34.4644,34.2686,34.2330,34.1308,33.8930,34.0948,34.2913,34.2187,34.4991,34.7729,34.3612,34.2237,34.2538,34.7409,34.8539,34.8265,34.6360,35.2569,35.1302,
22:6:18:5:33:14:31,0.4000,343.0000,32.3000,A,27.7512,96.9854,27.6500,99691,136.9349,51764,-0.0258,-0.0421,-3.1119,0.0019,-0.0032,-0.0007,0,0.0000,0.0000,0.0000,0.0000,0.0000,0.0000,48306,130713404,796876389,82730,0,0,0,0.00,0.00,0.00,104,
22:6:18:5:33:14:145,0.4000,343.0000,32.3000,A,27.7676,96.9787,27.6700,99692,136.8506,51949,-0.0259,-0.0421,-3.1117,-0.0014,0.0010,0.0002,0,0.0000,0.0000,0.0000,0.0000,0.0000,0.0000,48306,130713404,796876389,82730,0,0,0,0.00,0.00,0.00,104,
22:6:18:5:33:14:267,0.0000,328.0000,32.2000,A,27.7702,96.9851,27.6700,99688,137.1880,52074,-0.0260,-0.0421,-3.1116,-0.0018,-0.0059,-0.0008,0,0.0000,0.0000,0.0000,0.0000,0.0000,0.0000,48306,130713404,796876389,82730,0,0,0,0.00,0.00,0.00,104,
22:6:18:5:33:14:381,0.0000,328.0000,32.2000,A,27.7784,97.0135,27.6700,99694,136.6819,52196,-0.0261,-0.0422,-3.1114,-0.0046,-0.0002,-0.0016,0,0.0000,0.0000,0.0000,0.0000,0.0000,0.0000,48306,130713404,796876389,82730,0,0,0,0.00,0.00,0.00,104,
22:6:18:5:33:14:504,0.0000,328.0000,32.2000,A,27.7746,96.9852,27.6700,99689,137.1037,52259,-0.0259,-0.0423,-3.1113,-0.0022,-0.0033,-0.0011,0,0.0000,0.0000,0.0000,0.0000,0.0000,0.0000,48306,130713404,796876389,82730,0,0,0,0.00,0.00,0.00,104,
22:6:18:5:33:14:619,0.0000,328.0000,32.2000,A,27.7809,96.9734,27.6700,99694,136.6819,52384,-0.0260,-0.0422,-3.1113,-0.0053,0.0009,-0.0002,0,0.0000,0.0000,0.0000,0.0000,0.0000,0.0000,48306,130713404,796876389,82730,0,0,0,0.00,0.00,0.00,104,
22:6:18:5:33:14:742,0.4000,57.0000,32.2000,A,27.7821,96.9848,27.6700,99693,136.7662,52506,-0.0259,-0.0420,-3.1118,-0.0055,0.0004,-0.0019,0,0.0000,0.0000,0.0000,0.0000,0.0000,0.0000,48306,130713404,796876389,82730,0,0,0,0.00,0.00,0.00,104,
