Timestamp,Wind speed,Wind angle,Acoustic temperature windsensor,Temperature validity,Temperature_aht10,Relative humidity_aht10,Temperature_ms5611,Pressure_ms5611,Absolute_altitude_ms5611,timestamp_pix_attitude,Roll,Pitch,Yaw,Roll speed,Pitch speed,Yaw speed,timestamp_pix_loc_pos,x,y,z,vx,vy,vz,timestamp_pix_gps,pix_lat,pix_lon,pix_alt,pix_gps_vx,pix_gps_vy,pix_gps_vz,latitude,longitude,altitude_gps,relative_altitude_gps,Pixel_0,Pixel_1,Pixel_2,Pixel_3,Pixel_4,Pixel_5,Pixel_6,Pixel_7,Pixel_8,Pixel_9,Pixel_10,Pixel_11,Pixel_12,Pixel_13,Pixel_14,Pixel_15,Pixel_16,Pixel_17,Pixel_18,Pixel_19,Pixel_20,Pixel_21,Pixel_22,Pixel_23,Pixel_24,Pixel_25,Pixel_26,Pixel_27,Pixel_28,Pixel_29,Pixel_30,Pixel_31,Pixel_32,Pixel_33,Pixel_34,Pixel_35,Pixel_36,Pixel_37,Pixel_38,Pixel_39,Pixel_40,Pixel_41,Pixel_42,Pixel_43,Pixel_44,Pixel_45,Pixel_46,Pixel_47,Pixel_48,Pixel_49,Pixel_50,Pixel_51,Pixel_52,Pixel_53,Pixel_54,Pixel_55,Pixel_56,Pixel_57,Pixel_58,Pixel_59,Pixel_60,Pixel_61,Pixel_62,Pixel_63,Pixel_64,Pixel_65,Pixel_66,Pixel_67,Pixel_68,Pixel_69,Pixel_70,Pixel_71,Pixel_72,Pixel_73,Pixel_74,Pixel_75,Pixel_76,Pixel_77,Pixel_78,Pixel_79,Pixel_80,Pixel_81,Pixel_82,Pixel_83,Pixel_84,Pixel_85,Pixel_86,Pixel_87,Pixel_88,Pixel_89,Pixel_90,Pixel_91,Pixel_92,Pixel_93,Pixel_94,Pixel_95,Pixel_96,Pixel_97,Pixel_98,Pixel_99,Pixel_100,Pixel_101,Pixel_102,Pixel_103,Pixel_104,Pixel_105,Pixel_106,Pixel_107,Pixel_108,Pixel_109,Pixel_110,Pixel_111,Pixel_112,Pixel_113,Pixel_114,Pixel_115,Pixel_116,Pixel_117,Pixel_118,Pixel_119,Pixel_120,Pixel_121,Pixel_122,Pixel_123,Pixel_124,Pixel_125,Pixel_126,Pixel_127,Pixel_128,Pixel_129,Pixel_130,Pixel_131,Pixel_132,Pixel_133,Pixel_134,Pixel_135,Pixel_136,Pixel_137,Pixel_138,Pixel_139,Pixel_140,Pixel_141,Pixel_142,Pixel_143,Pixel_144,Pixel_145,Pixel_146,Pixel_147,Pixel_148,Pixel_149,Pixel_150,Pixel_151,Pixel_152,Pixel_153,Pixel_154,Pixel_155,Pixel_156,Pixel_157,Pixel_158,Pixel_159,Pixel_160,Pixel_161,Pixel_162,Pixel_163,Pixel_164,Pixel_165,Pixel_166,Pixel_167,Pixel_168,Pixel_169,Pixel_170,Pixel_171,Pixel_172,Pixel_173,Pixel_174,Pixel_175,Pixel_176,Pixel_177,Pixel_178,Pixel_179,Pixel_180,Pixel_181,Pixel_182,Pixel_183,Pixel_184,Pixel_185,Pixel_186,Pixel_187,Pixel_188,Pixel_189,Pixel_190,Pixel_191,Pixel_192,Pixel_193,Pixel_194,Pixel_195,Pixel_196,Pixel_197,Pixel_198,Pixel_199,Pixel_200,Pixel_201,Pixel_202,Pixel_203,Pixel_204,Pixel_205,Pixel_206,Pixel_207,Pixel_208,Pixel_209,Pixel_210,Pixel_211,Pixel_212,Pixel_213,Pixel_214,Pixel_215,Pixel_216,Pixel_217,Pixel_218,Pixel_219,Pixel_220,Pixel_221,Pixel_222,Pixel_223,Pixel_224,Pixel_225,Pixel_226,Pixel_227,Pixel_228,Pixel_229,Pixel_230,Pixel_231,Pixel_232,Pixel_233,Pixel_234,Pixel_235,Pixel_236,Pixel_237,Pixel_238,Pixel_239,Pixel_240,Pixel_241,Pixel_242,Pixel_243,Pixel_244,Pixel_245,Pixel_246,Pixel_247,Pixel_248,Pixel_249,Pixel_250,Pixel_251,Pixel_252,Pixel_253,Pixel_254,Pixel_255,Pixel_256,Pixel_257,Pixel_258,Pixel_259,Pixel_260,Pixel_261,Pixel_262,Pixel_263,Pixel_264,Pixel_265,Pixel_266,Pixel_267,Pixel_268,Pixel_269,Pixel_270,Pixel_271,Pixel_272,Pixel_273,Pixel_274,Pixel_275,Pixel_276,Pixel_277,Pixel_278,Pixel_279,Pixel_280,Pixel_281,Pixel_282,Pixel_283,Pixel_284,Pixel_285,Pixel_286,Pixel_287,Pixel_288,Pixel_289,Pixel_290,Pixel_291,Pixel_292,Pixel_293,Pixel_294,Pixel_295,Pixel_296,Pixel_297,Pixel_298,Pixel_299,Pixel_300,Pixel_301,Pixel_302,Pixel_303,Pixel_304,Pixel_305,Pixel_306,Pixel_307,Pixel_308,Pixel_309,Pixel_310,Pixel_311,Pixel_312,Pixel_313,Pixel_314,Pixel_315,Pixel_316,Pixel_317,Pixel_318,Pixel_319,Pixel_320,Pixel_321,Pixel_322,Pixel_323,Pixel_324,Pixel_325,Pixel_326,Pixel_327,Pixel_328,Pixel_329,Pixel_330,Pixel_331,Pixel_332,Pixel_333,Pixel_334,Pixel_335,Pixel_336,Pixel_337,Pixel_338,Pixel_339,Pixel_340,Pixel_341,Pixel_342,Pixel_343,Pixel_344,Pixel_345,Pixel_346,Pixel_347,Pixel_348,Pixel_349,Pixel_350,Pixel_351,Pixel_352,Pixel_353,Pixel_354,Pixel_355,Pixel_356,Pixel_357,Pixel_358,Pixel_359,Pixel_360,Pixel_361,Pixel_362,Pixel_363,Pixel_364,Pixel_365,Pixel_366,Pixel_367,Pixel_368,Pixel_369,Pixel_370,Pixel_371,Pixel_372,Pixel_373,Pixel_374,Pixel_375,Pixel_376,Pixel_377,Pixel_378,Pixel_379,Pixel_380,Pixel_381,Pixel_382,Pixel_383,Pixel_384,Pixel_385,Pixel_386,Pixel_387,Pixel_388,Pixel_389,Pixel_390,Pixel_391,Pixel_392,Pixel_393,Pixel_394,Pixel_395,Pixel_396,Pixel_397,Pixel_398,Pixel_399,Pixel_400,Pixel_401,Pixel_402,Pixel_403,Pixel_404,Pixel_405,Pixel_406,Pixel_407,Pixel_408,Pixel_409,Pixel_410,Pixel_411,Pixel_412,Pixel_413,Pixel_414,Pixel_415,Pixel_416,Pixel_417,Pixel_418,Pixel_419,Pixel_420,Pixel_421,Pixel_422,Pixel_423,Pixel_424,Pixel_425,Pixel_426,Pixel_427,Pixel_428,Pixel_429,Pixel_430,Pixel_431,Pixel_432,Pixel_433,Pixel_434,Pixel_435,Pixel_436,Pixel_437,Pixel_438,Pixel_439,Pixel_440,Pixel_441,Pixel_442,Pixel_443,Pixel_444,Pixel_445,Pixel_446,Pixel_447,Pixel_448,Pixel_449,Pixel_450,Pixel_451,Pixel_452,Pixel_453,Pixel_454,Pixel_455,Pixel_456,Pixel_457,Pixel_458,Pixel_459,Pixel_460,Pixel_461,Pixel_462,Pixel_463,Pixel_464,Pixel_465,Pixel_466,Pixel_467,Pixel_468,Pixel_469,Pixel_470,Pixel_471,Pixel_472,Pixel_473,Pixel_474,Pixel_475,Pixel_476,Pixel_477,Pixel_478,Pixel_479,Pixel_480,Pixel_481,Pixel_482,Pixel_483,Pixel_484,Pixel_485,Pixel_486,Pixel_487,Pixel_488,Pixel_489,Pixel_490,Pixel_491,Pixel_492,Pixel_493,Pixel_494,Pixel_495,Pixel_496,Pixel_497,Pixel_498,Pixel_499,Pixel_500,Pixel_501,Pixel_502,Pixel_503,Pixel_504,Pixel_505,Pixel_506,Pixel_507,Pixel_508,Pixel_509,Pixel_510,Pixel_511,Pixel_512,Pixel_513,Pixel_514,Pixel_515,Pixel_516,Pixel_517,Pixel_518,Pixel_519,Pixel_520,Pixel_521,Pixel_522,Pixel_523,Pixel_524,Pixel_525,Pixel_526,Pixel_527,Pixel_528,Pixel_529,Pixel_530,Pixel_531,Pixel_532,Pixel_533,Pixel_534,Pixel_535,Pixel_536,Pixel_537,Pixel_538,Pixel_539,Pixel_540,Pixel_541,Pixel_542,Pixel_543,Pixel_544,Pixel_545,Pixel_546,Pixel_547,Pixel_548,Pixel_549,Pixel_550,Pixel_551,Pixel_552,Pixel_553,Pixel_554,Pixel_555,Pixel_556,Pixel_557,Pixel_558,Pixel_559,Pixel_560,Pixel_561,Pixel_562,Pixel_563,Pixel_564,Pixel_565,Pixel_566,Pixel_567,Pixel_568,Pixel_569,Pixel_570,Pixel_571,Pixel_572,Pixel_573,Pixel_574,Pixel_575,Pixel_576,Pixel_577,Pixel_578,Pixel_579,Pixel_580,Pixel_581,Pixel_582,Pixel_583,Pixel_584,Pixel_585,Pixel_586,Pixel_587,Pixel_588,Pixel_589,Pixel_590,Pixel_591,Pixel_592,Pixel_593,Pixel_594,Pixel_595,Pixel_596,Pixel_597,Pixel_598,Pixel_599,Pixel_600,Pixel_601,Pixel_602,Pixel_603,Pixel_604,Pixel_605,Pixel_606,Pixel_607,Pixel_608,Pixel_609,Pixel_610,Pixel_611,Pixel_612,Pixel_613,Pixel_614,Pixel_615,Pixel_616,Pixel_617,Pixel_618,Pixel_619,Pixel_620,Pixel_621,Pixel_622,Pixel_623,Pixel_624,Pixel_625,Pixel_626,Pixel_627,Pixel_628,Pixel_629,Pixel_630,Pixel_631,Pixel_632,Pixel_633,Pixel_634,Pixel_635,Pixel_636,Pixel_637,Pixel_638,Pixel_639,Pixel_640,Pixel_641,Pixel_642,Pixel_643,Pixel_644,Pixel_645,Pixel_646,Pixel_647,Pixel_648,Pixel_649,Pixel_650,Pixel_651,Pixel_652,Pixel_653,Pixel_654,Pixel_655,Pixel_656,Pixel_657,Pixel_658,Pixel_659,Pixel_660,Pixel_661,Pixel_662,Pixel_663,Pixel_664,Pixel_665,Pixel_666,Pixel_667,Pixel_668,Pixel_669,Pixel_670,Pixel_671,Pixel_672,Pixel_673,Pixel_674,Pixel_675,Pixel_676,Pixel_677,Pixel_678,Pixel_679,Pixel_680,Pixel_681,Pixel_682,Pixel_683,Pixel_684,Pixel_685,Pixel_686,Pixel_687,Pixel_688,Pixel_689,Pixel_690,Pixel_691,Pixel_692,Pixel_693,Pixel_694,Pixel_695,Pixel_696,Pixel_697,Pixel_698,Pixel_699,Pixel_700,Pixel_701,Pixel_702,Pixel_703,Pixel_704,Pixel_705,Pixel_706,Pixel_707,Pixel_708,Pixel_709,Pixel_710,Pixel_711,Pixel_712,Pixel_713,Pixel_714,Pixel_715,Pixel_716,Pixel_717,Pixel_718,Pixel_719,Pixel_720,Pixel_721,Pixel_722,Pixel_723,Pixel_724,Pixel_725,Pixel_726,Pixel_727,Pixel_728,Pixel_729,Pixel_730,Pixel_731,Pixel_732,Pixel_733,Pixel_734,Pixel_735,Pixel_736,Pixel_737,Pixel_738,Pixel_739,Pixel_740,Pixel_741,Pixel_742,Pixel_743,Pixel_744,Pixel_745,Pixel_746,Pixel_747,Pixel_748,Pixel_749,Pixel_750,Pixel_751,Pixel_752,Pixel_753,Pixel_754,Pixel_755,Pixel_756,Pixel_757,Pixel_758,Pixel_759,Pixel_760,Pixel_761,Pixel_762,Pixel_763,Pixel_764,Pixel_765,Pixel_766,Pixel_767,
22:6:18:5:31:0:668,0.0000,0.0000,0.0000,,0.0000,0.0000,27.4400,99689,137.1037,0,0.0000,0.0000,0.0000,0.0000,0.0000,0.0000,0,0.0000,0.0000,0.0000,0.0000,0.0000,0.0000,0,0,0,0,0,0,0,0.00,0.00,0.00,0,
22:6:18:5:31:0:810,0.0000,0.0000,0.0000,,0.0000,0.0000,27.4600,99694,136.6819,0,0.0000,0.0000,0.0000,0.0000,0.0000,0.0000,0,0.0000,0.0000,0.0000,0.0000,0.0000,0.0000,0,0,0,0,0,0,0,0.00,0.00,0.00,0,
22:6:18:5:31:0:968,0.0000,0.0000,0.0000,,0.0000,0.0000,27.4700,99694,136.6819,0,0.0000,0.0000,0.0000,0.0000,0.0000,0.0000,0,0.0000,0.0000,0.0000,0.0000,0.0000,0.0000,0,0,0,0,0,0,0,0.00,0.00,0.00,0,
22:6:18:5:31:1:110,0.0000,0.0000,0.0000,,0.0000,0.0000,27.4800,99694,136.6819,0,0.0000,0.0000,0.0000,0.0000,0.0000,0.0000,0,0.0000,0.0000,0.0000,0.0000,0.0000,0.0000,0,0,0,0,0,0,0,0.00,0.00,0.00,0,
22:6:18:5:31:1:264,0.0000,0.0000,0.0000,,0.0000,0.0000,27.4800,99694,136.6819,0,0.0000,0.0000,0.0000,0.0000,0.0000,0.0000,0,0.0000,0.0000,0.0000,0.0000,0.0000,0.0000,0,0,0,0,0,0,0,0.00,0.00,0.00,0,
22:6:18:5:31:1:410,0.0000,0.0000,0.0000,,0.0000,0.0000,27.4800,99692,136.8506,0,0.0000,0.0000,0.0000,0.0000,0.0000,0.0000,0,0.0000,0.0000,0.0000,0.0000,0.0000,0.0000,0,0,0,0,0,0,0,0.00,0.00,0.00,0,
22:6:18:5:31:1:515,0.3000,115.0000,36.4000,A,0.0000,0.0000,27.4900,99695,136.5975,0,0.0000,0.0000,0.0000,0.0000,0.0000,0.0000,0,0.0000,0.0000,0.0000,0.0000,0.0000,0.0000,0,0,0,0,0,0,0,0.00,0.00,0.00,0,531.0229,29.4118,536.8579,29.8863,538.9326,29.6115,541.4372,30.4452,542.7775,30.1887,543.2095,30.7855,542.4902,30.5392,545.2798,31.1261,543.2464,30.7364,543.0733,31.7241,542.1514,31.1697,541.0327,31.8886,538.8989,31.1744,537.2993,31.1175,532.3114,30.9817,529.4862,31.5176,29.3630,537.1533,30.3130,539.4247,29.7806,541.0150,30.5833,542.6363,29.9029,543.2589,30.4929,544.1309,30.5895,542.4598,31.1542,542.8687,31.2457,543.5527,31.5638,543.0063,31.3303,540.1259,31.8260,538.9365,31.6692,536.7426,31.9335,534.2299,31.5550,530.6953,31.5979,524.8701,532.8317,29.4507,538.7840,30.0812,539.1980,29.8051,544.2404,30.4022,543.9046,30.3409,545.6739,30.6942,543.7566,30.6273,543.8907,31.0281,544.7217,31.1925,544.3093,31.2361,543.0655,31.0636,541.1327,31.5195,540.6791,31.2677,537.3087,31.6365,534.6468,31.2681,531.9883,31.1522,29.5957,538.2671,30.0491,541.0208,29.7516,542.8909,30.1418,543.9067,30.3998,544.5402,30.4280,545.1752,30.6770,545.2852,30.9245,543.6492,31.1701,543.1870,31.2578,543.0585,31.5612,541.6123,31.8866,540.6813,31.5104,538.5966,31.5765,536.3416,31.4235,533.3991,31.9018,527.4057,535.8405,29.8984,539.7073,29.8649,541.4493,29.8077,543.5978,30.5402,544.9317,30.2957,545.2875,30.8305,545.2472,30.6003,545.6841,31.2871,544.7292,31.0957,545.4623,31.4819,544.3302,31.1517,542.3622,31.6163,541.0084,31.4855,538.6141,31.4919,535.9429,30.8183,533.5372,31.2763,30.2322,537.8078,29.8123,541.8666,29.9265,543.4489,30.4717,544.5086,30.5138,545.2806,30.8901,544.4257,30.8095,544.3102,31.1945,544.5430,30.7974,544.0999,31.3748,543.5840,31.4956,542.3083,31.4539,541.6196,31.4393,539.6345,31.6534,537.4973,31.3511,534.5260,31.7878,529.0192,536.0786,29.6412,540.8641,30.4362,541.4256,29.9618,544.6757,30.6625,544.3177,30.7496,545.8005,30.7647,544.9922,30.8692,546.1464,31.2498,546.1564,30.9058,545.6981,31.6013,544.4313,31.2662,542.6735,31.2480,541.6539,31.2458,539.7054,31.0554,538.0532,31.3285,533.3113,31.1996,29.8404,539.9366,30.0418,540.9009,30.2714,543.8303,30.6485,543.6245,30.1828,543.9781,31.0508,544.7826,30.6481,544.6522,31.1607,544.7681,31.0868,544.0562,31.3298,543.8436,31.1291,542.9921,31.1033,541.9766,31.3810,539.9688,31.5752,538.6661,31.4628,535.5402,31.0914,530.3813,536.4307,29.8370,541.1474,30.5929,541.7231,30.1252,543.3393,30.9765,544.2624,30.5916,546.1171,31.0740,545.2064,30.6916,546.4033,31.5158,545.8978,31.0182,544.6838,31.2367,543.3307,30.8997,542.9710,31.5149,541.6318,31.2189,540.3381,31.3830,536.5513,31.4643,535.8483,31.5387,30.0281,538.2761,30.3943,540.7396,30.2935,542.3199,30.4682,543.5675,30.8381,543.9783,30.8716,544.5259,30.9558,544.4415,31.3122,544.6191,31.2205,544.0479,31.8072,543.7057,31.5793,542.7498,31.8628,541.8063,31.5636,540.4114,31.5661,538.7509,31.6203,535.9512,31.6586,531.3011,536.1954,30.6227,541.2514,30.4128,542.4061,30.1190,543.1692,30.9712,545.0139,30.5618,545.4197,30.9280,545.7348,31.0070,544.4615,31.2139,544.8637,31.1902,544.4044,31.7159,543.4403,31.5689,542.9221,31.8126,541.6287,31.5365,539.7595,31.8472,537.8466,31.4305,535.3347,31.7093,30.4427,537.9111,30.8110,540.7239,30.4583,542.1816,30.2996,543.0399,30.3618,543.3888,30.8845,544.0594,31.0974,544.2411,31.7506,544.3297,31.3572,543.7734,31.4669,543.5904,31.4177,542.5753,31.5585,541.8484,31.3827,539.9444,31.5299,538.3361,31.2474,535.9954,31.6625,530.7552,533.2814,30.0280,538.5010,30.5788,541.1490,30.1303,542.2573,30.8023,543.4730,30.7358,543.5667,31.0743,544.0762,31.1432,544.0636,31.5079,544.8497,31.1680,543.6503,31.4157,543.5475,31.3918,542.3381,31.6841,541.0941,31.2049,539.4956,31.6962,537.8138,31.5872,533.3925,31.6926,30.5103,536.6117,30.2809,539.7712,30.1543,541.3606,30.6748,542.6173,30.8759,542.7770,31.0720,543.6281,31.2844,543.5621,31.1590,543.6105,30.9326,543.1422,31.6375,542.6736,31.2992,542.1573,31.2496,540.8998,31.5421,539.4169,31.5973,537.9883,31.6080,535.3655,31.2952,530.4930,533.5121,30.4569,537.0312,30.9582,539.2105,30.6471,541.1339,30.9778,541.2883,31.0836,542.5897,31.1975,542.9025,31.1626,543.2788,31.3634,544.2806,31.3164,542.6937,31.5782,542.8980,31.3903,541.5109,31.5321,539.9524,31.0753,538.3907,31.5386,536.2066,31.4240,534.3697,31.5343,29.9653,535.3773,30.6906,538.2690,30.5533,539.9560,30.7087,541.1077,30.7630,541.7831,31.5659,542.5615,31.3191,542.6454,31.5028,542.3674,31.1503,542.0780,31.3791,541.9622,31.4835,541.0674,31.6482,540.1245,31.4514,538.5947,31.4667,535.5026,31.2990,534.7174,31.5338,529.2253,531.3729,30.2642,533.6125,30.8425,538.0738,30.6934,539.3097,31.0384,541.3062,30.9582,542.4042,31.1441,542.4982,31.1985,542.7804,31.7495,541.9128,31.0874,541.4937,31.4563,540.5426,31.4517,539.9831,31.2407,538.1215,31.1049,536.4799,31.7629,533.1687,31.1127,531.8418,31.3684,29.7951,533.8757,30.5680,536.6235,30.6105,538.5521,30.6013,539.8216,30.8061,540.2640,31.0101,540.6826,31.2196,541.3884,31.2501,540.9525,31.0262,540.8430,31.5883,540.9234,31.3919,539.6567,31.6999,538.8527,31.1367,535.3826,31.8750,535.2505,31.3671,532.9022,31.5998,527.6503,526.3502,30.3438,532.3503,30.8921,534.8190,30.5981,537.2123,30.9339,538.7249,30.8411,539.4581,31.3619,540.0882,31.2513,540.0940,31.3340,540.9731,31.2773,539.7020,31.7144,539.7830,31.0230,538.3420,31.6761,536.2610,31.3275,535.1082,31.4939,532.9463,31.5687,529.6664,31.8680,29.8776,530.7590,30.4631,533.9579,30.3442,536.1097,30.5259,537.6383,30.5713,538.2720,30.7501,539.3254,30.8300,539.5471,31.3541,539.4373,31.2602,538.9740,31.3503,538.6993,31.1678,538.1775,31.6253,537.2332,31.5607,533.5844,31.6128,531.7335,31.6548,530.6581,31.9140,522.9791,521.5497,30.6039,528.7664,30.7906,531.6865,30.6525,534.4356,31.0136,536.0073,30.7410,537.2627,30.9391,537.6109,30.8600,537.7872,31.2422,537.3444,31.0356,537.8161,31.1208,535.9258,31.0927,535.7795,31.5438,535.8560,31.7783,532.5850,31.5751,529.7514,31.0785,526.7167,32.2495,29.5758,527.3846,30.3642,530.7690,30.2588,531.0219,30.7617,534.9403,30.4873,535.7918,31.1940,536.7709,30.7467,536.9586,31.1220,537.2818,31.2054,535.4037,31.4766,536.6035,31.2712,535.6040,31.5664,534.5697,31.6964,530.9680,31.7559,530.6536,31.3920,527.6202,31.8701,519.4131,520.4162,30.0413,524.8312,31.0859,529.1530,30.3648,530.7582,30.9378,533.2584,30.6564,533.5536,31.5699,535.7074,30.7662,534.9564,31.1504,536.9656,30.6144,535.0630,31.1990,534.2009,31.0038,533.1869,31.8593,532.3260,31.7049,527.9678,31.7192,525.6194,31.3814,523.5728,32.3901,29.5421,519.3926,30.1971,521.3832,30.4262,524.1846,30.2777,526.0198,30.6549,527.8604,30.8897,530.6401,31.0925,529.6448,31.1753,531.9277,31.2193,532.0458,31.3420,531.5462,31.1054,530.5270,31.6105,527.0722,31.3787,526.7527,31.6269,523.6882,31.4399,521.3444,32.1500,510.9815,
22:6:18:5:31:1:675,0.3000,115.0000,36.4000,A,0.0000,0.0000,27.4900,99695,136.5975,0,0.0000,0.0000,0.0000,0.0000,0.0000,0.0000,0,0.0000,0.0000,0.0000,0.0000,0.0000,0.0000,0,0,0,0,0,0,0,0.00,0.00,0.00,0,
22:6:18:5:31:1:784,0.4000,162.0000,35.3000,A,0.0000,0.0000,27.5000,99694,136.6819,0,0.0000,0.0000,0.0000,0.0000,0.0000,0.0000,0,0.0000,0.0000,0.0000,0.0000,0.0000,0.0000,0,0,0,0,0,0,0,0.00,0.00,0.00,0,
22:6:18:5:31:1:877,0.4000,162.0000,35.3000,A,0.0000,0.0000,27.5100,99691,136.9349,0,0.0000,0.0000,0.0000,0.0000,0.0000,0.0000,0,0.0000,0.0000,0.0000,0.0000,0.0000,0.0000,0,0,0,0,0,0,0,0.00,0.00,0.00,0,
22:6:18:5:31:1:986,0.2000,203.0000,34.8000,A,0.0000,0.0000,27.5100,99694,136.6819,0,0.0000,0.0000,0.0000,0.0000,0.0000,0.0000,0,0.0000,0.0000,0.0000,0.0000,0.0000,0.0000,0,0,0,0,0,0,0,0.00,0.00,0.00,0,
22:6:18:5:31:2:79,0.2000,203.0000,34.8000,A,0.0000,0.0000,27.5200,99691,136.9349,0,0.0000,0.0000,0.0000,0.0000,0.0000,0.0000,0,0.0000,0.0000,0.0000,0.0000,0.0000,0.0000,0,0,0,0,0,0,0,0.00,0.00,0.00,0,
22:6:18:5:31:2:172,0.2000,203.0000,34.8000,A,0.0000,0.0000,27.5200,99693,136.7662,0,0.0000,0.0000,0.0000,0.0000,0.0000,0.0000,0,0.0000,0.0000,0.0000,0.0000,0.0000,0.0000,0,0,0,0,0,0,0,0.00,0.00,0.00,0,
22:6:18:5:31:2:281,0.2000,174.0000,34.1000,A,0.0000,0.0000,27.5200,99696,136.5132,0,0.0000,0.0000,0.0000,0.0000,0.0000,0.0000,0,0.0000,0.0000,0.0000,0.0000,0.0000,0.0000,0,0,0,0,0,0,0,0.00,0.00,0.00,0,
22:6:18:5:31:2:374,0.2000,174.0000,34.1000,A,0.0000,0.0000,27.5300,99695,136.5975,0,0.0000,0.0000,0.0000,0.0000,0.0000,0.0000,0,0.0000,0.0000,0.0000,0.0000,0.0000,0.0000,0,0,0,0,0,0,0,0.00,0.00,0.00,0,
22:6:18:5:31:2:483,0.2000,161.0000,33.1000,A,0.0000,0.0000,27.5300,99694,136.6819,0,0.0000,0.0000,0.0000,0.0000,0.0000,0.0000,0,0.0000,0.0000,0.0000,0.0000,0.0000,0.0000,0,0,0,0,0,0,0,0.00,0.00,0.00,0,31.6454,31.5863,32.1174,32.1749,31.6943,32.1528,31.9775,32.4753,31.6686,32.3162,31.8202,32.6888,31.5875,32.2300,31.7046,32.4524,31.3662,31.7078,31.7911,32.3462,31.2551,32.1590,30.9516,32.5324,31.2001,31.6401,30.6979,31.5964,31.2527,31.0237,31.1507,31.5463,31.3261,31.2961,32.5749,31.6443,31.8665,31.4918,32.4001,31.9784,32.3835,31.6866,32.7418,31.8193,32.6044,31.4641,32.4510,31.6257,32.0249,31.6061,32.0034,31.1217,31.7723,31.3625,32.2701,31.6486,32.1231,31.3611,32.1976,31.7013,31.6054,30.7455,32.0980,30.6792,31.7493,31.5069,31.9588,31.7997,31.5940,31.6206,32.0230,31.9533,32.0703,32.5286,32.1809,32.4887,31.7912,32.2274,32.1440,32.4602,31.7785,31.9566,31.9826,32.3437,31.4976,32.0089,31.2440,32.1327,31.4594,31.7199,31.0444,31.9014,31.1394,31.5337,31.4944,31.8740,31.2304,31.2202,31.9905,31.9068,31.7521,31.5560,32.2548,32.0140,31.8787,31.5709,32.3896,32.0251,32.2492,31.4832,32.3428,31.5197,32.0942,31.7015,32.5151,31.5596,32.4886,31.2631,32.1483,31.3207,32.1290,31.4370,32.0319,31.1669,31.6882,30.4530,31.7300,30.8337,31.5966,31.6346,31.8530,31.5172,31.6826,32.0963,32.0918,32.2238,31.7864,32.0743,32.0839,32.5945,31.8625,32.3203,31.8687,32.1923,31.5413,32.1560,31.7202,32.0670,31.2575,31.5776,31.3301,32.0480,31.3765,31.7476,31.3545,31.9399,31.2598,31.6806,31.1958,31.9727,31.9914,31.3711,31.9047,32.0054,32.0460,31.6587,32.1272,31.9361,31.6147,31.8344,32.4531,32.1701,32.3424,31.7861,32.2490,31.7775,32.3376,31.7732,32.2798,31.8210,32.2441,31.7023,32.0478,31.4418,32.2135,30.9906,31.7338,31.2614,31.6171,30.8175,32.0526,31.2080,31.7471,31.7269,32.1301,32.4262,31.7833,32.1358,31.8410,31.9438,31.8867,32.1406,32.0200,32.1354,31.9859,32.0647,31.9684,31.9864,31.4709,31.9567,31.8250,32.1781,31.3562,31.8457,31.6411,32.1773,31.1381,31.8479,31.4378,31.8562,30.9824,31.2169,30.9368,31.6742,31.9640,31.4993,32.0219,32.3468,32.2999,31.9132,32.2767,32.0490,31.7308,31.6230,32.2685,31.9097,32.0060,31.7193,32.0450,31.7478,31.9685,31.6000,32.3694,31.7732,32.1714,31.0058,32.0240,31.4015,32.1339,31.3065,32.0114,31.0371,31.7279,31.1473,31.7560,31.5596,32.0962,31.6874,31.6922,32.5139,32.0376,32.0950,31.9766,32.5535,31.8562,32.1503,31.4968,32.2781,31.6362,32.0197,31.6266,32.2338,31.7403,32.0456,31.8333,32.2709,31.5086,32.0833,31.5781,31.9369,31.4722,31.6469,31.5895,31.6464,30.9882,31.5449,31.2804,31.8057,31.8945,31.3063,32.5079,32.0848,32.4259,31.9230,32.2281,31.8301,32.2039,31.4739,32.2284,31.5871,32.2919,31.5444,32.3374,31.8432,32.3839,31.5599,32.0679,31.7401,32.3017,31.6033,32.1241,31.6865,32.1545,31.2598,32.0016,31.5532,31.7059,31.3061,31.9231,30.9037,31.8500,32.2517,31.6731,32.3087,31.5080,32.0958,31.7879,32.5507,31.8367,32.0784,31.6648,32.2853,31.7565,31.8801,31.6258,32.0912,31.4327,32.0612,31.3355,31.9764,31.8051,31.6737,31.5821,32.2327,31.6108,31.4733,31.3892,31.9403,31.3131,31.3360,31.6656,31.5842,31.6949,31.7023,32.3636,32.0738,31.9061,31.5935,32.3703,31.6929,32.3622,31.4495,32.0822,31.7481,31.9692,31.3995,32.3114,31.4084,32.0668,31.4090,32.1848,31.5861,32.2919,31.4735,32.4554,31.5257,31.9699,31.2673,31.7929,31.1802,31.3367,30.9252,31.5446,31.5013,31.7261,31.8526,32.2584,32.4671,31.5619,31.9022,31.3118,32.2038,31.5472,31.9437,32.0101,32.4246,31.4762,31.7051,31.4727,32.0721,31.5940,32.0259,31.1941,32.2912,31.3511,31.9605,31.4194,31.9458,31.6211,31.6301,31.5789,31.7880,31.4727,31.5002,31.0923,31.5722,32.1606,31.7236,32.3784,31.5484,31.8034,31.2447,31.9287,31.3601,31.9275,31.3186,32.1147,31.4447,31.6989,31.2529,32.0209,31.5718,32.0911,31.2505,32.3548,31.6071,31.8685,30.9961,31.9856,31.5516,31.8054,31.1096,32.0319,31.1936,31.6988,31.4584,31.5627,31.5025,31.9350,32.2477,31.9159,32.1211,31.5852,31.5750,31.4924,32.2174,31.2798,31.5027,31.3904,31.9106,31.3494,31.8762,31.3368,31.9272,31.0091,31.7266,31.3767,32.2980,31.0608,31.6523,31.2936,31.9543,31.3311,31.8343,31.2688,32.3140,30.9885,31.3345,31.2875,31.4093,32.2232,32.1136,32.2345,31.5915,31.5028,31.2838,31.7953,31.4060,31.5073,31.0259,32.1379,31.1354,31.7339,31.1267,31.9154,31.2962,32.3186,30.9862,32.2538,31.4638,32.0542,31.1734,32.0726,30.9249,31.7168,31.1469,32.0734,31.2423,31.5656,30.9487,32.1858,31.7375,31.5775,31.3172,32.0004,32.0289,31.4606,31.8065,31.0559,32.1185,31.1299,31.8590,31.1221,32.0383,31.3659,32.0699,31.3770,32.3194,31.2250,32.1234,31.2635,32.3345,31.2608,32.0262,31.6616,31.9902,31.3691,31.5363,31.5049,32.0266,31.0526,31.5611,31.5568,32.2256,31.2834,31.2157,31.5801,31.8456,31.9216,30.8276,32.0359,31.2673,31.8707,30.7586,31.9149,31.0657,31.9454,30.8663,32.1195,31.0373,32.5244,30.8845,32.3158,31.5018,32.2753,31.5491,32.1265,31.2901,31.8890,31.3892,31.9673,31.2811,31.6345,31.1942,31.8683,31.5880,31.3166,31.2093,31.7135,32.0851,31.3776,31.5708,31.4606,32.5415,31.0447,32.0730,31.0174,32.4266,30.9841,32.2791,30.8361,32.5365,31.1164,32.0040,31.3190,32.1373,31.3297,31.7637,31.2375,32.4403,31.4420,31.5921,31.7238,31.9392,31.0999,31.6459,31.4382,31.9308,31.2069,31.3078,31.8898,31.7353,31.6802,31.0880,32.3274,31.3610,32.1347,31.2925,32.3014,31.1096,32.0429,30.7600,32.0939,31.0910,31.9916,30.9321,31.7729,31.4538,31.7553,30.8071,32.0568,31.3571,31.6589,31.2819,31.8803,31.2047,31.5511,31.0885,32.1835,31.7316,31.0062,31.4880,31.4372,32.6140,31.6436,32.0086,31.5562,32.8392,31.6302,31.8419,31.2579,32.3631,31.0494,31.9220,31.0647,32.3117,30.7298,31.7800,30.9073,31.8765,31.2708,31.6853,31.4880,31.6385,31.1494,31.6893,31.2896,31.6546,31.5762,31.3465,31.5458,32.3061,31.1448,31.0079,31.6298,31.6901,31.9759,31.4051,32.2622,32.1623,32.1012,31.3967,32.4531,31.7000,31.9729,31.0032,32.2000,31.3303,31.7979,30.7104,32.0694,31.3567,31.5397,31.0582,32.0041,31.4597,31.6217,31.2091,32.0247,31.8356,31.2772,31.1854,31.9304,31.6485,30.8461,31.8408,31.3726,32.3670,31.6046,31.9755,31.7171,32.6615,31.7623,32.3215,31.9229,32.7014,31.6471,32.0319,31.3348,32.2429,31.2753,32.0459,31.3275,31.9725,31.1637,31.4407,31.6062,32.1237,31.6352,31.2343,31.8178,32.5679,31.1211,31.2398,31.4692,31.7680,30.9522,30.7944,31.7463,31.5508,32.0674,31.4363,32.2433,32.0896,32.1637,31.8125,32.3898,31.7609,32.0432,31.3805,32.1256,31.6674,32.1599,30.9931,32.1205,31.7018,31.8890,31.2191,31.8811,31.5060,32.0131,31.3694,32.0932,31.6887,31.9158,30.9641,32.2054,31.6714,
22:6:18:5:31:2:640,0.2000,161.0000,33.1000,A,0.0000,0.0000,27.5200,99695,136.5975,0,0.0000,0.0000,0.0000,0.0000,0.0000,0.0000,0,0.0000,0.0000,0.0000,0.0000,0.0000,0.0000,0,0,0,0,0,0,0,0.00,0.00,0.00,0,
22:6:18:5:31:2:746,0.1000,171.0000,32.8000,A,0.0000,0.0000,27.5200,99691,136.9349,0,0.0000,0.0000,0.0000,0.0000,0.0000,0.0000,0,0.0000,0.0000,0.0000,0.0000,0.0000,0.0000,0,0,0,0,0,0,0,0.00,0.00,0.00,0,
22:6:18:5:31:2:843,0.1000,171.0000,32.8000,A,0.0000,0.0000,27.5300,99693,136.7662,0,0.0000,0.0000,0.0000,0.0000,0.0000,0.0000,0,0.0000,0.0000,0.0000,0.0000,0.0000,0.0000,0,0,0,0,0,0,0,0.00,0.00,0.00,0,
22:6:18:5:31:2:949,0.1000,186.0000,32.6000,A,0.0000,0.0000,27.5300,99695,136.5975,0,0.0000,0.0000,0.0000,0.0000,0.0000,0.0000,0,0.0000,0.0000,0.0000,0.0000,0.0000,0.0000,0,0,0,0,0,0,0,0.00,0.00,0.00,0,
22:6:18:5:31:3:42,0.1000,186.0000,32.6000,A,0.0000,0.0000,27.5300,99693,136.7662,0,0.0000,0.0000,0.0000,0.0000,0.0000,0.0000,0,0.0000,0.0000,0.0000,0.0000,0.0000,0.0000,0,0,0,0,0,0,0,0.00,0.00,0.00,0,
22:6:18:5:31:3:151,0.0000,169.0000,32.5000,A,0.0000,0.0000,27.5400,99696,136.5132,0,0.0000,0.0000,0.0000,0.0000,0.0000,0.0000,0,0.0000,0.0000,0.0000,0.0000,0.0000,0.0000,0,0,0,0,0,0,0,0.00,0.00,0.00,0,
22:6:18:5:31:3:244,0.0000,169.0000,32.5000,A,0.0000,0.0000,27.5400,99695,136.5975,0,0.0000,0.0000,0.0000,0.0000,0.0000,0.0000,0,0.0000,0.0000,0.0000,0.0000,0.0000,0.0000,0,0,0,0,0,0,0,0.00,0.00,0.00,0,
22:6:18:5:31:3:353,0.1000,166.0000,32.4000,A,0.0000,0.0000,27.5400,99691,136.9349,0,0.0000,0.0000,0.0000,0.0000,0.0000,0.0000,0,0.0000,0.0000,0.0000,0.0000,0.0000,0.0000,0,0,0,0,0,0,0,0.00,0.00,0.00,0,
22:6:18:5:31:3:446,0.1000,166.0000,32.4000,A,0.0000,0.0000,27.5400,99693,136.7662,0,0.0000,0.0000,0.0000,0.0000,0.0000,0.0000,0,0.0000,0.0000,0.0000,0.0000,0.0000,0.0000,0,0,0,0,0,0,0,0.00,0.00,0.00,0,
22:6:18:5:31:3:539,0.1000,166.0000,32.4000,A,0.0000,0.0000,27.5400,99696,136.5132,0,0.0000,0.0000,0.0000,0.0000,0.0000,0.0000,0,0.0000,0.0000,0.0000,0.0000,0.0000,0.0000,0,0,0,0,0,0,0,0.00,0.00,0.00,0,31.5589,31.8713,31.8215,31.9999,32.0564,31.9966,31.7388,32.3287,31.8249,31.9945,31.6068,32.0110,31.5655,31.7457,32.0356,32.3245,32.0496,31.9336,32.1283,32.0336,32.3248,32.0270,32.9860,32.1989,32.7130,31.6891,32.7415,31.4303,32.7200,31.7463,32.5015,31.8365,31.6157,31.4539,32.4041,31.5815,31.7158,31.8499,32.2565,31.5569,32.0674,31.8428,32.2531,31.9753,31.9572,31.7966,32.3286,31.9574,32.0751,32.2801,32.0532,32.3408,32.0011,32.2312,32.1364,33.1188,31.9837,32.4995,32.2472,32.6947,31.8705,32.4415,31.6807,32.9721,31.9082,31.9989,31.6906,31.6411,31.5568,31.8622,31.6157,32.0022,31.8757,32.0561,31.9918,32.0289,31.4484,31.7759,31.9645,32.0086,32.1019,32.0062,32.3063,32.5614,32.1628,32.2284,32.8110,32.3571,32.8815,32.1433,32.7559,31.9502,32.9235,31.7858,32.5421,31.9224,32.1815,31.3778,32.2475,31.8604,31.9932,31.1434,32.4876,31.8101,32.1015,31.5544,32.4392,32.0132,31.8099,31.6391,32.0635,32.1686,31.9795,32.0229,32.2334,32.0515,31.7071,32.5939,32.0245,32.8630,32.3570,32.3313,32.0816,33.0779,31.7382,32.6183,32.6526,32.9904,31.5390,31.6840,31.8078,32.1561,31.8395,31.9630,31.7173,32.0960,31.7735,31.7884,31.9105,32.3113,32.1789,31.8855,32.0242,32.0804,32.1811,31.5660,32.3611,32.1160,32.7218,31.7915,32.6596,32.0968,33.0801,31.6214,32.9942,32.1723,32.9538,31.5317,33.0510,31.8074,31.8295,31.1181,31.9539,31.9682,31.5436,31.2742,32.5223,31.5688,31.9985,31.6577,32.1786,31.8310,31.9182,31.7830,32.2989,32.0933,32.0699,31.9297,32.0083,32.2998,31.9705,32.3466,32.0976,32.9507,31.9233,32.3572,31.7834,32.8636,31.8569,32.7221,31.8925,33.0514,31.9052,31.7760,31.7097,32.4752,31.9402,32.0128,31.8247,31.8234,31.7206,32.0293,32.0152,32.0266,31.6707,31.9589,32.2803,31.7176,32.0945,32.0061,32.2946,32.5436,32.4489,31.8951,32.7886,32.0601,32.9362,31.5568,32.6432,32.4393,32.9835,31.4549,32.9129,32.3403,32.2185,31.8551,31.6929,31.3709,31.4714,31.5569,31.6461,31.7024,31.3007,31.6207,31.8415,31.9084,31.7447,31.8757,31.7838,32.3753,32.0189,32.3804,31.9530,32.4007,31.9106,32.4281,32.2378,33.0389,31.8588,32.6420,31.8877,32.9733,31.5945,32.6034,31.8055,32.9361,31.4516,31.3420,32.0354,31.8283,31.8556,31.4643,31.7983,31.6163,31.8541,31.7148,32.1237,32.0133,31.9467,31.4602,32.4009,32.1302,32.1987,31.4816,32.3034,31.8560,32.4363,31.9795,33.0081,31.8259,32.9427,31.6963,32.7866,31.5184,33.1322,31.7786,32.8190,32.0522,31.5468,31.4644,31.6361,31.8799,31.4620,31.5730,31.4490,32.1492,31.7825,31.7910,31.6540,32.0565,32.0367,31.8524,31.7766,32.3018,31.9846,32.1717,32.1178,32.6630,32.0454,32.6768,32.1739,33.2709,31.7143,33.0433,32.0513,32.9342,31.7562,33.1015,31.7774,32.8243,31.2199,32.1068,31.4588,31.9972,31.8346,31.8043,31.7792,31.9420,32.4662,31.8152,31.9769,31.8662,32.0648,31.6234,32.2361,31.8318,32.4870,31.3480,32.4125,31.8714,32.8785,31.5664,32.8558,31.7999,33.2161,31.8488,33.0575,31.9893,33.0580,31.5652,32.9843,31.8288,31.5490,31.4709,31.8634,31.5088,31.6199,31.5807,32.2571,32.0137,31.7843,32.0724,31.9767,32.2153,31.7153,32.3148,31.9111,32.0251,31.6694,32.6225,32.0827,32.6630,31.7303,32.4090,31.8701,32.8005,32.0205,32.8805,32.0099,33.3603,31.5633,32.6872,31.7868,33.0158,31.8853,31.7079,31.6834,32.5161,31.7190,31.7848,31.7997,31.9280,32.0186,31.9932,32.3226,32.0077,32.2362,31.6036,32.5316,31.9688,32.7954,31.7777,32.7253,32.0338,32.8829,31.5492,32.8391,31.8342,33.3861,31.8412,33.2602,31.8370,32.8467,31.7256,32.9683,32.2007,32.0147,31.4963,32.0642,31.7060,31.6819,31.4021,31.8140,32.0041,31.9779,31.9468,32.1645,31.9131,31.7492,31.8612,31.9211,32.3360,31.5452,32.5941,31.9488,32.6823,31.7659,32.6768,31.5619,33.3019,31.8557,32.8731,32.2514,33.0533,31.9238,33.0120,31.8030,33.2019,31.5002,32.1076,31.8913,31.8102,31.9127,32.2868,31.8135,31.9409,32.0751,32.0230,32.4761,31.9597,32.4096,32.0765,32.3954,32.1281,32.5223,31.9258,32.7611,32.1946,32.9101,31.8541,32.8915,32.0034,32.9522,31.8838,33.4723,32.1927,33.0726,31.5613,33.3664,31.8500,31.4831,30.7487,32.1026,31.5694,32.0620,31.2754,32.1720,32.2157,31.8759,31.8116,32.0330,32.3558,31.7843,32.1909,32.2653,32.5150,31.9183,32.3417,32.1509,32.8362,32.1046,32.6931,31.9624,32.6847,31.9302,32.7855,32.1234,32.9336,31.4399,32.8681,32.0437,33.4485,30.5288,31.9546,30.8569,32.2617,31.2707,32.0253,31.2138,32.3306,31.6069,31.7493,32.0780,31.9298,32.2830,31.9669,32.5983,31.9048,32.7669,31.7093,32.6659,32.0760,32.6544,31.9198,32.7858,31.8773,32.9872,31.5857,33.3958,32.0755,32.9977,31.6103,33.2730,31.2900,32.3367,30.1946,32.3687,30.7084,32.1448,30.6450,31.7528,30.9357,32.2389,31.3985,32.1243,31.6993,31.8428,31.9467,32.0180,32.4286,31.8050,32.1260,32.0560,32.5819,32.0175,32.7943,32.0147,33.2205,31.6148,33.0349,32.1908,33.0005,31.8647,32.8048,31.7228,33.1184,30.2196,32.4474,30.9127,32.6878,29.9376,31.9729,30.0717,32.0884,30.5483,32.1226,31.0138,32.1555,31.1417,32.0232,31.4735,31.9597,32.0547,31.7443,32.2682,32.6675,32.2881,32.1301,32.7219,32.3235,33.2669,31.4717,33.1086,31.9880,33.1043,31.3161,33.4018,32.1844,31.6762,30.2681,32.1310,30.4008,32.0835,29.8201,32.2082,30.5003,31.8626,30.4854,32.1912,30.7814,31.9361,31.2287,32.1436,31.7220,32.1969,32.0177,32.4543,32.4165,32.1254,32.0753,32.1068,32.6782,31.5413,32.7899,32.2826,32.8129,31.4149,32.7581,32.2333,32.9226,30.3204,32.1512,30.8076,32.4694,30.1796,32.2389,30.1257,32.7160,30.2759,31.8914,30.7510,32.2472,31.5257,32.1305,31.3858,32.3609,31.7035,31.8295,32.0528,32.4155,32.2554,32.0621,32.6633,32.3633,32.6772,32.0924,32.7355,32.0750,32.4968,31.7880,32.7549,31.7095,31.6219,30.1264,32.4682,30.4707,32.0262,30.2798,32.3117,30.7437,31.9843,30.3784,32.3385,30.8591,32.0233,31.1619,32.4114,31.9738,32.1733,31.9962,32.6065,32.3303,32.0867,32.5326,32.2239,32.8170,32.1872,32.4336,32.0746,33.1113,31.9047,32.3252,31.9801,32.6733,30.5637,32.1070,30.9032,32.2136,30.5966,32.4060,30.1869,32.8916,30.5061,32.5448,30.8542,32.5775,31.1302,32.0814,32.0026,32.4570,31.9377,31.9295,32.3301,32.5283,32.6837,32.0036,33.0088,32.3520,33.0486,31.8363,33.3126,32.6166,32.8796,32.1084,32.7244,32.2647,31.4499,30.2947,32.2162,30.4774,32.1177,30.2460,32.2930,30.4168,32.3895,30.5656,32.2650,31.0442,32.0935,31.5416,32.3448,31.8270,32.2103,32.3149,32.3394,32.8764,32.2795,32.5751,32.4649,33.1018,31.7000,33.1846,32.3362,33.4092,32.1672,32.5665,32.4749,32.9631,
22:6:18:5:31:3:710,0.1000,158.0000,32.5000,A,0.0000,0.0000,27.5300,99694,136.6819,0,0.0000,0.0000,0.0000,0.0000,0.0000,0.0000,0,0.0000,0.0000,0.0000,0.0000,0.0000,0.0000,0,0,0,0,0,0,0,0.00,0.00,0.00,0,
22:6:18:5:31:3:803,0.1000,158.0000,32.5000,A,0.0000,0.0000,27.5400,99696,136.5132,0,0.0000,0.0000,0.0000,0.0000,0.0000,0.0000,0,0.0000,0.0000,0.0000,0.0000,0.0000,0.0000,0,0,0,0,0,0,0,0.00,0.00,0.00,0,
22:6:18:5:31:3:912,0.1000,148.0000,32.5000,A,0.0000,0.0000,27.5400,99696,136.5132,0,0.0000,0.0000,0.0000,0.0000,0.0000,0.0000,0,0.0000,0.0000,0.0000,0.0000,0.0000,0.0000,0,0,0,0,0,0,0,0.00,0.00,0.00,0,
22:6:18:5:31:4:5,0.1000,148.0000,32.5000,A,0.0000,0.0000,27.5400,99696,136.5132,0,0.0000,0.0000,0.0000,0.0000,0.0000,0.0000,0,0.0000,0.0000,0.0000,0.0000,0.0000,0.0000,0,0,0,0,0,0,0,0.00,0.00,0.00,0,
22:6:18:5:31:4:97,0.1000,148.0000,32.5000,A,0.0000,0.0000,27.5500,99693,136.7662,0,0.0000,0.0000,0.0000,0.0000,0.0000,0.0000,0,0.0000,0.0000,0.0000,0.0000,0.0000,0.0000,0,0,0,0,0,0,0,0.00,0.00,0.00,0,
22:6:18:5:31:4:206,0.1000,144.0000,32.6000,A,0.0000,0.0000,27.5400,99692,136.8506,0,0.0000,0.0000,0.0000,0.0000,0.0000,0.0000,0,0.0000,0.0000,0.0000,0.0000,0.0000,0.0000,0,0,0,0,0,0,0,0.00,0.00,0.00,0,
22:6:18:5:31:4:299,0.1000,144.0000,32.6000,A,0.0000,0.0000,27.5500,99694,136.6819,0,0.0000,0.0000,0.0000,0.0000,0.0000,0.0000,0,0.0000,0.0000,0.0000,0.0000,0.0000,0.0000,0,0,0,0,0,0,0,0.00,0.00,0.00,0,
22:6:18:5:31:4:408,0.0000,155.0000,32.6000,A,0.0000,0.0000,27.5500,99697,136.4288,0,0.0000,0.0000,0.0000,0.0000,0.0000,0.0000,0,0.0000,0.0000,0.0000,0.0000,0.0000,0.0000,0,0,0,0,0,0,0,0.00,0.00,0.00,0,
22:6:18:5:31:4:501,0.0000,155.0000,32.6000,A,0.0000,0.0000,27.5500,99695,136.5975,0,0.0000,0.0000,0.0000,0.0000,0.0000,0.0000,0,0.0000,0.0000,0.0000,0.0000,0.0000,0.0000,0,0,0,0,0,0,0,0.00,0.00,0.00,0,32.3400,32.0167,32.0927,32.1442,32.3052,31.7301,32.3749,32.4726,32.4304,32.3246,31.8356,32.3379,31.7883,32.0693,31.5513,32.1149,32.2685,32.0792,32.1721,32.1786,32.0046,31.8095,31.9075,32.5351,32.1785,31.8355,31.9518,32.2179,32.1128,31.8935,31.5950,32.4671,31.7628,31.7275,32.1074,32.0648,32.2628,32.0946,32.2075,31.6006,32.2130,32.0684,32.2173,31.8400,32.1027,31.6651,32.4726,31.8265,32.0482,31.8060,32.3754,32.0314,31.7904,32.0979,32.6464,32.2271,32.3199,31.9570,32.3927,31.9048,31.8021,31.8308,32.2935,31.8386,32.4097,31.9238,31.9476,32.6103,32.1842,32.1992,32.0348,32.3299,32.0948,32.3755,32.0354,32.0036,32.4882,32.0876,32.0084,32.1534,32.1456,32.1523,31.8453,32.0302,31.6982,32.0333,31.4454,31.9748,32.0236,31.9163,32.4141,32.2950,32.5641,31.9327,32.1436,32.0702,31.8785,32.5073,32.1843,32.1071,32.1391,31.9450,32.6315,32.3929,31.9016,32.1145,32.5830,32.0567,32.1186,31.6825,32.3730,32.2123,31.9600,32.0667,32.3774,31.9279,32.1867,31.9688,32.1696,32.0436,32.1465,32.0079,32.6093,31.5661,31.8846,31.4641,32.3626,31.7092,32.2300,32.2472,32.4568,32.3009,32.2591,31.9257,32.1149,32.5938,32.1547,32.1014,32.1187,32.2892,32.2226,32.3536,31.7455,32.2249,32.2248,31.8717,31.7573,32.2607,32.2769,31.7725,31.8673,32.2417,32.0959,32.1175,32.3000,31.9517,32.4250,32.0750,31.6130,32.3817,32.3991,31.9833,32.2996,32.0119,31.8748,31.8585,32.4936,31.7869,31.9771,31.7011,32.3226,32.2051,32.0641,31.8266,32.4435,31.8179,32.3746,31.8153,32.3139,31.8598,32.2784,32.0658,32.4081,31.8128,32.2398,31.5394,32.2933,32.5486,32.1930,31.9943,32.2478,31.4136,31.9498,32.3223,31.9463,32.6197,32.6940,31.9854,32.0404,32.3066,31.9256,32.0135,32.2190,32.4866,32.0288,32.1039,32.1672,32.1801,32.2936,32.4656,31.8668,32.5298,32.0255,31.8813,32.1730,31.8726,32.3270,31.7029,31.6394,32.0515,32.1102,31.6026,31.7501,32.2820,32.3656,31.7002,32.2169,31.9827,31.9695,32.1127,32.4713,32.0817,32.0858,31.9819,32.3044,31.9520,32.2022,32.0733,32.2396,32.2620,32.3189,32.1126,32.2534,32.2876,32.3676,31.6829,32.0546,32.0982,31.8425,31.8461,32.3793,32.1320,32.1083,32.0937,32.1502,31.5604,32.2985,32.0789,31.8928,32.1573,31.8996,32.1200,31.8421,32.7468,32.0561,32.1835,31.8533,32.6281,32.4523,32.0624,31.8256,32.4274,32.0911,32.0871,32.1902,32.1555,32.3265,31.9714,32.0983,32.4511,32.0034,32.1716,31.7909,32.0183,32.0984,32.1099,32.0769,32.3968,31.8924,32.0936,32.5178,32.1050,32.1168,31.9549,32.4228,32.0304,32.2425,32.1549,32.4229,32.1001,32.0296,32.0471,32.5319,32.0431,32.1304,32.0639,32.1064,32.0941,32.1913,31.8040,32.4764,31.8875,31.8614,31.9517,32.3687,32.1061,31.9032,32.0574,32.1184,32.0901,32.0531,32.2523,32.0585,32.5033,31.8785,31.7789,31.9882,32.4158,32.5099,32.2729,32.0206,32.4797,32.1084,31.9218,32.1288,32.1308,31.9331,32.1046,31.9969,32.3251,32.0057,32.1822,32.2627,32.4262,32.1356,32.3202,32.0968,32.1354,31.6928,31.7126,31.4790,32.3666,32.2834,31.9044,32.3757,31.9143,31.9350,31.6245,32.2388,32.3847,32.2449,32.2711,32.1217,32.2589,32.0136,32.2071,32.5059,32.0687,32.1139,32.2145,32.2276,31.9404,32.0296,31.9864,32.4916,32.2071,32.3284,31.7942,31.8204,31.8915,32.2377,31.6655,32.3170,31.9005,32.7179,32.0475,32.0944,32.3013,31.9356,31.9302,32.0087,32.3974,32.0625,32.1383,32.0537,32.3078,31.9787,31.8998,31.9746,31.9609,32.2430,32.2214,32.1603,32.6387,32.0118,31.8494,31.7789,32.1407,31.9844,32.3100,31.9509,32.4959,31.8495,32.2241,32.0628,32.1548,32.1622,32.1185,32.3917,31.7501,32.0005,31.9423,32.2877,31.5610,31.9672,31.8338,32.3095,31.9567,32.3477,31.9049,32.0661,32.0764,31.8408,32.0461,32.2458,31.8078,32.3702,31.8092,32.6514,32.2332,32.3225,32.1173,32.3974,32.0798,32.2451,31.8369,32.3297,32.0942,32.1383,32.8215,32.3001,32.6731,32.1267,32.2667,32.1848,32.4109,32.2780,32.0123,31.9017,32.4054,32.4535,32.3720,32.1394,32.1210,31.9652,31.9213,32.0394,32.4926,31.8800,32.1522,31.8165,32.4685,32.1859,32.0304,32.1570,32.5090,32.2460,32.0628,31.8776,32.3879,32.4212,32.1271,32.2482,32.1528,32.0397,31.9827,32.3173,32.4221,32.3396,31.8554,32.4871,32.2483,32.2317,32.0840,32.7093,32.1051,32.2157,32.0872,32.2959,32.1221,32.2508,32.1337,32.5882,31.7704,32.4021,31.8449,32.6095,32.4699,32.1142,31.6834,32.5740,32.1376,32.3817,32.4905,32.2042,32.5906,32.0094,32.0014,32.0937,32.9627,32.4463,31.8955,31.6430,32.7048,32.3269,32.1121,32.1870,32.3597,32.5047,32.3190,32.0890,32.5291,32.3909,32.2220,32.1863,32.1852,32.2229,31.5655,32.0563,32.5689,32.1535,31.9397,32.3473,32.8122,32.2847,32.3935,32.5144,32.2318,31.9462,31.8780,32.5625,32.2800,32.0678,31.9222,32.4288,31.9014,32.2961,32.1436,32.4652,32.0116,32.2598,32.0158,32.2012,32.1654,32.3190,32.2182,32.6452,32.1400,31.9241,31.7594,32.5104,32.0070,32.5495,31.7629,32.6490,31.5966,32.3542,32.5940,32.1083,32.8334,32.2841,32.4706,32.1739,32.7361,32.2212,32.2687,32.1825,32.3011,32.1271,32.4747,32.3123,32.4187,32.2542,31.8907,32.4700,32.8128,32.1725,32.2765,32.2706,32.4702,32.3147,32.2957,32.1028,32.4943,32.0457,32.0318,32.2476,32.1267,32.2424,32.3051,32.4684,32.1240,32.2312,32.3492,32.6929,32.2377,32.4928,31.9743,32.6560,32.1173,32.3969,32.0451,32.7622,32.2370,32.3434,32.0618,32.4419,32.3002,32.2729,32.1194,32.2533,31.7266,32.1910,32.1627,32.7803,31.7738,32.1212,32.2393,32.9798,32.1462,32.2659,32.0942,32.4264,32.8089,32.3835,32.5658,32.2842,32.8615,32.1663,32.2044,32.1216,32.3929,32.2036,32.1179,32.0796,32.8273,32.0723,32.1358,32.0972,32.7238,32.4644,32.2088,32.3699,32.6775,32.2102,32.0628,32.5974,32.4069,32.5419,32.1316,32.1722,32.7181,31.9845,32.0407,32.4179,32.4803,32.3536,32.1571,32.2824,32.5389,32.4657,32.5988,32.6496,32.3988,32.0115,32.3225,32.3951,32.5009,31.9953,32.2006,32.7527,32.2121,32.3995,32.4134,32.5401,32.3495,32.3354,32.4785,32.7754,32.0400,32.0530,31.9797,32.3391,32.2894,31.9383,32.2545,32.4137,33.1663,32.5812,32.3625,32.4789,32.8564,32.4918,32.5175,32.4744,33.2411,32.3536,32.5594,32.2165,32.9318,32.4842,32.2420,32.2064,32.6741,32.0502,32.1505,32.5222,32.6773,32.0191,32.1674,32.4060,32.9564,32.3287,31.8478,32.3334,32.8601,32.2689,31.8803,32.3652,32.1686,32.2669,32.6003,32.9986,32.4782,32.7127,32.5424,32.5870,32.4881,32.4108,32.2566,32.6609,32.3701,32.3580,32.1943,32.8235,32.0760,32.0888,32.1090,32.9665,32.2529,32.2118,32.4975,32.8693,32.6778,32.5171,31.9973,33.0614,32.5608,
22:6:18:5:31:4:670,0.0000,90.0000,32.7000,A,0.0000,0.0000,27.5300,99695,136.5975,0,0.0000,0.0000,0.0000,0.0000,0.0000,0.0000,0,0.0000,0.0000,0.0000,0.0000,0.0000,0.0000,0,0,0,0,0,0,0,0.00,0.00,0.00,0,
22:6:18:5:31:4:767,0.0000,90.0000,32.7000,A,0.0000,0.0000,27.5400,99692,136.8506,0,0.0000,0.0000,0.0000,0.0000,0.0000,0.0000,0,0.0000,0.0000,0.0000,0.0000,0.0000,0.0000,0,0,0,0,0,0,0,0.00,0.00,0.00,0,
22:6:18:5:31:4:872,0.0000,90.0000,32.8000,A,0.0000,0.0000,27.5400,99692,136.8506,0,0.0000,0.0000,0.0000,0.0000,0.0000,0.0000,0,0.0000,0.0000,0.0000,0.0000,0.0000,0.0000,0,0,0,0,0,0,0,0.00,0.00,0.00,0,
22:6:18:5:31:4:968,0.0000,90.0000,32.8000,A,0.0000,0.0000,27.5500,99694,136.6819,0,0.0000,0.0000,0.0000,0.0000,0.0000,0.0000,0,0.0000,0.0000,0.0000,0.0000,0.0000,0.0000,0,0,0,0,0,0,0,0.00,0.00,0.00,0,
22:6:18:5:31:5:74,0.0000,156.0000,32.9000,A,0.0000,0.0000,27.5500,99690,137.0193,0,0.0000,0.0000,0.0000,0.0000,0.0000,0.0000,0,0.0000,0.0000,0.0000,0.0000,0.0000,0.0000,0,0,0,0,0,0,0,0.00,0.00,0.00,0,
22:6:18:5:31:5:167,0.0000,156.0000,32.9000,A,0.0000,0.0000,27.5500,99696,136.5132,0,0.0000,0.0000,0.0000,0.0000,0.0000,0.0000,0,0.0000,0.0000,0.0000,0.0000,0.0000,0.0000,0,0,0,0,0,0,0,0.00,0.00,0.00,0,
22:6:18:5:31:5:276,0.0000,272.0000,32.9000,A,0.0000,0.0000,27.5500,99695,136.5975,0,0.0000,0.0000,0.0000,0.0000,0.0000,0.0000,0,0.0000,0.0000,0.0000,0.0000,0.0000,0.0000,0,0,0,0,0,0,0,0.00,0.00,0.00,0,
22:6:18:5:31:5:369,0.0000,272.0000,32.9000,A,0.0000,0.0000,27.5500,99691,136.9349,0,0.0000,0.0000,0.0000,0.0000,0.0000,0.0000,0,0.0000,0.0000,0.0000,0.0000,0.0000,0.0000,0,0,0,0,0,0,0,0.00,0.00,0.00,0,
22:6:18:5:31:5:478,0.0000,169.0000,33.0000,A,0.0000,0.0000,27.5500,99695,136.5975,0,0.0000,0.0000,0.0000,0.0000,0.0000,0.0000,0,0.0000,0.0000,0.0000,0.0000,0.0000,0.0000,0,0,0,0,0,0,0,0.00,0.00,0.00,0,
22:6:18:5:31:5:571,0.0000,169.0000,33.0000,A,0.0000,0.0000,27.5600,99695,136.5975,0,0.0000,0.0000,0.0000,0.0000,0.0000,0.0000,0,0.0000,0.0000,0.0000,0.0000,0.0000,0.0000,0,0,0,0,0,0,0,0.00,0.00,0.00,0,32.4704,32.0410,32.4482,32.6141,32.4342,31.9604,32.1094,32.4968,32.5587,31.7921,32.1488,32.7255,32.0961,31.7377,32.0316,32.3166,32.2225,31.5736,32.3007,32.0220,32.3159,32.0158,32.2242,31.7929,32.3080,32.2618,31.8719,31.8149,32.4608,31.6938,32.2027,32.2504,31.7874,32.3151,32.1315,32.1947,32.2874,32.2243,32.4250,32.4992,32.2377,32.5606,32.2416,32.3265,31.9525,32.3201,32.1525,32.3054,31.9006,32.2806,31.8676,32.1609,31.8153,32.2283,32.1216,32.1697,32.3448,32.2838,32.4170,32.4540,32.0416,32.4000,32.5502,31.9719,32.7672,32.1695,32.7123,32.2229,32.3137,32.0316,32.3499,32.1715,32.5727,31.8771,32.5070,32.1981,32.7817,31.9452,32.1373,32.1778,32.2743,31.6757,32.1423,31.8851,32.3356,32.2283,32.1055,31.9992,31.9718,31.7537,32.3501,32.3194,32.4914,31.5503,32.0519,32.3196,32.3524,32.4209,32.2085,32.4391,32.3544,31.8856,32.2892,32.1630,32.0991,32.2435,32.4387,32.5201,32.1434,31.8119,32.3975,32.3420,31.9849,32.1965,32.2359,32.2251,31.8783,32.0991,31.8465,32.0005,31.9929,32.1386,32.0597,32.2831,31.9092,32.1966,32.1687,32.2855,31.9297,31.8558,32.3845,32.3253,32.3881,31.9503,32.2434,32.2652,32.6196,31.9584,32.2470,32.3137,32.3512,31.8937,32.1961,32.5710,32.5142,31.8964,32.2098,31.9601,32.4056,31.9617,31.9966,32.0952,32.2255,31.7921,32.0587,32.1597,32.1711,31.5060,32.3810,31.9794,32.4237,32.3183,32.3238,32.5278,32.0838,32.1674,31.9987,32.4381,32.1684,32.3281,32.6709,32.4993,32.2473,32.4342,32.6258,32.2665,32.0812,32.2608,31.8556,31.9898,31.6537,32.1958,32.2671,32.2818,32.2647,31.8431,32.1357,32.1385,32.0288,32.1257,32.0627,31.9692,32.4920,32.1469,32.4592,32.2627,32.4687,32.1827,32.1689,32.1620,32.3761,31.7157,32.3471,32.3535,32.3142,31.9732,32.2954,32.3630,32.1111,32.0185,32.1524,32.3961,32.1544,31.9060,32.3019,32.0639,31.9642,31.7275,32.2940,32.2542,32.0555,32.0038,32.4861,32.3063,32.1864,31.8303,32.4300,32.3014,31.8183,32.2418,32.3263,32.3788,31.9512,32.1117,32.3290,32.2391,32.0715,32.3566,32.4192,32.2345,32.1895,32.2423,32.1224,32.4172,31.7697,32.1291,32.0792,32.5571,32.0306,32.3131,32.2308,32.0848,31.9499,32.2249,31.5769,32.3035,32.2284,32.2998,32.3944,32.1818,32.3673,31.8049,32.4725,32.4438,32.3428,32.0466,32.2954,32.3393,32.2732,31.9351,32.1089,32.4519,32.3707,31.9587,31.8473,32.1800,32.3017,31.9961,32.2273,32.6350,32.2973,31.8678,32.0943,32.2191,32.4090,31.9506,32.2069,32.2237,31.7182,32.0297,32.5421,32.2352,31.8033,32.4218,32.1168,32.3225,31.7954,31.9646,31.9800,32.2297,32.0545,32.1768,32.5564,32.3239,32.1553,32.4961,32.1310,32.5303,32.5227,32.2402,32.5009,32.3362,32.2136,32.0822,32.2210,32.2367,32.2861,32.1885,32.3375,32.0266,32.1835,31.6927,32.1873,32.3478,32.1771,31.9743,31.9523,32.2759,32.1652,32.1415,32.3050,32.1925,32.2370,32.0994,32.2575,32.3093,32.5104,31.8247,32.1258,32.3497,32.4411,32.2070,32.5510,32.1300,32.4263,31.8573,32.0580,31.9903,32.1766,32.0960,31.6095,31.8046,31.9173,32.0353,32.2169,31.8642,31.9598,32.0941,32.0999,32.6774,31.9554,32.2459,32.3014,32.3884,32.0385,32.4878,32.3807,32.1983,31.9897,32.0423,32.4040,32.2238,31.9013,32.2719,32.3575,32.3370,32.0311,32.0869,32.3466,32.1913,32.0871,31.7969,32.1500,32.4203,32.6519,31.8783,32.2240,32.1458,32.0650,31.9549,32.1379,32.4219,32.8178,32.0058,32.3390,32.4875,32.2582,31.7737,32.2539,32.2903,32.3716,31.9485,32.1366,32.3572,32.2936,31.8742,32.2245,32.3257,32.1141,32.1737,32.2504,32.3498,31.6303,31.8976,32.1936,31.9860,31.9906,32.4412,32.2342,32.0600,32.0254,32.0725,32.3122,32.3394,32.1490,32.2770,32.4892,32.2419,32.5228,32.1847,32.2402,32.5092,32.3122,32.4719,31.9661,32.5504,31.9371,32.2438,32.0475,32.3632,32.0270,32.2478,32.4221,32.3806,32.0956,32.1431,32.5436,32.4190,32.6620,32.0889,32.2479,32.3392,32.5945,32.6214,32.3139,32.2729,32.5659,32.1936,32.1857,32.1289,32.5821,31.9447,32.4182,32.2972,32.2445,31.6459,32.6280,32.3647,32.0092,32.1770,32.2665,32.0138,32.3156,31.8905,32.1156,32.3633,32.0257,31.9106,32.0079,32.6070,32.0518,32.0687,32.2726,32.6411,32.0645,32.1131,32.5047,32.3897,32.2060,32.2981,32.2027,32.2268,32.2566,32.5146,32.4347,32.3864,32.2407,32.2172,32.0145,32.4040,32.2757,32.2639,32.6129,32.0611,32.1025,31.9757,32.4643,32.2615,31.9637,31.8151,32.4070,32.4643,32.7113,31.9294,32.5195,32.7981,32.4844,32.1954,32.0568,32.3378,32.5752,31.9203,32.4095,32.5724,32.4558,32.1368,32.4673,32.2298,32.6338,32.1895,32.3736,32.4000,32.3663,32.2468,32.4767,32.3713,32.3529,32.0910,32.3599,32.2463,32.6404,31.7826,32.0872,32.2497,32.3095,32.1364,32.3545,32.7290,32.1440,32.0087,31.9230,32.0869,32.2515,32.2120,32.2939,32.1896,32.1682,32.2737,32.3388,32.6024,32.4385,32.1461,32.5350,32.4491,32.1897,32.5037,32.5087,32.4317,31.9489,32.2227,32.5350,32.1383,32.2163,32.0764,32.6734,32.1229,32.4858,32.8154,32.6193,32.6738,32.4140,32.3199,32.3036,32.7607,32.1890,32.1327,32.1521,32.6458,32.5681,32.0411,32.4415,32.4433,32.6935,32.2246,32.4416,32.3567,32.6208,32.1430,32.4001,32.4949,32.6114,32.1516,32.5837,32.3390,32.1761,31.6784,32.1773,32.1510,31.8498,32.6338,32.3014,32.8087,31.9032,32.4800,32.5485,32.7035,32.5176,32.2643,32.5208,32.4080,32.5784,32.3292,32.1551,32.3674,32.2134,32.1924,32.3087,32.1092,32.4571,32.2501,32.4430,32.1904,32.0487,32.2947,32.2779,32.0878,32.3313,32.5591,32.8049,32.0740,32.6071,32.3229,32.9466,33.2191,32.5137,32.2294,32.7622,33.0583,32.2961,32.2292,32.4158,32.5824,32.6483,32.1427,32.3709,32.6916,32.3641,32.1605,32.0631,32.5857,32.4302,32.2335,32.3304,32.5338,32.3401,32.0875,32.5443,32.4313,33.0505,31.9607,32.7220,32.5284,31.7964,32.5840,32.4420,32.8062,32.1992,32.8329,32.3067,32.6697,32.4905,32.5637,32.3450,32.5295,32.1953,32.6115,32.5811,32.4708,32.3450,32.3323,32.4530,32.3429,32.0945,32.7076,32.5646,32.6513,31.8459,32.4343,32.7998,32.7309,32.2693,32.5025,32.5740,32.6389,32.2901,32.0624,32.5449,32.5866,32.3268,32.1967,32.6092,33.2422,32.9707,32.1942,32.4306,33.2656,32.4833,32.2527,32.5153,32.6273,32.4467,32.1010,32.3364,32.3612,32.1809,32.1752,32.4747,32.5228,32.5086,32.1921,32.7276,32.5941,32.8574,31.8724,32.6824,32.6618,31.6258,32.2324,32.3894,32.5067,32.4851,32.3527,32.6516,32.7927,32.3870,32.6752,32.6114,32.7933,32.2662,32.7224,32.8540,32.6671,32.0479,31.9951,32.3422,32.3772,32.2836,32.5816,32.6366,32.7444,32.0551,32.6298,32.5085,32.8105,32.1400,32.3361,32.6478,32.4717,
22:6:18:5:31:5:741,0.0000,129.0000,33.0000,A,0.0000,0.0000,27.5400,99693,136.7662,0,0.0000,0.0000,0.0000,0.0000,0.0000,0.0000,0,0.0000,0.0000,0.0000,0.0000,0.0000,0.0000,0,0,0,0,0,0,0,0.00,0.00,0.00,0,
22:6:18:5:31:5:838,0.0000,129.0000,33.0000,A,0.0000,0.0000,27.5500,99696,136.5132,0,0.0000,0.0000,0.0000,0.0000,0.0000,0.0000,0,0.0000,0.0000,0.0000,0.0000,0.0000,0.0000,0,0,0,0,0,0,0,0.00,0.00,0.00,0,
22:6:18:5:31:5:943,0.0000,8.0000,33.0000,A,0.0000,0.0000,27.5500,99693,136.7662,0,0.0000,0.0000,0.0000,0.0000,0.0000,0.0000,0,0.0000,0.0000,0.0000,0.0000,0.0000,0.0000,0,0,0,0,0,0,0,0.00,0.00,0.00,0,
22:6:18:5:31:6:39,0.0000,8.0000,33.0000,A,0.0000,0.0000,27.5500,99696,136.5132,0,0.0000,0.0000,0.0000,0.0000,0.0000,0.0000,0,0.0000,0.0000,0.0000,0.0000,0.0000,0.0000,0,0,0,0,0,0,0,0.00,0.00,0.00,0,
22:6:18:5:31:6:144,0.0000,162.0000,33.0000,A,0.0000,0.0000,27.5600,99693,136.7662,0,0.0000,0.0000,0.0000,0.0000,0.0000,0.0000,0,0.0000,0.0000,0.0000,0.0000,0.0000,0.0000,0,0,0,0,0,0,0,0.00,0.00,0.00,0,
22:6:18:5:31:6:237,0.0000,162.0000,33.0000,A,0.0000,0.0000,27.5600,99692,136.8506,0,0.0000,0.0000,0.0000,0.0000,0.0000,0.0000,0,0.0000,0.0000,0.0000,0.0000,0.0000,0.0000,0,0,0,0,0,0,0,0.00,0.00,0.00,0,
22:6:18:5:31:6:346,0.0000,141.0000,33.0000,A,0.0000,0.0000,27.5600,99694,136.6819,0,0.0000,0.0000,0.0000,0.0000,0.0000,0.0000,0,0.0000,0.0000,0.0000,0.0000,0.0000,0.0000,0,0,0,0,0,0,0,0.00,0.00,0.00,0,
22:6:18:5:31:6:439,0.0000,141.0000,33.0000,A,0.0000,0.0000,27.5600,99695,136.5975,0,0.0000,0.0000,0.0000,0.0000,0.0000,0.0000,0,0.0000,0.0000,0.0000,0.0000,0.0000,0.0000,0,0,0,0,0,0,0,0.00,0.00,0.00,0,
22:6:18:5:31:6:548,0.0000,26.0000,33.0000,A,0.0000,0.0000,27.5600,99695,136.5975,0,0.0000,0.0000,0.0000,0.0000,0.0000,0.0000,0,0.0000,0.0000,0.0000,0.0000,0.0000,0.0000,0,0,0,0,0,0,0,0.00,0.00,0.00,0,32.4844,32.5257,32.4624,32.6277,32.8563,32.1800,32.1240,32.9006,32.7600,32.3635,32.3477,32.5582,32.2892,31.7521,31.8705,32.5078,32.4124,32.2945,32.1345,32.3977,32.3308,32.2115,31.8630,32.5731,32.5157,32.0748,31.8861,32.2552,32.4749,31.7068,31.7400,32.5033,32.0399,32.3284,32.5858,32.2082,32.3016,32.4384,32.6316,32.3215,32.0687,32.2118,32.6151,31.9835,32.1420,32.3343,32.3389,32.3197,31.9153,32.1222,32.2369,32.1748,32.3649,32.4194,32.6846,32.3714,32.3593,32.1016,32.6352,32.2586,32.0554,32.4129,32.5631,31.9839,32.0977,31.9623,32.0912,32.4426,32.5219,32.2381,32.3646,32.5511,32.4130,32.5887,32.3501,32.2124,32.4667,32.1267,32.1524,32.3591,32.2895,32.0248,32.1572,32.5759,32.3506,32.2427,31.9438,32.0130,32.3486,32.1421,32.3646,32.3329,32.9102,32.3759,32.7311,32.5567,32.1417,32.4344,32.4295,32.2505,32.3687,32.0885,32.6698,32.1771,32.1138,32.2578,32.4529,32.3674,32.1582,32.3170,32.4119,32.5197,32.3302,32.2108,32.5816,31.7370,32.5587,32.4479,31.8605,32.1879,32.0075,32.3361,32.6476,31.9065,32.3258,32.2098,32.4001,31.8544,32.8029,32.2861,32.1974,32.5352,32.5902,32.1476,32.6108,32.4562,32.4668,32.3083,32.2620,32.3282,32.5266,32.3931,32.2111,32.5855,32.6899,32.2305,32.3864,32.2995,32.5837,31.9763,32.0115,32.1091,32.5841,32.5053,32.0732,32.1733,32.3774,32.3106,32.1831,32.2055,32.2263,32.3320,32.1363,32.1553,32.0984,32.3607,32.8768,32.2786,32.1833,32.1768,32.3612,32.0189,32.1040,32.4486,32.4825,32.1217,32.4146,31.9596,32.1921,32.1654,32.4801,32.5343,32.2813,31.9573,32.2795,32.3736,32.5136,32.5128,32.2321,32.3324,32.2856,31.7706,32.5064,32.3612,32.0898,33.0385,32.1284,32.3697,32.0119,32.1765,32.3913,32.0530,32.2021,32.5257,32.1727,31.9880,31.8396,32.5358,32.5924,32.3480,32.1675,32.4105,32.4809,32.0797,31.8200,32.4109,32.3076,31.9119,32.3088,32.0898,31.8855,32.2054,32.0976,32.1134,32.2004,32.4388,32.4438,32.1270,32.3597,32.2560,32.6794,31.8905,31.9659,32.2844,32.5020,32.2535,32.2420,32.3711,32.5885,32.0919,32.3588,32.5679,32.6029,31.9603,32.2520,31.9855,32.2575,32.2424,31.8824,32.1589,32.4178,31.9205,32.1475,32.4231,32.1880,32.1131,32.8414,32.3142,32.4090,32.3796,32.5511,32.3289,32.3207,32.7859,32.6731,32.2230,32.1537,32.5106,32.2884,32.1019,31.9691,32.3137,32.5369,31.9735,32.3341,32.5034,32.7778,32.3173,31.9228,32.3304,32.4766,32.0466,31.5867,32.0567,32.6037,32.1486,32.2213,32.4341,31.9309,32.4321,32.3720,32.6104,32.3250,32.4360,32.1309,32.1745,32.4388,32.4586,32.6173,32.2442,32.0694,32.3421,32.2662,32.3384,32.1703,32.5106,32.4574,32.2382,32.2311,32.5598,32.5152,32.1912,32.2285,32.0961,32.0624,32.2504,32.4791,32.3840,32.3510,32.0394,32.3942,32.2913,32.2020,32.7221,32.1921,31.9890,32.1322,32.6191,32.4960,32.1563,32.4760,32.5191,32.5565,32.5716,32.1214,32.3238,32.3766,32.2963,31.9875,32.3643,32.4564,32.3778,32.4066,32.3047,32.6024,32.1971,32.2409,32.1738,32.7198,31.9307,32.4008,32.2088,31.9314,32.2430,32.5966,31.8782,32.1424,32.1083,32.1140,32.3652,32.2846,32.7240,32.3157,32.0925,32.3569,32.1997,32.5449,32.0598,32.3028,32.2077,32.1144,32.0846,32.0694,32.4415,32.6887,32.1914,32.2072,32.1008,32.5274,32.2051,32.2769,32.1665,32.1636,32.0454,32.4698,32.4732,32.0556,32.5198,32.2519,31.9696,32.3175,32.5983,32.5202,32.1778,32.0411,32.5021,32.5741,32.2404,32.7190,32.6088,32.6850,32.1123,32.1516,32.6778,32.3087,32.0424,32.2395,32.5001,32.4518,32.5100,32.0951,32.7047,32.3419,32.2628,32.0171,32.3850,32.3970,32.8375,32.2477,31.7150,32.2113,32.4160,32.4899,32.1920,32.0067,32.1348,32.6585,32.1009,32.0861,32.4983,32.4039,32.0687,32.1785,32.3384,32.2847,32.1056,32.2574,32.2580,32.3763,32.2176,32.0417,32.2616,32.4360,32.0538,32.4582,32.3311,32.7463,32.4318,32.6762,32.4827,32.2623,32.7117,32.6092,31.9750,32.4919,32.4498,32.4226,32.3648,32.0458,32.4444,32.2971,32.2610,32.1333,32.4632,32.4098,32.4094,32.1834,32.6840,32.3318,32.0397,32.2814,32.1880,32.3305,32.0695,32.6424,32.3771,32.3902,32.6305,32.2148,32.4251,32.6562,32.0821,32.6486,32.6549,32.4170,32.7859,32.6815,32.4038,32.0618,32.4682,32.6798,32.2410,32.1208,32.2281,32.5985,32.7027,32.4057,32.5295,32.3345,32.1142,31.9832,32.2779,32.4674,32.2350,32.1171,32.1540,32.6479,32.2752,31.9778,32.0046,32.6120,32.0875,32.7257,32.3344,32.5339,32.6293,32.8432,32.2098,32.2379,32.8397,32.4316,32.5705,32.4243,32.9007,32.7732,32.4559,32.1783,32.5530,32.4957,32.0497,32.0774,32.5681,32.3813,32.4170,32.1689,32.5468,32.5298,32.2718,32.3744,32.6072,32.4769,32.1598,32.1012,32.4585,31.9223,32.3439,32.5518,32.5596,32.3308,32.5277,32.4349,32.4242,32.4247,32.7026,32.3078,32.2036,32.1829,32.4405,32.6544,32.4632,32.1453,32.6216,32.5491,32.1559,32.5127,32.5177,32.5227,32.1229,31.9633,32.4016,32.3755,31.9779,32.4094,32.0895,32.4925,32.3316,32.7062,32.8296,32.4433,32.8719,32.4283,32.1585,32.4877,32.7749,32.5268,32.4687,32.1668,32.6601,32.2712,32.3615,32.1393,32.7700,32.3982,32.2392,32.4563,32.5313,32.7947,32.3157,32.2491,32.6752,32.6262,32.3345,32.2471,32.5323,32.5589,31.8811,32.3921,32.5734,31.8628,32.6468,32.8870,32.6379,32.2696,32.3180,32.8996,32.2140,32.5318,32.7544,32.6940,32.2616,32.2792,32.4967,32.6429,32.5377,32.3827,32.6667,32.6376,32.6048,32.1528,32.2638,32.4567,32.2040,32.3970,32.4765,32.6429,32.2820,32.7149,32.3839,32.6181,32.0863,32.4117,32.9470,32.3755,33.4254,32.7057,32.2437,32.7766,33.0724,32.6426,32.5758,32.1010,33.0899,32.5054,32.3160,32.0619,32.7057,32.3788,32.0152,32.2414,32.9249,32.6091,32.2478,32.1753,32.3790,32.6955,32.6305,32.1914,32.6296,32.6862,32.3649,32.3169,32.5409,32.4459,32.5965,32.8472,32.2349,32.3917,33.0269,32.6697,32.6832,32.6709,32.9085,32.6876,32.5431,32.3681,32.6252,32.2710,32.4845,32.1969,32.5056,32.4666,32.3565,32.6033,32.3940,32.7473,33.0055,32.5454,32.4476,32.8130,32.3715,32.4741,32.1248,33.0066,32.2207,32.7413,32.7251,32.5583,33.6052,32.7254,32.5914,32.8083,33.0755,32.9850,32.9034,32.4447,32.9345,32.4977,32.4329,32.5297,32.8059,32.6281,32.4465,31.8446,32.8807,32.5347,32.3598,32.4888,32.7153,32.8805,32.3890,32.3593,32.9938,33.0693,32.4981,32.4770,32.8968,32.0829,32.8956,33.0281,32.5190,32.6910,32.5559,33.0352,32.6242,32.4002,32.6882,32.9725,32.8062,32.6181,33.2335,32.5294,32.3489,32.5634,32.3390,32.8610,32.2208,32.2973,32.2538,32.6494,32.3990,32.4309,32.8256,32.9060,32.4325,32.5544,32.3478,33.0973,32.7079,
22:6:18:5:31:6:705,0.0000,26.0000,33.0000,A,0.0000,0.0000,27.5500,99691,136.9349,0,0.0000,0.0000,0.0000,0.0000,0.0000,0.0000,0,0.0000,0.0000,0.0000,0.0000,0.0000,0.0000,0,0,0,0,0,0,0,0.00,0.00,0.00,0,
22:6:18:5:31:6:810,0.0000,84.0000,33.0000,A,0.0000,0.0000,27.5500,99692,136.8506,0,0.0000,0.0000,0.0000,0.0000,0.0000,0.0000,0,0.0000,0.0000,0.0000,0.0000,0.0000,0.0000,0,0,0,0,0,0,0,0.00,0.00,0.00,0,
22:6:18:5:31:6:907,0.0000,84.0000,33.0000,A,0.0000,0.0000,27.5600,99692,136.8506,0,0.0000,0.0000,0.0000,0.0000,0.0000,0.0000,0,0.0000,0.0000,0.0000,0.0000,0.0000,0.0000,0,0,0,0,0,0,0,0.00,0.00,0.00,0,
22:6:18:5:31:7:12,0.0000,126.0000,33.0000,A,0.0000,0.0000,27.5600,99693,136.7662,0,0.0000,0.0000,0.0000,0.0000,0.0000,0.0000,0,0.0000,0.0000,0.0000,0.0000,0.0000,0.0000,0,0,0,0,0,0,0,0.00,0.00,0.00,0,
22:6:18:5:31:7:109,0.0000,126.0000,33.0000,A,0.0000,0.0000,27.5600,99695,136.5975,0,0.0000,0.0000,0.0000,0.0000,0.0000,0.0000,0,0.0000,0.0000,0.0000,0.0000,0.0000,0.0000,0,0,0,0,0,0,0,0.00,0.00,0.00,0,
22:6:18:5:31:7:215,0.1000,119.0000,33.0000,A,0.0000,0.0000,27.5700,99695,136.5975,0,0.0000,0.0000,0.0000,0.0000,0.0000,0.0000,0,0.0000,0.0000,0.0000,0.0000,0.0000,0.0000,0,0,0,0,0,0,0,0.00,0.00,0.00,0,
22:6:18:5:31:7:308,0.1000,119.0000,33.0000,A,0.0000,0.0000,27.5700,99695,136.5975,0,0.0000,0.0000,0.0000,0.0000,0.0000,0.0000,0,0.0000,0.0000,0.0000,0.0000,0.0000,0.0000,0,0,0,0,0,0,0,0.00,0.00,0.00,0,
22:6:18:5:31:7:417,0.1000,97.0000,32.9000,A,0.0000,0.0000,27.5700,99696,136.5132,0,0.0000,0.0000,0.0000,0.0000,0.0000,0.0000,0,0.0000,0.0000,0.0000,0.0000,0.0000,0.0000,0,0,0,0,0,0,0,0.00,0.00,0.00,0,
22:6:18:5:31:7:510,0.1000,97.0000,32.9000,A,0.0000,0.0000,27.5700,99694,136.6819,0,0.0000,0.0000,0.0000,0.0000,0.0000,0.0000,0,0.0000,0.0000,0.0000,0.0000,0.0000,0.0000,0,0,0,0,0,0,0,0.00,0.00,0.00,0,
