Timestamp,Wind speed,Wind angle,Acoustic temperature windsensor,Temperature validity,Temperature_aht10,Relative humidity_aht10,Temperature_ms5611,Pressure_ms5611,Absolute_altitude_ms5611,timestamp_pix_attitude,Roll,Pitch,Yaw,Roll speed,Pitch speed,Yaw speed,timestamp_pix_loc_pos,x,y,z,vx,vy,vz,timestamp_pix_gps,pix_lat,pix_lon,pix_alt,pix_gps_vx,pix_gps_vy,pix_gps_vz,latitude,longitude,altitude_gps,relative_altitude_gps,Pixel_0,Pixel_1,Pixel_2,Pixel_3,Pixel_4,Pixel_5,Pixel_6,Pixel_7,Pixel_8,Pixel_9,Pixel_10,Pixel_11,Pixel_12,Pixel_13,Pixel_14,Pixel_15,Pixel_16,Pixel_17,Pixel_18,Pixel_19,Pixel_20,Pixel_21,Pixel_22,Pixel_23,Pixel_24,Pixel_25,Pixel_26,Pixel_27,Pixel_28,Pixel_29,Pixel_30,Pixel_31,Pixel_32,Pixel_33,Pixel_34,Pixel_35,Pixel_36,Pixel_37,Pixel_38,Pixel_39,Pixel_40,Pixel_41,Pixel_42,Pixel_43,Pixel_44,Pixel_45,Pixel_46,Pixel_47,Pixel_48,Pixel_49,Pixel_50,Pixel_51,Pixel_52,Pixel_53,Pixel_54,Pixel_55,Pixel_56,Pixel_57,Pixel_58,Pixel_59,Pixel_60,Pixel_61,Pixel_62,Pixel_63,Pixel_64,Pixel_65,Pixel_66,Pixel_67,Pixel_68,Pixel_69,Pixel_70,Pixel_71,Pixel_72,Pixel_73,Pixel_74,Pixel_75,Pixel_76,Pixel_77,Pixel_78,Pixel_79,Pixel_80,Pixel_81,Pixel_82,Pixel_83,Pixel_84,Pixel_85,Pixel_86,Pixel_87,Pixel_88,Pixel_89,Pixel_90,Pixel_91,Pixel_92,Pixel_93,Pixel_94,Pixel_95,Pixel_96,Pixel_97,Pixel_98,Pixel_99,Pixel_100,Pixel_101,Pixel_102,Pixel_103,Pixel_104,Pixel_105,Pixel_106,Pixel_107,Pixel_108,Pixel_109,Pixel_110,Pixel_111,Pixel_112,Pixel_113,Pixel_114,Pixel_115,Pixel_116,Pixel_117,Pixel_118,Pixel_119,Pixel_120,Pixel_121,Pixel_122,Pixel_123,Pixel_124,Pixel_125,Pixel_126,Pixel_127,Pixel_128,Pixel_129,Pixel_130,Pixel_131,Pixel_132,Pixel_133,Pixel_134,Pixel_135,Pixel_136,Pixel_137,Pixel_138,Pixel_139,Pixel_140,Pixel_141,Pixel_142,Pixel_143,Pixel_144,Pixel_145,Pixel_146,Pixel_147,Pixel_148,Pixel_149,Pixel_150,Pixel_151,Pixel_152,Pixel_153,Pixel_154,Pixel_155,Pixel_156,Pixel_157,Pixel_158,Pixel_159,Pixel_160,Pixel_161,Pixel_162,Pixel_163,Pixel_164,Pixel_165,Pixel_166,Pixel_167,Pixel_168,Pixel_169,Pixel_170,Pixel_171,Pixel_172,Pixel_173,Pixel_174,Pixel_175,Pixel_176,Pixel_177,Pixel_178,Pixel_179,Pixel_180,Pixel_181,Pixel_182,Pixel_183,Pixel_184,Pixel_185,Pixel_186,Pixel_187,Pixel_188,Pixel_189,Pixel_190,Pixel_191,Pixel_192,Pixel_193,Pixel_194,Pixel_195,Pixel_196,Pixel_197,Pixel_198,Pixel_199,Pixel_200,Pixel_201,Pixel_202,Pixel_203,Pixel_204,Pixel_205,Pixel_206,Pixel_207,Pixel_208,Pixel_209,Pixel_210,Pixel_211,Pixel_212,Pixel_213,Pixel_214,Pixel_215,Pixel_216,Pixel_217,Pixel_218,Pixel_219,Pixel_220,Pixel_221,Pixel_222,Pixel_223,Pixel_224,Pixel_225,Pixel_226,Pixel_227,Pixel_228,Pixel_229,Pixel_230,Pixel_231,Pixel_232,Pixel_233,Pixel_234,Pixel_235,Pixel_236,Pixel_237,Pixel_238,Pixel_239,Pixel_240,Pixel_241,Pixel_242,Pixel_243,Pixel_244,Pixel_245,Pixel_246,Pixel_247,Pixel_248,Pixel_249,Pixel_250,Pixel_251,Pixel_252,Pixel_253,Pixel_254,Pixel_255,Pixel_256,Pixel_257,Pixel_258,Pixel_259,Pixel_260,Pixel_261,Pixel_262,Pixel_263,Pixel_264,Pixel_265,Pixel_266,Pixel_267,Pixel_268,Pixel_269,Pixel_270,Pixel_271,Pixel_272,Pixel_273,Pixel_274,Pixel_275,Pixel_276,Pixel_277,Pixel_278,Pixel_279,Pixel_280,Pixel_281,Pixel_282,Pixel_283,Pixel_284,Pixel_285,Pixel_286,Pixel_287,Pixel_288,Pixel_289,Pixel_290,Pixel_291,Pixel_292,Pixel_293,Pixel_294,Pixel_295,Pixel_296,Pixel_297,Pixel_298,Pixel_299,Pixel_300,Pixel_301,Pixel_302,Pixel_303,Pixel_304,Pixel_305,Pixel_306,Pixel_307,Pixel_308,Pixel_309,Pixel_310,Pixel_311,Pixel_312,Pixel_313,Pixel_314,Pixel_315,Pixel_316,Pixel_317,Pixel_318,Pixel_319,Pixel_320,Pixel_321,Pixel_322,Pixel_323,Pixel_324,Pixel_325,Pixel_326,Pixel_327,Pixel_328,Pixel_329,Pixel_330,Pixel_331,Pixel_332,Pixel_333,Pixel_334,Pixel_335,Pixel_336,Pixel_337,Pixel_338,Pixel_339,Pixel_340,Pixel_341,Pixel_342,Pixel_343,Pixel_344,Pixel_345,Pixel_346,Pixel_347,Pixel_348,Pixel_349,Pixel_350,Pixel_351,Pixel_352,Pixel_353,Pixel_354,Pixel_355,Pixel_356,Pixel_357,Pixel_358,Pixel_359,Pixel_360,Pixel_361,Pixel_362,Pixel_363,Pixel_364,Pixel_365,Pixel_366,Pixel_367,Pixel_368,Pixel_369,Pixel_370,Pixel_371,Pixel_372,Pixel_373,Pixel_374,Pixel_375,Pixel_376,Pixel_377,Pixel_378,Pixel_379,Pixel_380,Pixel_381,Pixel_382,Pixel_383,Pixel_384,Pixel_385,Pixel_386,Pixel_387,Pixel_388,Pixel_389,Pixel_390,Pixel_391,Pixel_392,Pixel_393,Pixel_394,Pixel_395,Pixel_396,Pixel_397,Pixel_398,Pixel_399,Pixel_400,Pixel_401,Pixel_402,Pixel_403,Pixel_404,Pixel_405,Pixel_406,Pixel_407,Pixel_408,Pixel_409,Pixel_410,Pixel_411,Pixel_412,Pixel_413,Pixel_414,Pixel_415,Pixel_416,Pixel_417,Pixel_418,Pixel_419,Pixel_420,Pixel_421,Pixel_422,Pixel_423,Pixel_424,Pixel_425,Pixel_426,Pixel_427,Pixel_428,Pixel_429,Pixel_430,Pixel_431,Pixel_432,Pixel_433,Pixel_434,Pixel_435,Pixel_436,Pixel_437,Pixel_438,Pixel_439,Pixel_440,Pixel_441,Pixel_442,Pixel_443,Pixel_444,Pixel_445,Pixel_446,Pixel_447,Pixel_448,Pixel_449,Pixel_450,Pixel_451,Pixel_452,Pixel_453,Pixel_454,Pixel_455,Pixel_456,Pixel_457,Pixel_458,Pixel_459,Pixel_460,Pixel_461,Pixel_462,Pixel_463,Pixel_464,Pixel_465,Pixel_466,Pixel_467,Pixel_468,Pixel_469,Pixel_470,Pixel_471,Pixel_472,Pixel_473,Pixel_474,Pixel_475,Pixel_476,Pixel_477,Pixel_478,Pixel_479,Pixel_480,Pixel_481,Pixel_482,Pixel_483,Pixel_484,Pixel_485,Pixel_486,Pixel_487,Pixel_488,Pixel_489,Pixel_490,Pixel_491,Pixel_492,Pixel_493,Pixel_494,Pixel_495,Pixel_496,Pixel_497,Pixel_498,Pixel_499,Pixel_500,Pixel_501,Pixel_502,Pixel_503,Pixel_504,Pixel_505,Pixel_506,Pixel_507,Pixel_508,Pixel_509,Pixel_510,Pixel_511,Pixel_512,Pixel_513,Pixel_514,Pixel_515,Pixel_516,Pixel_517,Pixel_518,Pixel_519,Pixel_520,Pixel_521,Pixel_522,Pixel_523,Pixel_524,Pixel_525,Pixel_526,Pixel_527,Pixel_528,Pixel_529,Pixel_530,Pixel_531,Pixel_532,Pixel_533,Pixel_534,Pixel_535,Pixel_536,Pixel_537,Pixel_538,Pixel_539,Pixel_540,Pixel_541,Pixel_542,Pixel_543,Pixel_544,Pixel_545,Pixel_546,Pixel_547,Pixel_548,Pixel_549,Pixel_550,Pixel_551,Pixel_552,Pixel_553,Pixel_554,Pixel_555,Pixel_556,Pixel_557,Pixel_558,Pixel_559,Pixel_560,Pixel_561,Pixel_562,Pixel_563,Pixel_564,Pixel_565,Pixel_566,Pixel_567,Pixel_568,Pixel_569,Pixel_570,Pixel_571,Pixel_572,Pixel_573,Pixel_574,Pixel_575,Pixel_576,Pixel_577,Pixel_578,Pixel_579,Pixel_580,Pixel_581,Pixel_582,Pixel_583,Pixel_584,Pixel_585,Pixel_586,Pixel_587,Pixel_588,Pixel_589,Pixel_590,Pixel_591,Pixel_592,Pixel_593,Pixel_594,Pixel_595,Pixel_596,Pixel_597,Pixel_598,Pixel_599,Pixel_600,Pixel_601,Pixel_602,Pixel_603,Pixel_604,Pixel_605,Pixel_606,Pixel_607,Pixel_608,Pixel_609,Pixel_610,Pixel_611,Pixel_612,Pixel_613,Pixel_614,Pixel_615,Pixel_616,Pixel_617,Pixel_618,Pixel_619,Pixel_620,Pixel_621,Pixel_622,Pixel_623,Pixel_624,Pixel_625,Pixel_626,Pixel_627,Pixel_628,Pixel_629,Pixel_630,Pixel_631,Pixel_632,Pixel_633,Pixel_634,Pixel_635,Pixel_636,Pixel_637,Pixel_638,Pixel_639,Pixel_640,Pixel_641,Pixel_642,Pixel_643,Pixel_644,Pixel_645,Pixel_646,Pixel_647,Pixel_648,Pixel_649,Pixel_650,Pixel_651,Pixel_652,Pixel_653,Pixel_654,Pixel_655,Pixel_656,Pixel_657,Pixel_658,Pixel_659,Pixel_660,Pixel_661,Pixel_662,Pixel_663,Pixel_664,Pixel_665,Pixel_666,Pixel_667,Pixel_668,Pixel_669,Pixel_670,Pixel_671,Pixel_672,Pixel_673,Pixel_674,Pixel_675,Pixel_676,Pixel_677,Pixel_678,Pixel_679,Pixel_680,Pixel_681,Pixel_682,Pixel_683,Pixel_684,Pixel_685,Pixel_686,Pixel_687,Pixel_688,Pixel_689,Pixel_690,Pixel_691,Pixel_692,Pixel_693,Pixel_694,Pixel_695,Pixel_696,Pixel_697,Pixel_698,Pixel_699,Pixel_700,Pixel_701,Pixel_702,Pixel_703,Pixel_704,Pixel_705,Pixel_706,Pixel_707,Pixel_708,Pixel_709,Pixel_710,Pixel_711,Pixel_712,Pixel_713,Pixel_714,Pixel_715,Pixel_716,Pixel_717,Pixel_718,Pixel_719,Pixel_720,Pixel_721,Pixel_722,Pixel_723,Pixel_724,Pixel_725,Pixel_726,Pixel_727,Pixel_728,Pixel_729,Pixel_730,Pixel_731,Pixel_732,Pixel_733,Pixel_734,Pixel_735,Pixel_736,Pixel_737,Pixel_738,Pixel_739,Pixel_740,Pixel_741,Pixel_742,Pixel_743,Pixel_744,Pixel_745,Pixel_746,Pixel_747,Pixel_748,Pixel_749,Pixel_750,Pixel_751,Pixel_752,Pixel_753,Pixel_754,Pixel_755,Pixel_756,Pixel_757,Pixel_758,Pixel_759,Pixel_760,Pixel_761,Pixel_762,Pixel_763,Pixel_764,Pixel_765,Pixel_766,Pixel_767,
22:6:18:5:32:18:551,0.0000,0.0000,0.0000,,27.4994,97.3856,27.6200,99689,137.1037,0,0.0000,0.0000,0.0000,0.0000,0.0000,0.0000,0,0.0000,0.0000,0.0000,0.0000,0.0000,0.0000,0,0,0,0,0,0,0,0.00,0.00,0.00,0,
22:6:18:5:32:18:655,0.0000,0.0000,0.0000,,27.5496,97.3811,27.6400,99697,136.4288,0,0.0000,0.0000,0.0000,0.0000,0.0000,0.0000,0,0.0000,0.0000,0.0000,0.0000,0.0000,0.0000,0,0,0,0,0,0,0,0.00,0.00,0.00,0,
22:6:18:5:32:18:774,0.0000,0.0000,0.0000,,27.5774,97.3988,27.6500,99695,136.5975,0,0.0000,0.0000,0.0000,0.0000,0.0000,0.0000,0,0.0000,0.0000,0.0000,0.0000,0.0000,0.0000,0,0,0,0,0,0,0,0.00,0.00,0.00,0,
22:6:18:5:32:18:877,0.0000,0.0000,0.0000,,27.6072,97.4226,27.6600,99691,136.9349,0,0.0000,0.0000,0.0000,0.0000,0.0000,0.0000,0,0.0000,0.0000,0.0000,0.0000,0.0000,0.0000,0,0,0,0,0,0,0,0.00,0.00,0.00,0,
22:6:18:5:32:18:993,0.0000,0.0000,0.0000,,27.6197,97.4024,27.6600,99693,136.7662,0,0.0000,0.0000,0.0000,0.0000,0.0000,0.0000,0,0.0000,0.0000,0.0000,0.0000,0.0000,0.0000,0,0,0,0,0,0,0,0.00,0.00,0.00,0,
22:6:18:5:32:19:100,0.0000,0.0000,0.0000,,27.6386,97.4168,27.6600,99692,136.8506,0,0.0000,0.0000,0.0000,0.0000,0.0000,0.0000,0,0.0000,0.0000,0.0000,0.0000,0.0000,0.0000,0,0,0,0,0,0,0,0.00,0.00,0.00,0,
22:6:18:5:32:19:216,0.0000,0.0000,0.0000,,27.6455,97.4161,27.6600,99692,136.8506,0,0.0000,0.0000,0.0000,0.0000,0.0000,0.0000,0,0.0000,0.0000,0.0000,0.0000,0.0000,0.0000,0,0,0,0,0,0,0,0.00,0.00,0.00,0,
22:6:18:5:32:19:323,0.0000,0.0000,0.0000,,27.6627,97.4095,27.6700,99693,136.7662,0,0.0000,0.0000,0.0000,0.0000,0.0000,0.0000,0,0.0000,0.0000,0.0000,0.0000,0.0000,0.0000,0,0,0,0,0,0,0,0.00,0.00,0.00,0,
22:6:18:5:32:19:439,0.0000,358.0000,36.4000,A,27.6640,97.4216,27.6700,99696,136.5132,0,0.0000,0.0000,0.0000,0.0000,0.0000,0.0000,0,0.0000,0.0000,0.0000,0.0000,0.0000,0.0000,0,0,0,0,0,0,0,0.00,0.00,0.00,0,
22:6:18:5:32:19:543,0.0000,358.0000,36.4000,A,27.6756,97.4155,27.6700,99693,136.7662,0,0.0000,0.0000,0.0000,0.0000,0.0000,0.0000,0,0.0000,0.0000,0.0000,0.0000,0.0000,0.0000,0,0,0,0,0,0,0,0.00,0.00,0.00,0,
22:6:18:5:32:19:663,0.4000,205.0000,35.8000,A,27.6745,97.3858,27.6600,99695,136.5975,0,0.0000,0.0000,0.0000,0.0000,0.0000,0.0000,0,0.0000,0.0000,0.0000,0.0000,0.0000,0.0000,0,0,0,0,0,0,0,0.00,0.00,0.00,0,529.9153,31.0856,535.9718,31.0603,538.0254,31.3940,540.5832,31.7824,541.9358,31.5107,542.3478,31.7316,541.6309,30.9508,544.5743,31.5361,542.4528,31.3314,542.2114,31.5792,541.3564,31.3904,540.2429,31.6823,538.0283,31.5234,536.4294,30.7792,531.1641,31.4933,528.2909,31.2746,30.8177,536.2004,31.4880,538.6316,31.5513,540.1520,31.7252,541.7919,31.6004,542.4034,31.6202,543.2381,31.5413,541.4950,31.5765,541.9859,31.5016,542.6100,31.4417,542.1059,31.3882,539.1748,31.4801,537.9734,31.4814,535.7405,31.6504,533.2166,31.2183,529.5140,31.6197,523.3651,531.7399,31.9738,537.8784,31.4436,538.2529,31.7245,543.4633,31.5342,543.1395,31.6427,544.9830,31.2969,542.9776,31.7386,543.0856,31.2993,543.9520,31.3053,543.5299,31.4999,542.2357,31.3271,540.3310,31.4052,539.8704,31.2860,536.4154,31.3983,533.6644,31.6146,531.0111,31.6669,31.2447,537.3101,31.4210,540.2395,31.4827,542.0628,31.6460,543.0750,31.3524,543.7037,31.5435,544.3931,31.6266,544.5115,31.5404,542.8300,31.7888,542.3200,31.8653,542.2203,31.3423,540.6239,31.4398,539.7543,31.5648,537.5917,31.1781,535.4035,31.1644,532.1205,31.5412,526.1820,534.8622,31.2816,538.8329,31.2138,540.6282,31.1311,542.8915,31.4861,544.1393,31.5827,544.6039,31.6066,544.4352,31.5477,545.0466,31.2567,543.8938,31.5604,544.7595,31.2814,543.4551,31.2732,541.5405,31.1854,540.1006,31.5578,537.7283,31.5256,535.0009,31.3846,532.5261,31.5978,31.1933,536.7385,31.5773,541.0737,31.4455,542.6391,31.5919,543.8362,31.4639,544.4444,31.5054,543.5754,31.1235,543.3957,31.6630,543.7604,31.5886,543.2416,31.3500,542.7354,31.4691,541.4443,31.2338,540.7294,31.5367,538.7050,31.3211,536.6615,31.3611,533.4795,31.2680,527.7635,535.0238,31.2062,539.9979,31.5769,540.5325,31.2621,543.8769,31.4364,543.5029,31.2096,545.0758,31.3900,544.0823,31.5020,545.5261,31.7134,545.3566,31.5352,544.9446,31.4280,543.6278,31.4135,541.9255,31.0250,540.8680,30.9995,538.8586,31.4721,537.1191,31.9117,532.2749,31.3347,31.4289,538.9646,31.1898,540.0596,31.2264,543.0397,31.4274,542.8102,31.6170,543.1160,31.3579,543.9802,31.2880,543.7879,31.3252,543.9966,31.4160,543.1965,31.1796,543.0060,31.4552,542.0959,31.2249,541.0367,31.3559,539.0175,31.6544,537.7366,31.5015,534.5289,31.4457,529.1354,535.3516,31.5854,540.2925,31.3544,540.8115,31.0755,542.5522,31.5888,543.4774,31.3760,545.3793,31.3839,544.4283,31.1785,545.6762,31.3813,545.1779,31.0388,544.0070,31.2453,542.5397,31.2294,542.2359,31.5005,540.7507,31.5130,539.4152,31.4501,535.5472,31.3143,534.8400,31.7057,31.5903,537.2313,31.5287,539.9611,31.2539,541.4279,31.0853,542.8154,31.4719,543.1490,31.3481,543.7764,31.4467,543.5710,31.6443,543.8436,31.5676,543.1906,31.3404,542.9227,31.6054,541.9048,31.5403,540.8931,31.5359,539.5112,31.4753,537.7224,31.6800,534.9572,31.4366,530.1686,535.0656,31.3778,540.4395,31.5474,541.5908,31.2410,542.3469,31.4166,544.1699,31.3512,544.6863,31.5611,545.0376,31.4910,543.6556,31.5361,544.0447,31.2212,543.6298,31.5796,542.6540,31.4205,542.1552,31.4666,540.7173,31.5109,538.9141,31.4373,537.0041,31.3098,534.3810,31.2959,31.4082,536.8903,31.5801,539.8801,31.0787,541.1570,31.2516,542.2684,31.3180,542.5386,31.0498,543.2321,31.4385,543.3094,31.4902,543.5157,31.1078,542.9075,31.3425,542.8358,31.2925,541.7261,31.7072,541.0339,31.2056,538.9938,31.3029,537.3580,31.6775,534.8965,31.2735,529.5617,532.1526,31.5678,537.5402,31.3440,540.2196,30.9125,541.4338,31.5827,542.6028,31.2073,542.8182,31.3907,543.2302,31.4826,543.2758,31.5309,544.0949,31.3696,542.8204,31.4376,542.7155,31.1090,541.5202,31.6665,540.1653,31.3488,538.6406,31.2740,536.8012,31.4886,532.3929,31.2955,31.4786,535.5396,31.6054,538.8910,31.1170,540.4062,31.1300,541.7080,31.3579,541.8461,31.2371,542.8467,31.6322,542.6346,31.0517,542.7105,31.8850,542.3140,31.2078,541.8847,31.6389,541.1777,31.2475,539.9869,31.6917,538.4485,31.5311,537.0659,31.5167,534.2444,31.8745,529.2896,532.3671,31.2233,536.0897,31.5422,538.2764,31.9279,540.2074,31.4299,540.3298,31.5618,541.7177,31.3821,541.9857,31.1977,542.4916,31.5428,543.4782,31.3592,541.8577,31.6047,542.1035,31.4261,540.6951,31.6793,539.0428,31.3690,537.4630,31.4633,535.2687,31.1398,533.3839,31.5148,31.3378,534.2595,31.4643,537.2952,31.6868,538.8839,31.4968,540.1716,31.4014,540.8463,31.2702,541.7414,31.5185,541.8015,31.5456,541.4786,31.3523,541.1798,31.7125,541.0289,31.3574,540.0745,31.3147,539.2160,31.7594,537.5995,31.3972,534.4381,31.5567,533.5734,31.5309,528.0523,530.1826,31.6123,532.5714,31.6103,537.1350,31.4726,538.3146,31.8241,540.4215,31.7499,541.6279,31.7756,541.6572,31.6849,542.0150,31.6103,541.1037,31.1057,540.6144,31.4763,539.5934,31.4642,539.0507,31.5414,537.1757,30.8868,535.5155,31.4945,532.1098,31.7092,530.7988,31.9369,31.3791,532.8209,31.3414,535.6276,31.5758,537.5242,31.5564,538.8395,31.2855,539.2990,31.4796,539.6987,31.1029,540.4365,31.7437,540.0704,31.5165,539.9587,31.4473,539.9534,31.2660,538.6667,31.8438,537.9265,31.4439,534.1491,31.7888,534.1571,31.7901,531.7233,31.9767,526.3014,525.0087,31.7041,531.3163,32.0319,533.7584,31.5548,536.2728,31.7169,537.7426,31.3090,538.5959,31.5050,539.1587,31.5882,539.2247,31.6537,540.0780,31.6090,538.8204,32.0190,538.8751,31.6594,537.4125,31.6298,535.2809,31.6062,534.0962,31.3637,531.8225,31.3943,528.5468,31.5966,31.2806,529.5081,31.4260,532.9351,31.4926,534.9890,31.8316,536.6370,31.3737,537.2302,31.5431,538.3566,31.6330,538.5566,31.6691,538.4987,31.7511,537.9886,31.8253,537.7646,31.6511,537.1037,31.7533,536.2821,31.5132,532.3779,31.8668,530.5647,31.8762,529.4318,32.0759,521.4716,520.1070,31.3611,527.5231,31.7478,530.5472,31.9743,533.4974,31.6182,535.0222,31.3620,536.2904,31.7252,536.6205,31.4953,536.8342,31.7078,536.4305,31.5091,536.8349,31.7452,534.8630,31.3916,534.8885,31.8199,534.8742,31.4960,531.4478,31.9741,528.5469,31.4548,525.5793,31.5005,31.2107,526.1278,31.5301,529.6334,31.9565,529.8301,31.8972,533.9418,31.4561,534.7849,31.8242,535.7344,31.5515,535.9284,31.7503,536.2622,31.6765,534.2047,31.6192,535.5278,31.5754,534.5232,31.8456,533.4163,31.6337,529.6611,31.7923,529.4612,31.5922,526.2386,32.2055,517.6779,518.9645,32.1019,523.5752,31.8410,527.9287,31.9039,529.5127,32.0768,532.1091,31.7912,532.5146,31.9994,534.6158,31.5565,533.9681,31.6052,535.8943,31.7401,534.0466,31.8134,533.1138,31.4475,532.0706,31.3716,531.1798,31.7459,526.7316,31.7048,524.2624,31.7341,522.2518,32.2484,31.6667,517.7789,32.0292,519.9797,31.8002,522.6381,31.4448,524.6492,31.4534,526.3814,31.5080,529.3893,31.8921,528.3369,31.9722,530.8259,31.5141,530.8520,31.7990,530.3331,31.7401,529.2429,31.5055,525.6324,31.8044,525.3574,32.4049,522.3319,31.6117,519.7047,32.4675,509.0710,
22:6:18:5:32:19:833,0.4000,205.0000,35.8000,A,27.6566,97.4039,27.6600,99695,136.5975,0,0.0000,0.0000,0.0000,0.0000,0.0000,0.0000,0,0.0000,0.0000,0.0000,0.0000,0.0000,0.0000,0,0,0,0,0,0,0,0.00,0.00,0.00,0,
22:6:18:5:32:19:950,0.3000,200.0000,35.3000,A,27.6703,97.3854,27.6600,99694,136.6819,0,0.0000,0.0000,0.0000,0.0000,0.0000,0.0000,0,0.0000,0.0000,0.0000,0.0000,0.0000,0.0000,0,0,0,0,0,0,0,0.00,0.00,0.00,0,
22:6:18:5:32:20:58,0.3000,200.0000,35.3000,A,27.6821,97.3851,27.6600,99694,136.6819,0,0.0000,0.0000,0.0000,0.0000,0.0000,0.0000,0,0.0000,0.0000,0.0000,0.0000,0.0000,0.0000,0,0,0,0,0,0,0,0.00,0.00,0.00,0,
22:6:18:5:32:20:174,0.3000,185.0000,34.6000,A,27.6842,97.3967,27.6700,99694,136.6819,0,0.0000,0.0000,0.0000,0.0000,0.0000,0.0000,0,0.0000,0.0000,0.0000,0.0000,0.0000,0.0000,0,0,0,0,0,0,0,0.00,0.00,0.00,0,
22:6:18:5:32:20:282,0.3000,185.0000,34.6000,A,27.6934,97.3897,27.6700,99692,136.8506,0,0.0000,0.0000,0.0000,0.0000,0.0000,0.0000,0,0.0000,0.0000,0.0000,0.0000,0.0000,0.0000,0,0,0,0,0,0,0,0.00,0.00,0.00,0,
22:6:18:5:32:20:399,0.2000,185.0000,33.9000,A,27.6947,97.3957,27.6700,99697,136.4288,0,0.0000,0.0000,0.0000,0.0000,0.0000,0.0000,0,0.0000,0.0000,0.0000,0.0000,0.0000,0.0000,0,0,0,0,0,0,0,0.00,0.00,0.00,0,
22:6:18:5:32:20:503,0.2000,185.0000,33.9000,A,27.7037,97.3871,27.6700,99694,136.6819,0,0.0000,0.0000,0.0000,0.0000,0.0000,0.0000,0,0.0000,0.0000,0.0000,0.0000,0.0000,0.0000,0,0,0,0,0,0,0,0.00,0.00,0.00,0,
22:6:18:5:32:20:623,0.2000,197.0000,32.9000,A,27.6968,97.3733,27.6700,99692,136.8506,0,0.0000,0.0000,0.0000,0.0000,0.0000,0.0000,0,0.0000,0.0000,0.0000,0.0000,0.0000,0.0000,0,0,0,0,0,0,0,0.00,0.00,0.00,0,33.0662,32.4024,33.0394,32.7609,32.6171,32.5560,32.8974,32.6978,32.5891,32.7583,32.5559,32.7756,32.5119,32.5140,32.0934,32.5577,32.6410,32.3497,32.7108,32.4374,32.5456,32.4338,32.8153,32.5824,32.9019,32.4615,32.2557,32.2008,32.8392,32.7449,32.7995,32.3766,32.8686,32.6796,32.7274,32.7867,32.6886,32.6158,32.8259,32.3233,32.4706,32.4261,32.6554,32.3827,32.5517,32.3914,32.5738,32.2031,32.6712,32.5275,32.6426,32.2228,32.7734,31.9364,32.7158,32.3900,32.7580,32.4894,32.6065,32.8426,32.6444,32.5622,32.4540,32.8088,32.4520,32.9893,32.2445,32.6093,32.3269,32.6265,32.1896,32.2179,32.4644,32.8230,32.5796,32.6231,32.3825,32.5396,32.3953,32.4388,32.5333,32.6109,32.3972,32.4811,32.4218,32.3158,32.5236,32.5957,32.5663,32.7314,32.1696,32.3274,32.6813,32.9640,32.2043,32.9258,32.7311,32.7966,32.5961,32.8283,32.7639,32.2893,32.5159,32.5749,32.5255,32.6632,32.3558,32.6096,32.5784,32.2403,32.5003,32.4457,32.7499,32.1335,32.8288,32.4858,32.6462,32.1920,32.4445,32.2500,32.7700,32.5513,32.2753,32.8794,32.7122,32.7942,32.9868,32.2211,32.7404,32.8742,32.5733,32.5288,32.6071,32.1829,32.3049,32.5063,32.3711,32.7227,32.3448,32.5750,32.4630,32.8131,32.1434,32.5219,32.6274,32.6532,32.1532,32.2304,32.5089,31.9020,32.2556,32.3491,32.8214,32.5666,32.4682,32.2111,32.5746,32.3109,32.7648,33.0108,32.6030,32.7105,32.3156,32.5401,32.5029,32.2210,32.4197,32.5081,32.5999,32.0904,32.2908,32.1035,32.2143,32.5513,32.4317,32.0643,32.9982,32.2246,32.1306,32.2624,32.4178,32.1409,32.5328,32.3697,32.8655,31.9223,32.5518,32.3743,32.2560,32.7231,32.6627,32.3585,32.4694,32.3454,32.4750,32.6671,32.8847,32.6072,32.5881,32.4183,32.4872,32.3131,32.4576,32.4741,32.4373,32.4145,32.4159,32.3232,32.7036,32.4580,32.1146,32.3569,32.2800,32.3448,32.5649,32.3303,32.3966,32.3271,32.3647,32.3206,32.6505,32.6089,32.2791,32.2942,32.5884,32.4233,32.6513,32.7083,32.7690,32.4930,32.4141,32.1361,32.5496,32.0727,32.6078,32.2038,32.5165,32.4898,32.5499,32.3577,32.3263,32.2133,32.4078,32.2266,32.5268,32.4087,32.1838,32.4941,32.4721,32.2364,32.4826,32.1477,32.5543,32.8216,32.5757,32.4964,32.8233,32.8974,32.4273,32.5933,32.6230,32.5719,32.5651,32.3812,32.4624,32.6431,32.1019,32.4627,32.4041,32.3798,32.3903,32.5879,32.2075,32.2495,32.2838,32.4655,32.4352,32.4402,32.5019,32.2758,32.7289,32.3059,32.5152,32.4673,32.8262,32.3715,32.9983,33.0244,32.1229,32.6261,32.4009,32.2880,32.7443,32.3432,32.2178,32.2676,32.5517,32.3996,32.5768,32.5118,32.5024,32.1673,32.2377,32.6158,32.7551,32.3337,32.2589,32.3581,32.6633,32.3765,32.3085,32.2947,32.8174,32.3525,32.8184,32.3078,32.7112,32.7852,32.9362,32.4302,32.9767,33.0679,32.0398,32.5855,32.7704,32.2305,32.3815,32.3763,32.6002,32.2693,32.4275,32.1650,32.5252,32.2377,32.2459,32.4417,32.6572,32.4248,32.4127,32.3314,32.2709,32.4949,32.3460,32.5649,32.3770,32.6220,32.4845,32.0817,32.4186,32.1634,32.4007,32.9941,32.7186,32.8252,32.6327,32.4603,32.3952,32.3509,32.3706,32.4548,32.8701,32.2207,32.1216,32.2067,32.3356,32.3253,32.5273,32.1809,32.5899,32.4862,32.2404,32.2044,32.8077,32.2446,32.4781,32.2929,32.7963,32.3593,32.6106,32.2812,32.5162,32.0386,32.3708,32.4379,33.0534,32.6703,32.6359,32.5610,32.3151,32.7182,32.2374,32.6917,32.6278,32.6024,32.3067,32.4603,32.5504,32.3707,32.6967,32.5801,32.6656,32.1017,32.2721,32.6484,32.4285,32.7808,32.3444,32.4434,32.5490,32.6145,32.6749,32.6085,32.9215,32.6777,32.4113,32.9752,32.9895,32.2701,32.4697,31.7594,32.4580,32.3385,32.2540,32.1254,32.4376,32.2461,32.4648,32.0597,32.6729,32.3300,32.2389,32.3456,32.7639,32.4746,32.2590,32.3801,32.3864,31.9255,32.4877,32.3196,32.9485,32.6831,32.5160,32.4665,32.8740,32.2163,32.5792,32.8246,32.6675,32.8801,32.4790,32.7548,32.8502,32.3926,32.4181,32.5422,32.6861,32.6368,32.1605,32.7232,32.5751,32.5416,32.4118,32.5883,32.3867,32.2439,32.3017,32.5045,32.1413,32.3223,32.5403,32.6132,32.5869,32.4931,32.8807,32.6230,32.7959,32.6920,32.7960,32.6265,32.8571,32.6660,32.3278,32.5212,32.6695,32.7087,32.7766,32.6597,32.6502,32.2687,32.6457,32.2157,32.5584,32.3570,32.7319,32.5272,32.8446,32.5139,32.4593,32.3913,32.4175,32.5570,32.5746,32.3373,32.7083,32.4078,32.3867,32.8617,32.9188,32.7644,32.8197,32.6742,32.7133,32.5288,32.7486,32.6641,32.7338,32.4549,32.3187,32.7731,32.3754,32.6795,32.3642,32.5407,32.8972,32.7335,32.1463,32.6733,32.6156,32.4810,32.3456,32.6907,32.6542,32.6919,32.5872,32.1620,33.1109,32.3610,32.9544,32.4999,32.8827,32.5698,33.2668,32.4625,33.1174,32.9274,32.5866,32.5920,32.7499,32.6051,32.5228,32.3593,32.6964,32.4893,32.7326,32.4700,32.4685,32.5633,32.4835,32.4299,32.7325,32.4336,32.3590,32.4299,32.9492,32.4780,32.3027,32.3825,32.8757,32.6581,32.7917,32.3887,33.1793,32.4934,32.8901,32.9181,32.6731,33.2206,32.6445,33.0885,33.0087,32.5702,32.5591,32.6902,32.2986,32.7334,32.4271,32.6037,32.3825,32.6417,32.5605,32.5723,32.5111,32.3626,32.7201,32.7951,32.7362,32.4283,32.8288,32.5993,32.5420,32.7548,32.8280,32.5810,33.1396,32.8504,32.9744,32.7568,32.8786,32.8374,32.7121,32.6678,32.5119,32.3742,32.9831,32.9639,32.9617,32.5423,32.3199,32.2017,32.7123,32.4640,33.0689,32.8062,32.6623,32.6347,33.0639,32.7053,32.5866,32.3735,32.7157,32.4550,32.9868,32.7277,32.7066,32.6901,33.4912,32.4047,33.4101,33.2959,32.7920,32.9270,32.5679,32.6593,32.5754,33.0118,33.0090,33.1394,32.7250,32.9962,32.8459,32.8513,32.7700,32.9024,32.6425,32.8086,32.6384,32.4435,32.4946,32.6963,32.6991,32.6727,32.5869,32.6290,33.1048,32.6920,32.5900,32.8484,32.8893,32.9577,32.6912,33.3533,32.6249,32.9775,32.6518,32.6253,32.8092,33.2530,32.7327,32.9187,33.0967,32.9938,32.4549,32.9603,32.4839,32.7321,32.5335,32.9059,32.7875,32.7731,32.8940,32.7768,32.7040,32.6497,32.8298,32.7355,32.7995,32.6834,33.4041,32.9565,33.2598,32.9065,33.1819,33.0306,33.1076,32.8851,32.9346,32.9865,33.1153,33.1802,32.8346,33.1185,33.0419,33.1440,32.5042,33.1738,32.7434,32.8546,33.1097,33.0617,32.7071,32.7038,32.9313,32.7928,32.7793,32.6083,32.5370,32.7657,32.7458,32.9800,33.1330,33.3898,33.2552,32.8892,33.7091,33.4965,32.9140,33.0510,33.0027,32.9090,33.2911,32.9575,32.5164,33.2147,32.6469,32.9304,33.0440,32.8703,32.8752,32.8254,32.9538,33.0987,33.1570,32.9236,32.7801,32.6369,32.8966,32.8394,32.8888,32.9898,33.0275,33.0452,33.6930,33.0204,33.3548,32.9370,33.6963,33.5299,
22:6:18:5:32:20:791,0.2000,197.0000,32.9000,A,27.6745,97.3627,27.6600,99694,136.6819,0,0.0000,0.0000,0.0000,0.0000,0.0000,0.0000,0,0.0000,0.0000,0.0000,0.0000,0.0000,0.0000,0,0,0,0,0,0,0,0.00,0.00,0.00,0,
22:6:18:5:32:20:911,0.2000,186.0000,32.6000,A,27.6834,97.3778,27.6600,99694,136.6819,0,0.0000,0.0000,0.0000,0.0000,0.0000,0.0000,0,0.0000,0.0000,0.0000,0.0000,0.0000,0.0000,0,0,0,0,0,0,0,0.00,0.00,0.00,0,
22:6:18:5:32:21:15,0.2000,186.0000,32.6000,A,27.6981,97.3680,27.6600,99694,136.6819,0,0.0000,0.0000,0.0000,0.0000,0.0000,0.0000,0,0.0000,0.0000,0.0000,0.0000,0.0000,0.0000,0,0,0,0,0,0,0,0.00,0.00,0.00,0,
22:6:18:5:32:21:131,0.2000,195.0000,32.4000,A,27.6974,97.3714,27.6600,99691,136.9349,0,0.0000,0.0000,0.0000,0.0000,0.0000,0.0000,0,0.0000,0.0000,0.0000,0.0000,0.0000,0.0000,0,0,0,0,0,0,0,0.00,0.00,0.00,0,
22:6:18:5:32:21:239,0.2000,195.0000,32.4000,A,27.7075,97.3612,27.6700,99695,136.5975,0,0.0000,0.0000,0.0000,0.0000,0.0000,0.0000,0,0.0000,0.0000,0.0000,0.0000,0.0000,0.0000,0,0,0,0,0,0,0,0.00,0.00,0.00,0,
22:6:18:5:32:21:355,0.2000,186.0000,32.2000,A,27.7048,97.3677,27.6700,99695,136.5975,0,0.0000,0.0000,0.0000,0.0000,0.0000,0.0000,0,0.0000,0.0000,0.0000,0.0000,0.0000,0.0000,0,0,0,0,0,0,0,0.00,0.00,0.00,0,
22:6:18:5:32:21:463,0.2000,186.0000,32.2000,A,27.7082,97.3501,27.6700,99693,136.7662,0,0.0000,0.0000,0.0000,0.0000,0.0000,0.0000,0,0.0000,0.0000,0.0000,0.0000,0.0000,0.0000,0,0,0,0,0,0,0,0.00,0.00,0.00,0,
22:6:18:5:32:21:580,0.1000,182.0000,32.2000,A,27.7081,97.3624,27.6700,99695,136.5975,0,0.0000,0.0000,0.0000,0.0000,0.0000,0.0000,0,0.0000,0.0000,0.0000,0.0000,0.0000,0.0000,0,0,0,0,0,0,0,0.00,0.00,0.00,0,
22:6:18:5:32:21:684,0.1000,182.0000,32.2000,A,27.7147,97.3504,27.6700,99695,136.5975,0,0.0000,0.0000,0.0000,0.0000,0.0000,0.0000,0,0.0000,0.0000,0.0000,0.0000,0.0000,0.0000,0,0,0,0,0,0,0,0.00,0.00,0.00,0,33.1129,33.1525,33.3102,33.2502,33.0706,33.0099,33.3347,33.1323,32.8210,33.1720,33.1516,32.8203,32.7349,32.5587,32.8398,32.6024,33.0348,32.7465,32.9361,32.6630,32.7725,32.8408,32.8606,33.2002,32.9475,32.7074,32.3015,32.8860,33.1026,33.0136,32.8463,32.9058,32.6780,32.9528,33.2138,33.7022,32.9344,33.0608,33.0645,32.7521,32.6994,32.6526,33.0600,32.6059,32.7715,32.6110,32.7915,32.5969,33.0593,32.7445,32.8653,32.7972,32.9965,32.6921,32.7617,33.1855,33.3704,32.5352,33.2661,32.8887,33.3313,33.0444,33.6599,33.3263,33.1813,33.2541,32.9260,32.6541,32.9532,32.8626,32.9823,32.8111,32.6842,32.8675,32.9674,32.8371,32.4274,32.5839,32.9426,32.6504,32.7449,32.8221,32.9455,32.6948,32.2975,33.0403,32.9204,32.6407,32.7921,32.9629,32.7970,32.7693,32.5245,33.0099,33.1374,33.1968,32.7779,33.0579,33.0569,33.0751,32.8099,32.7110,32.9283,32.6197,32.9150,32.5364,32.7394,32.8213,32.6236,32.7749,33.0386,32.8175,32.6304,32.6719,32.7086,32.5308,32.5255,32.4048,32.8369,32.8144,33.1701,32.7802,32.5134,32.9252,32.7586,32.6412,33.6842,32.9318,32.5718,33.3327,33.2212,32.7696,32.8395,32.7750,32.8789,32.7275,32.7525,32.9339,32.7181,33.2836,32.5077,32.6964,32.3491,32.7272,32.8325,32.8567,32.6834,32.5999,32.7169,32.6040,32.6356,32.5649,32.8666,32.7860,32.6991,32.6236,32.8123,32.5541,32.8110,32.8452,33.4916,32.9596,32.9642,32.9709,32.7323,32.8035,32.8112,33.0730,32.9769,32.6326,32.6609,32.8085,32.7343,32.4369,32.6354,32.5872,32.7261,32.2694,32.4981,32.3073,32.6251,32.5112,32.5785,32.7529,32.5713,32.3129,32.7797,32.9604,33.0568,32.7692,32.5004,33.0355,32.9270,32.5904,32.9037,32.9024,33.1067,32.8236,32.8042,32.9692,32.8530,32.5182,32.9815,32.8339,32.4820,32.6139,32.6171,32.5262,32.4373,32.8166,32.7875,32.8765,32.1686,32.8654,32.9399,32.7079,32.7695,32.5415,32.7591,32.5442,32.5121,33.0287,33.1301,33.1617,33.0422,32.4686,33.0742,32.7535,32.8147,32.8775,32.9685,32.6835,32.5948,32.7509,32.8119,32.5634,32.8722,32.8415,32.4401,32.7163,32.8340,32.5700,32.9191,32.8991,32.5721,32.4537,32.5579,32.7037,32.6803,32.4501,32.8743,32.7265,33.1475,33.0518,33.0185,32.7459,32.8692,32.9422,33.0302,33.0044,33.1738,32.9544,32.9433,32.9179,32.9800,32.5261,32.7736,32.8205,32.4488,32.5758,32.5894,32.9372,32.7057,32.4468,32.9559,32.6644,32.4802,32.6377,32.7062,32.6404,32.7740,32.5150,32.7338,32.5126,32.6920,32.9674,33.4359,33.0708,32.7640,33.0591,32.6311,32.8754,32.7903,32.5567,32.5946,32.9611,32.5971,32.7637,32.4665,32.7125,32.7005,32.6650,32.7409,32.6605,32.5007,32.8324,32.6167,32.7097,33.1672,32.5744,32.8276,32.9756,32.5370,32.2348,32.6925,32.5284,33.2916,33.1936,33.1767,32.8666,33.0226,33.1127,32.8237,32.6304,32.8155,32.4453,32.7555,32.9139,32.9599,32.7817,32.6282,32.8339,32.7219,32.5873,32.8949,32.6399,32.5526,32.6212,32.6106,32.8378,32.9278,32.8512,32.7105,32.9297,32.9057,32.6670,32.8655,32.8054,32.8169,33.1022,32.6405,32.8460,33.1542,33.2565,33.0447,32.6854,32.7763,32.5651,32.5798,32.8266,32.9156,32.5757,32.6334,32.7173,32.8357,32.5216,32.8723,32.5318,32.6351,32.6818,32.4382,32.7097,32.5478,32.4453,32.5238,32.8171,32.6813,32.5664,32.6567,33.1689,33.0872,32.6183,32.6094,32.6782,33.2956,32.9080,32.8640,32.7854,32.7043,32.7626,32.6121,32.8980,32.6727,32.6467,32.6645,32.8153,32.7456,32.5653,32.7415,32.6244,32.8594,32.5928,32.6223,32.5398,32.4734,32.6727,32.7052,32.8088,32.5943,33.1410,32.7204,32.9948,32.6203,32.8983,33.0284,33.0215,33.0366,32.8915,32.6983,32.8795,32.5041,32.3836,32.9554,32.4943,32.6399,32.6040,32.8211,32.5709,32.7185,32.8238,32.5837,32.8452,32.6609,32.5195,32.4569,32.5782,32.7370,32.4279,32.6907,32.6843,32.9942,32.5683,33.0696,32.8520,33.2671,32.7861,33.0048,33.4466,32.9105,33.1140,33.0696,32.7996,32.7266,32.7675,32.7897,32.7491,32.7313,32.6814,33.1319,32.7676,33.0697,32.8865,32.7565,32.6328,32.8818,32.7368,32.8068,33.0068,32.6478,32.6705,32.5854,32.6582,32.6323,33.0301,32.9263,32.8386,33.1902,32.9136,33.0338,32.8677,32.7080,33.0892,32.9191,33.4590,32.8847,32.5893,33.1482,33.3526,32.8543,32.6261,32.6917,32.7151,32.7543,32.7030,32.9274,33.0254,33.1896,32.7080,33.1150,32.7401,32.7698,32.6022,32.7808,32.5425,32.9164,32.6176,33.1127,32.9076,32.7910,32.8104,32.8671,33.3027,32.9588,32.9633,32.9793,33.2581,33.1236,32.6686,32.8628,32.9804,32.8966,32.8826,32.8862,33.0570,32.7910,32.9298,32.7995,32.8723,32.9673,32.5257,32.7018,32.8892,32.6995,33.0473,32.9545,32.3692,32.9949,32.5726,33.3459,33.4112,33.2840,32.7965,33.1193,33.2911,33.1651,33.1669,33.0020,33.3694,32.7967,32.6506,32.9008,32.8892,32.9010,32.6936,33.2551,32.9871,32.9723,32.6085,32.6806,32.9355,32.9318,32.6327,33.0236,32.9355,32.8416,32.9889,32.9951,33.0722,33.0828,33.0338,33.0115,32.9543,33.2262,32.7207,33.1317,33.3552,32.9270,33.2661,33.2605,33.3177,32.7053,33.1408,33.1128,33.2363,32.8290,32.9385,33.1101,32.9687,32.7399,32.8390,32.9222,32.9300,32.7117,32.5618,32.9230,33.1603,32.6221,32.7895,32.8744,32.8113,32.9212,32.9685,32.8741,33.1651,33.0023,32.8964,33.2211,33.0080,32.9270,33.0807,32.9509,33.2665,32.9108,32.7713,33.0303,33.3437,32.8479,32.5879,32.8464,32.8885,32.7587,32.6630,32.9578,33.1636,33.1714,32.8336,33.1103,32.9111,33.2685,32.7342,33.0921,32.8323,32.7002,32.9419,33.2800,33.0970,33.1704,33.0154,33.4583,33.3435,32.6309,33.5808,33.5882,33.4781,33.3328,33.4164,33.2288,33.5290,32.7710,32.8756,32.8916,33.0611,32.9731,32.7891,33.0106,32.8537,32.5225,32.8072,32.7038,32.7416,32.9093,32.8809,32.8021,33.0111,32.9806,32.7376,33.3681,32.8944,32.9361,33.1982,33.5732,33.6138,33.0970,33.0245,33.0932,33.2552,33.2140,33.2995,33.3037,33.3111,32.9776,33.2051,33.1604,32.8413,32.6895,32.6193,33.0651,33.2720,32.9959,32.9784,32.9411,32.9847,32.9155,33.0226,33.0464,33.2930,33.1878,32.7300,33.0845,33.3742,33.3076,33.3417,33.2306,33.7202,33.5914,33.5769,33.3961,33.6357,33.5450,33.4151,33.4356,33.5255,33.2625,33.0161,33.2451,33.5643,32.9566,32.8998,33.1557,33.4355,33.0864,33.2440,32.9773,33.0069,32.9947,33.1637,33.1159,32.9905,33.3285,33.2082,33.7498,33.4362,33.3026,33.3417,33.5399,33.1000,32.9648,33.3155,33.2616,33.3627,33.1476,33.0050,33.3095,33.6231,33.0454,33.3246,33.0924,33.4365,33.0917,33.2048,33.3389,33.1451,33.2045,32.6402,33.3331,33.3583,32.7752,32.8860,32.9372,33.0369,33.2557,33.0923,33.7421,33.4568,33.8021,32.9848,33.7464,33.8025,
22:6:18:5:32:21:867,0.1000,168.0000,32.2000,A,27.6791,97.3429,27.6500,99695,136.5975,0,0.0000,0.0000,0.0000,0.0000,0.0000,0.0000,0,0.0000,0.0000,0.0000,0.0000,0.0000,0.0000,0,0,0,0,0,0,0,0.00,0.00,0.00,0,
22:6:18:5:32:21:971,0.1000,168.0000,32.2000,A,27.6999,97.3430,27.6500,99694,136.6819,0,0.0000,0.0000,0.0000,0.0000,0.0000,0.0000,0,0.0000,0.0000,0.0000,0.0000,0.0000,0.0000,0,0,0,0,0,0,0,0.00,0.00,0.00,0,
22:6:18:5:32:22:91,0.0000,181.0000,32.2000,A,27.6981,97.3457,27.6600,99693,136.7662,0,0.0000,0.0000,0.0000,0.0000,0.0000,0.0000,0,0.0000,0.0000,0.0000,0.0000,0.0000,0.0000,0,0,0,0,0,0,0,0.00,0.00,0.00,0,
22:6:18:5:32:22:195,0.0000,181.0000,32.2000,A,27.7065,97.3371,27.6600,99694,136.6819,0,0.0000,0.0000,0.0000,0.0000,0.0000,0.0000,0,0.0000,0.0000,0.0000,0.0000,0.0000,0.0000,0,0,0,0,0,0,0,0.00,0.00,0.00,0,
22:6:18:5:32:22:311,0.0000,182.0000,32.2000,A,27.7081,97.3136,27.6600,99696,136.5132,0,0.0000,0.0000,0.0000,0.0000,0.0000,0.0000,0,0.0000,0.0000,0.0000,0.0000,0.0000,0.0000,0,0,0,0,0,0,0,0.00,0.00,0.00,0,
22:6:18:5:32:22:419,0.0000,182.0000,32.2000,A,27.7159,97.3308,27.6600,99694,136.6819,0,0.0000,0.0000,0.0000,0.0000,0.0000,0.0000,0,0.0000,0.0000,0.0000,0.0000,0.0000,0.0000,0,0,0,0,0,0,0,0.00,0.00,0.00,0,
22:6:18:5:32:22:535,0.1000,185.0000,32.3000,A,27.7107,97.3118,27.6500,99692,136.8506,0,0.0000,0.0000,0.0000,0.0000,0.0000,0.0000,0,0.0000,0.0000,0.0000,0.0000,0.0000,0.0000,0,0,0,0,0,0,0,0.00,0.00,0.00,0,
22:6:18:5:32:22:643,0.1000,185.0000,32.3000,A,27.7164,97.3145,27.6600,99691,136.9349,0,0.0000,0.0000,0.0000,0.0000,0.0000,0.0000,0,0.0000,0.0000,0.0000,0.0000,0.0000,0.0000,0,0,0,0,0,0,0,0.00,0.00,0.00,0,33.3870,33.4045,33.3402,33.2680,33.3037,33.0290,32.7754,33.1509,33.2226,33.0071,32.6299,33.3827,32.7639,32.5785,32.8685,33.1515,33.0636,32.9418,33.1451,33.0423,32.9830,32.8600,32.1395,33.4083,33.3615,32.9256,32.5405,33.1150,33.1332,33.0303,32.6402,33.6387,33.1691,33.2101,33.4483,33.5150,32.7526,32.6904,33.2736,32.9727,32.7181,33.0440,33.0775,32.8131,32.7905,32.4656,33.3239,32.4518,32.9074,32.2564,32.7063,32.4737,32.8383,32.8985,33.3261,33.2152,32.8226,33.1508,33.2823,33.1272,33.1353,32.8580,33.9047,33.3585,33.4385,33.0532,32.7442,33.2883,32.7895,32.8821,32.8247,33.0125,33.0619,32.8875,32.9960,33.0258,32.9525,32.6039,32.6366,33.3351,32.7734,32.5092,32.6388,32.8826,32.8335,32.5505,32.4218,33.1845,32.6408,32.9818,33.0199,33.1813,32.9601,33.0272,33.6086,33.8809,33.2415,33.3032,33.2793,32.7008,32.8281,33.1157,33.1286,33.3642,33.1057,32.7367,32.9261,32.8500,32.9683,32.6405,33.0570,32.5195,33.1437,32.7009,33.2228,32.7267,33.0429,32.9356,32.8547,32.8438,33.3659,32.8100,33.1034,32.7612,32.7761,32.8711,33.4832,32.9636,33.2444,33.1454,33.2508,33.1791,33.4282,32.9768,32.9078,33.0995,32.7810,32.9543,32.5825,33.3033,32.8565,32.5556,32.6991,32.9076,32.7005,32.7179,32.7119,32.9433,32.9084,32.7878,32.4972,32.5837,33.0670,32.8051,33.0982,33.0071,33.2245,32.7691,32.8414,33.0731,33.0886,33.3953,33.1807,33.1926,33.1173,33.0112,33.0014,32.7553,32.6647,32.8267,33.0029,32.8373,32.7542,32.7839,32.8119,32.7749,33.0634,32.7712,32.6773,32.8193,32.8066,32.5403,32.9272,32.4441,33.2691,32.5147,32.9785,32.8106,32.8866,33.3769,33.1427,32.8573,33.1622,33.4066,32.9330,33.4912,32.9590,32.6718,33.0040,32.9889,33.0418,32.6994,32.3705,32.8537,33.1357,32.3240,32.8020,32.8627,32.7764,32.9937,32.3451,33.0539,32.6650,32.7270,32.3080,33.2242,32.7984,32.5609,32.6141,33.0953,32.5417,33.0470,32.7588,32.9731,33.0595,32.6963,33.2787,32.7829,32.6583,32.9065,32.8171,33.0461,32.6143,32.7798,32.6717,32.5921,32.4261,32.8702,32.9237,32.7450,32.8541,33.2200,32.9376,32.7714,32.7472,32.7976,32.9034,32.7329,32.7000,32.6477,33.0641,32.7563,32.9837,32.8979,32.8368,33.1816,33.0984,33.1570,32.6880,33.3888,32.8661,32.4672,32.9721,33.4278,33.0086,32.8689,32.6455,32.8405,32.7850,32.5965,32.7722,33.1092,32.7340,32.6202,32.6712,32.9924,33.2764,33.1159,32.7350,33.1374,32.8029,32.8622,32.5898,32.5310,32.9017,32.9860,32.8778,33.0871,32.7813,32.7015,32.8315,32.9048,32.8090,32.7541,32.9424,32.6662,33.0860,32.4733,32.9516,32.5853,32.7202,32.6938,32.7594,32.9907,32.6705,32.5589,32.9467,32.7386,33.0343,32.9085,33.0031,32.8463,32.8827,32.7525,33.2250,32.3831,33.3098,33.2238,33.1929,32.8977,33.0524,33.5181,32.4842,33.3685,32.8444,32.2953,32.4552,32.9338,32.9884,32.9579,32.8126,32.8540,32.7503,32.7603,32.7728,32.8136,32.7303,32.6418,32.4861,33.1643,32.9564,32.7158,32.7393,32.9489,32.9345,32.6866,32.7271,32.9927,32.8465,33.1208,32.8640,33.6383,32.9774,32.7073,33.2435,32.7148,33.1293,32.9319,32.9236,32.8556,32.6218,32.9138,32.8065,32.7461,32.4007,32.5504,33.0402,32.8658,32.8037,32.8612,33.0634,32.5853,32.7202,32.7851,33.0174,32.5271,33.0220,32.9188,32.8407,33.0308,32.9307,32.6486,33.0078,33.0957,32.9337,32.7347,32.8936,32.9841,32.7334,32.7829,32.4764,33.2409,32.8581,32.9804,32.6932,33.1448,32.7742,32.5859,32.9200,32.9481,32.7388,32.4647,32.3457,33.1714,32.6549,32.3866,32.4184,32.8280,33.2664,32.8398,32.9192,33.3530,32.9968,33.4399,32.6784,33.2299,33.2485,32.9216,32.8961,32.7306,32.6937,32.5777,32.8093,32.8464,32.8155,32.6331,32.9940,32.4446,32.7378,32.5536,32.9003,32.8741,32.8290,32.6964,32.9304,32.7602,32.9085,32.7608,33.0222,32.5541,32.8537,32.9182,33.2554,32.7121,32.9383,32.9904,33.3981,33.0945,33.1371,33.3221,32.9181,33.1764,33.2624,33.1171,32.9816,33.4162,32.9187,33.0137,32.8529,32.9374,32.9489,33.0569,32.6355,32.8039,32.4601,32.7571,32.6825,33.1784,32.8301,32.8420,32.6145,33.1550,32.6615,32.7219,32.9559,33.3659,33.2201,33.1079,32.6803,33.6597,32.7242,32.9310,33.1157,33.3109,33.2392,32.9481,33.1651,33.0585,33.0310,32.6553,33.0175,32.5929,32.9232,32.7320,33.0945,32.9037,33.0595,33.0347,32.9807,32.7693,32.7889,32.9332,32.7984,32.8910,32.9353,32.9752,33.6363,32.9378,33.3310,33.0160,33.0741,33.3340,33.1879,33.1768,33.0095,33.4593,33.4963,32.6884,32.7263,33.6472,33.0838,33.0611,32.9153,33.2333,33.1221,32.9500,32.5248,33.1997,32.9962,32.7002,32.8859,33.3681,33.0362,32.7567,32.9838,33.1948,33.0244,33.0896,33.2031,32.9105,33.1369,33.1758,33.1499,33.3071,32.9819,33.0040,33.5670,33.0342,32.8140,33.1839,33.2476,33.0798,32.9193,33.0405,33.1137,32.8594,32.8389,32.6378,33.3000,32.8116,32.9509,32.8159,33.1950,32.9648,32.5523,32.8635,33.3339,32.9412,32.7790,32.8993,33.3728,33.1573,33.0651,32.9322,33.5336,32.8012,33.3705,33.8722,33.2910,33.5196,32.7355,32.9855,32.6346,33.4218,33.0196,32.9585,32.8212,33.4662,32.9248,33.0114,32.9515,33.2610,32.7408,32.5817,33.1095,33.4984,32.9703,33.2816,32.9040,33.3276,32.7844,32.9874,33.2540,33.1827,33.2164,32.9143,33.4517,33.4312,33.1491,33.3082,33.5359,33.2970,33.1027,32.8015,33.3832,33.3736,33.0259,33.0938,33.0224,32.5979,32.9333,33.3050,33.2893,32.8813,33.0356,33.0164,33.4408,32.9408,32.8106,32.9212,33.4372,32.6966,32.8847,32.9724,33.2957,33.1278,33.1869,33.2339,33.6713,33.5802,33.2887,33.1941,33.4254,33.6884,33.0086,33.2561,33.0853,33.7193,33.1324,32.8951,33.0854,33.2443,32.8455,33.1252,33.0403,33.1932,33.1970,32.8267,32.5699,33.2480,32.9391,32.9001,33.0010,33.1971,32.6696,33.4585,33.2161,33.4645,33.5340,33.0214,33.6046,33.6289,32.6875,33.2606,33.3021,33.2862,33.0512,33.5106,33.4925,33.5143,32.9943,33.2353,33.3401,33.2006,33.1816,32.8079,33.0811,33.1419,32.8518,33.0086,32.9573,33.0148,33.0975,32.8895,33.3997,33.1533,33.0346,33.1134,33.6501,33.4052,33.3233,33.3733,33.8712,33.9659,32.9695,34.0229,33.4279,33.8532,33.1932,33.4336,33.0972,33.7236,33.2929,33.3814,32.9287,33.7545,33.1536,33.2495,33.0176,33.6177,33.1161,33.2631,33.1750,33.1932,33.0247,33.5211,33.3233,33.1868,33.3591,33.2262,33.4015,34.0291,33.5322,33.3585,33.5721,34.2222,33.1965,33.3485,33.8962,33.7995,33.3538,33.2272,33.6923,33.2938,33.2353,33.5293,33.8006,33.1216,33.1076,33.4018,33.5214,33.1761,33.0542,32.8362,33.6828,32.8835,32.9607,33.2567,33.4821,33.0686,33.4509,33.4899,33.9459,33.8765,33.4175,33.2217,33.9749,33.6134,
22:6:18:5:32:22:823,0.0000,208.0000,32.4000,A,27.6842,97.3042,27.6500,99693,136.7662,0,0.0000,0.0000,0.0000,0.0000,0.0000,0.0000,0,0.0000,0.0000,0.0000,0.0000,0.0000,0.0000,0,0,0,0,0,0,0,0.00,0.00,0.00,0,
22:6:18:5:32:22:927,0.0000,208.0000,32.4000,A,27.7021,97.3103,27.6500,99692,136.8506,0,0.0000,0.0000,0.0000,0.0000,0.0000,0.0000,0,0.0000,0.0000,0.0000,0.0000,0.0000,0.0000,0,0,0,0,0,0,0,0.00,0.00,0.00,0,
22:6:18:5:32:23:47,0.1000,241.0000,32.4000,A,27.7021,97.2998,27.6500,99692,136.8506,0,0.0000,0.0000,0.0000,0.0000,0.0000,0.0000,0,0.0000,0.0000,0.0000,0.0000,0.0000,0.0000,0,0,0,0,0,0,0,0.00,0.00,0.00,0,
22:6:18:5:32:23:151,0.1000,241.0000,32.4000,A,27.7090,97.2729,27.6500,99690,137.0193,0,0.0000,0.0000,0.0000,0.0000,0.0000,0.0000,0,0.0000,0.0000,0.0000,0.0000,0.0000,0.0000,0,0,0,0,0,0,0,0.00,0.00,0.00,0,
22:6:18:5:32:23:271,0.1000,233.0000,32.4000,A,27.7065,97.3092,27.6500,99693,136.7662,0,0.0000,0.0000,0.0000,0.0000,0.0000,0.0000,0,0.0000,0.0000,0.0000,0.0000,0.0000,0.0000,0,0,0,0,0,0,0,0.00,0.00,0.00,0,
22:6:18:5:32:23:375,0.1000,233.0000,32.4000,A,27.7163,97.3030,27.6500,99692,136.8506,0,0.0000,0.0000,0.0000,0.0000,0.0000,0.0000,0,0.0000,0.0000,0.0000,0.0000,0.0000,0.0000,0,0,0,0,0,0,0,0.00,0.00,0.00,0,
22:6:18:5:32:23:491,0.0000,195.0000,32.4000,A,27.7159,97.2860,27.6500,99691,136.9349,0,0.0000,0.0000,0.0000,0.0000,0.0000,0.0000,0,0.0000,0.0000,0.0000,0.0000,0.0000,0.0000,0,0,0,0,0,0,0,0.00,0.00,0.00,0,
22:6:18:5:32:23:599,0.0000,195.0000,32.4000,A,27.7172,97.2980,27.6500,99696,136.5132,0,0.0000,0.0000,0.0000,0.0000,0.0000,0.0000,0,0.0000,0.0000,0.0000,0.0000,0.0000,0.0000,0,0,0,0,0,0,0,0.00,0.00,0.00,0,
22:6:18:5:32:23:715,0.0000,175.0000,32.4000,A,27.7145,97.2795,27.6500,99692,136.8506,0,0.0000,0.0000,0.0000,0.0000,0.0000,0.0000,0,0.0000,0.0000,0.0000,0.0000,0.0000,0.0000,0,0,0,0,0,0,0,0.00,0.00,0.00,0,33.8800,33.0554,33.3493,33.3863,33.7191,32.9438,33.3743,33.6574,33.0471,33.1260,33.1913,33.5014,33.1298,32.6983,33.0541,33.4465,33.4227,33.0614,32.9759,33.1614,33.3561,32.9798,32.9001,33.7170,33.3718,33.4444,32.9666,33.0224,33.3582,32.7059,33.1219,33.5208,33.2891,33.6712,33.5664,33.5240,33.4694,33.2991,33.3917,32.9826,32.6547,33.2347,33.3746,33.0012,32.5613,32.8248,33.0993,32.8104,32.8552,33.1272,33.0022,32.8363,33.3126,33.0848,33.4441,33.2246,33.3205,33.1595,33.1976,32.9273,33.4679,33.9487,34.0236,33.5981,33.6733,33.3924,33.3872,33.4065,33.5706,33.1922,33.2080,33.1315,32.8986,33.0070,33.3492,33.4821,32.9639,33.2213,32.6480,33.2879,33.1180,33.1283,32.8178,33.1700,33.1817,32.6704,32.9603,33.3035,33.1922,33.1024,33.2225,33.3016,33.3731,33.1476,33.6172,33.7790,32.9147,33.5269,33.6036,32.9123,33.1376,33.1257,33.4292,33.1960,33.0534,33.0893,33.2126,33.1940,32.9251,32.9771,33.3394,32.8571,32.7702,33.0392,33.1758,33.0703,33.1626,33.1124,33.1464,32.6809,33.1312,33.3678,33.2225,32.7698,33.0963,33.2761,33.3857,33.1900,34.1049,32.8521,33.2606,33.4928,33.6250,33.0963,33.0945,33.2184,33.2958,32.7399,32.7580,33.4219,33.1878,33.1578,33.1912,32.8660,32.8730,32.8374,32.7234,33.0623,32.7571,32.5799,32.6756,33.0441,33.4201,33.2725,32.9237,33.1273,33.6150,32.8903,33.0616,33.8284,32.9978,33.8087,33.4985,33.2023,33.0545,33.1997,33.6351,33.2852,32.7840,33.0026,33.1211,33.1768,32.8740,32.9534,33.4029,32.7859,33.1829,32.9392,33.1167,32.6692,33.0878,32.7129,33.2110,32.6234,33.0503,32.8678,33.2786,32.8195,33.1950,33.1930,33.2619,32.8639,33.7850,33.1285,33.3252,33.2306,33.3233,32.9633,33.3566,32.9393,33.2133,32.4976,33.1809,33.1299,33.1475,32.7540,32.8137,33.1394,32.9435,32.9564,32.8275,33.0150,33.1426,33.0049,32.9799,33.3437,33.1365,32.6809,32.7989,33.3921,33.4687,32.7942,32.7682,33.7063,32.9769,33.4939,33.3976,32.7928,33.1275,33.2556,32.9362,33.0569,32.5747,32.9483,33.2654,33.0739,32.8568,33.0344,33.0425,32.5992,32.9738,33.2308,32.9015,33.0951,33.3313,32.9653,32.8589,32.7432,32.8205,32.6573,33.3551,32.5881,33.2859,33.0905,33.1539,33.1886,33.3068,33.0814,33.2550,33.6895,33.5495,32.5869,32.9834,33.3832,33.0202,32.6662,32.8137,33.2719,33.2569,33.0186,32.7839,33.2280,32.7460,32.8922,32.6829,32.9574,33.1351,33.0829,33.0642,33.0981,32.9781,32.8191,32.9467,33.1782,33.4502,32.7405,33.0837,33.4042,33.2956,33.0981,33.1333,33.0948,33.0973,33.4349,33.2258,32.5146,32.8925,32.9627,32.9152,32.7522,32.9925,33.0056,33.3339,32.8511,32.9400,33.0230,33.2208,32.7493,33.0012,33.2233,33.2790,32.6976,33.0032,32.9245,33.1725,32.9169,33.0743,33.0513,33.5053,33.2935,33.6468,33.4447,32.6791,33.3087,32.8555,33.0948,32.6312,33.3801,33.1574,32.9216,32.6682,33.2841,33.2173,33.0317,32.9351,33.0859,33.0404,32.9135,32.9564,33.1305,33.2730,32.9916,32.9100,33.2275,32.9459,32.9690,32.5697,32.9440,33.3834,33.4191,32.6799,33.3716,33.4859,33.2956,33.5443,33.0837,33.0824,32.9422,32.5536,33.1921,33.2111,33.0788,32.9255,32.7570,32.9753,32.5613,33.1589,33.0290,32.6262,33.1724,33.0308,32.9024,32.9925,33.1055,33.2942,32.8565,32.9820,32.9285,33.2923,33.2080,33.2255,32.8345,33.6982,33.1028,33.5309,32.8545,32.9037,33.1031,33.2582,32.5702,32.6521,33.1982,32.8695,32.9433,32.8607,32.9540,33.0859,32.8555,33.0813,33.0669,33.3458,33.1779,32.6624,33.1382,32.9713,32.6602,32.5875,32.9479,33.1173,32.9603,33.2676,33.3031,33.1798,33.0377,32.8781,33.5418,33.5637,33.5029,33.3775,32.3827,32.8141,32.7523,33.2549,32.6954,32.9355,32.7997,33.2675,32.9203,33.0079,33.1616,33.1679,32.7334,32.8005,33.0024,32.8978,33.0760,32.8764,32.7712,32.9845,33.0423,33.2924,32.9277,33.0380,32.7212,33.2321,33.3461,33.5180,33.2933,33.7327,33.4422,32.9278,33.6516,33.2727,33.2363,33.1550,33.5348,33.0881,32.9779,33.0181,33.3558,33.1098,33.0262,32.9462,33.3757,32.7721,32.8766,32.8468,33.2979,32.9946,32.9621,32.6254,32.9567,33.3206,32.8425,33.1362,33.4857,33.7502,33.0530,32.8815,33.9730,33.2381,33.5040,33.5955,33.4981,33.3594,33.4499,33.4463,33.2304,32.9932,33.2876,33.4437,32.9057,33.0432,32.8927,33.2134,33.0649,33.0303,32.8963,33.2516,33.2337,32.9090,33.0937,33.0778,33.0600,32.8943,33.1482,33.4184,32.9469,33.2776,33.1991,33.5755,33.1472,33.3952,33.4901,33.2030,33.3966,33.5063,33.3133,33.0683,33.4434,33.0947,33.0229,32.7672,33.3527,33.1333,33.0694,32.9907,33.1654,33.1607,32.9742,33.0518,33.3346,33.0473,33.0323,33.3154,33.3144,33.1965,33.2099,33.2127,33.2038,33.3237,33.2966,33.5461,33.4278,33.3020,33.3985,33.5032,33.4083,33.4501,32.8578,33.0364,32.9285,32.8813,33.2086,33.3911,33.1832,33.1119,32.9529,33.2687,32.9748,33.2241,33.2858,33.3139,32.9748,33.1349,33.3373,33.2929,32.9506,33.2213,33.0730,33.8362,33.1657,33.0074,33.3006,33.6536,33.1982,33.5838,33.6013,33.4888,33.6392,33.2686,33.2805,33.1524,33.3749,33.1907,32.9185,32.9909,33.4265,33.0908,33.1315,32.8040,33.5359,33.2163,32.8562,32.9628,33.4584,33.2987,33.2445,32.9141,33.4481,33.1274,32.9399,33.0885,33.3028,33.4084,32.8477,33.2601,33.9578,33.4774,33.7073,33.2752,33.4887,33.0483,32.9854,33.6710,33.3827,32.6647,33.1031,33.4596,32.9277,32.7406,33.1618,33.7219,33.0469,33.3098,33.1788,33.4030,33.2700,32.9318,32.9304,33.5568,33.2018,33.1715,33.3160,33.5904,33.1359,33.6755,33.2410,33.9896,33.1767,33.7105,33.7196,33.6271,34.0001,33.5489,33.3763,33.0945,34.0101,33.3073,33.0155,33.0952,33.1997,33.4836,32.9291,33.3718,33.1528,33.3680,32.9472,32.7434,33.5299,33.4402,33.1832,33.3476,33.8189,33.1901,33.2286,33.4073,33.4007,33.7303,33.5305,32.9863,33.7509,33.0214,33.4711,33.8124,33.2935,33.3507,33.3383,33.7852,33.6953,33.4472,33.4091,33.6237,33.3737,32.9860,32.9751,33.5220,32.9905,32.9724,33.1766,33.4009,33.3471,33.2187,33.0614,33.1824,33.1615,32.9856,33.2972,33.9529,33.5975,33.6342,33.1857,33.7830,33.1165,33.8468,33.7153,33.8472,34.1728,33.5839,33.5540,33.4746,33.6631,33.4758,33.5017,33.4573,33.7021,33.4961,33.2048,33.3632,33.5735,33.1260,33.2188,33.5188,33.6487,33.0344,33.1334,33.3321,33.6633,33.3677,33.5290,33.5990,34.1491,33.5391,33.2772,33.7945,33.9026,33.0989,33.7843,34.0172,33.4007,33.4756,33.6125,33.6281,33.8416,33.5310,33.3631,33.9207,33.4747,32.8912,33.4093,33.3055,33.1835,33.0087,33.1729,33.6356,33.3966,33.4203,33.2637,33.6025,33.2540,33.0318,33.4958,34.2569,33.6881,33.9371,33.4299,34.3128,34.0624,
22:6:18:5:32:23:884,0.0000,175.0000,32.4000,A,27.6871,97.2753,27.6400,99693,136.7662,0,0.0000,0.0000,0.0000,0.0000,0.0000,0.0000,0,0.0000,0.0000,0.0000,0.0000,0.0000,0.0000,0,0,0,0,0,0,0,0.00,0.00,0.00,0,
22:6:18:5:32:24:1,0.1000,186.0000,32.4000,A,27.6978,97.2888,27.6400,99693,136.7662,0,0.0000,0.0000,0.0000,0.0000,0.0000,0.0000,0,0.0000,0.0000,0.0000,0.0000,0.0000,0.0000,0,0,0,0,0,0,0,0.00,0.00,0.00,0,
22:6:18:5:32:24:105,0.1000,186.0000,32.4000,A,27.7081,97.2747,27.6500,99686,137.3567,0,0.0000,0.0000,0.0000,0.0000,0.0000,0.0000,0,0.0000,0.0000,0.0000,0.0000,0.0000,0.0000,0,0,0,0,0,0,0,0.00,0.00,0.00,0,
22:6:18:5:32:24:225,0.1000,179.0000,32.4000,A,27.7044,97.2825,27.6500,99694,136.6819,0,0.0000,0.0000,0.0000,0.0000,0.0000,0.0000,0,0.0000,0.0000,0.0000,0.0000,0.0000,0.0000,0,0,0,0,0,0,0,0.00,0.00,0.00,0,
22:6:18:5:32:24:329,0.1000,179.0000,32.4000,A,27.7134,97.2670,27.6400,99693,136.7662,0,0.0000,0.0000,0.0000,0.0000,0.0000,0.0000,0,0.0000,0.0000,0.0000,0.0000,0.0000,0.0000,0,0,0,0,0,0,0,0.00,0.00,0.00,0,
22:6:18:5:32:24:449,0.1000,191.0000,32.4000,A,27.7100,97.2780,27.6500,99694,136.6819,0,0.0000,0.0000,0.0000,0.0000,0.0000,0.0000,0,0.0000,0.0000,0.0000,0.0000,0.0000,0.0000,0,0,0,0,0,0,0,0.00,0.00,0.00,0,
22:6:18:5:32:24:553,0.1000,191.0000,32.4000,A,27.7187,97.2574,27.6500,99693,136.7662,0,0.0000,0.0000,0.0000,0.0000,0.0000,0.0000,0,0.0000,0.0000,0.0000,0.0000,0.0000,0.0000,0,0,0,0,0,0,0,0.00,0.00,0.00,0,
22:6:18:5:32:24:669,0.1000,197.0000,32.4000,A,27.7164,97.2639,27.6400,99692,136.8506,0,0.0000,0.0000,0.0000,0.0000,0.0000,0.0000,0,0.0000,0.0000,0.0000,0.0000,0.0000,0.0000,0,0,0,0,0,0,0,0.00,0.00,0.00,0,34.2266,33.5241,33.4538,33.8291,33.6204,32.9443,33.6734,33.4640,33.5226,33.3107,33.2950,33.6822,33.2338,32.8762,32.9828,33.4470,33.5263,33.0619,33.2596,33.1620,33.2793,33.3409,33.1910,33.7176,33.6677,33.0464,33.4863,33.6584,33.6795,33.3735,33.2280,33.2826,33.5260,33.7769,33.5668,33.8460,33.4697,33.4043,33.1999,33.2788,33.3852,33.6998,33.3749,33.2836,33.2578,33.2781,33.2710,33.0896,33.1980,33.2322,33.0025,33.2929,33.3128,33.0144,33.4444,33.5172,33.5090,33.2662,33.6051,33.2425,33.4682,33.4076,33.7940,33.9406,33.5524,33.6119,33.4913,33.8155,33.6748,33.5737,33.3112,33.1320,33.6973,33.5268,33.1103,33.3140,33.0679,33.2217,33.0867,33.2884,33.2217,33.1288,33.2561,33.0022,33.4535,33.3490,33.4148,33.1294,33.4759,33.1030,33.1347,33.4989,33.4782,33.5506,33.5025,33.7799,33.3617,33.6325,33.8095,33.4206,33.1379,33.2308,33.4294,33.6571,33.2251,33.1941,33.2128,33.1321,32.9254,33.0818,33.5030,33.4507,32.9350,33.3079,33.0108,33.0094,32.9973,33.2181,32.8011,32.9598,33.3084,33.6559,33.4130,33.2647,33.4961,33.5813,33.8188,33.5184,33.7847,33.2663,33.5646,33.2986,33.5429,33.4593,33.1982,33.2188,33.2320,33.4067,33.0255,33.2568,33.4506,33.1582,33.1346,33.0270,33.2969,32.9968,32.9883,33.0628,33.1865,32.9078,32.7801,33.0446,33.6946,33.2730,33.0286,33.4921,33.5295,33.2834,33.3779,33.4069,33.4188,33.7127,33.4988,33.1153,32.8717,33.3046,33.1199,33.3897,33.1158,33.1072,33.4439,33.2818,33.0319,33.2170,33.2460,33.0498,33.3412,33.2012,32.7966,32.9355,32.9266,33.4647,33.0464,33.0667,33.0505,32.9742,32.9165,33.2855,33.3829,33.6836,33.4702,33.3911,33.8895,33.3279,33.4290,33.7994,33.7793,32.7919,32.9479,33.2764,33.3169,32.6588,33.1250,33.1303,33.2511,32.9092,33.2291,33.1399,33.2018,33.1134,33.2436,33.4881,33.4010,32.8471,33.2485,33.3442,33.2409,32.6815,32.9037,32.6836,33.3905,32.9818,33.0751,33.2993,33.1804,33.5992,33.3979,33.2740,33.3021,33.5291,33.2745,33.1621,33.2097,33.0536,33.2656,33.0223,32.8570,33.1394,33.0428,32.8614,33.1276,33.0260,33.2114,33.2003,33.1769,33.2276,33.1858,33.1770,32.8208,33.0988,33.0111,33.0492,33.4676,33.5647,33.1543,33.6994,33.6100,33.4717,33.1738,33.6899,33.4857,33.0945,33.2536,33.3836,33.2810,33.1493,33.2291,33.4281,33.2074,33.0189,33.0414,33.2284,33.4511,32.8927,33.0999,33.2655,33.3921,33.0833,32.8506,33.2575,33.4092,33.1463,32.8784,33.1788,33.3761,32.7412,33.1888,33.4050,33.0990,33.5901,33.3167,33.2006,33.2654,33.3730,33.0617,33.1060,32.8928,33.2269,33.2256,33.0131,32.8404,33.1107,33.0307,33.1068,33.0896,32.9775,32.9103,33.3129,33.4589,33.3286,33.2792,33.1208,32.8406,33.1925,33.1728,33.3713,33.6074,33.5197,33.3124,33.4012,33.7516,33.2522,33.1512,33.3092,33.2963,32.9257,33.2277,33.2169,33.1039,33.0775,32.9277,33.1293,33.0178,32.8801,33.1894,33.0864,32.9955,32.9139,32.9077,33.1310,33.5288,33.3025,33.1731,33.2280,33.5314,33.2926,33.1772,33.2819,33.4879,33.2421,33.1717,33.5660,33.0983,33.4018,33.5447,33.0103,32.9156,33.0479,33.0429,33.2973,32.7421,33.0299,33.0804,33.0171,32.8243,33.1198,33.1592,33.1341,32.7752,33.4273,32.8797,32.8549,33.2968,33.2109,33.1365,32.9623,32.9823,33.1955,33.4584,33.1465,33.2258,33.2952,33.3187,33.0180,33.6363,32.8550,33.0086,33.2826,33.0203,32.9028,33.0848,33.3599,33.2860,33.1000,33.2760,33.1093,33.4887,32.8559,33.0355,33.3701,33.3008,33.0303,33.2225,33.2912,33.3791,32.9663,33.0071,33.4269,33.2217,33.2813,33.0343,33.6427,33.6294,33.0383,33.5523,33.9243,33.3695,33.6092,33.3779,33.2029,32.9852,33.1862,33.0921,32.9625,32.9358,33.0612,33.2678,33.1801,33.1580,33.4155,33.0195,33.1412,33.0970,33.1078,33.5025,33.0290,33.0286,33.0284,32.8280,33.1481,32.9740,33.3530,33.0383,33.1671,33.2324,33.2796,33.1415,33.7835,33.4472,33.6307,33.2141,33.6521,33.3771,33.2367,33.0968,33.3738,33.1926,33.2895,33.1222,32.7566,33.3630,33.0266,32.9008,33.0745,33.1755,33.0260,32.9511,33.1464,33.2515,32.9626,33.0493,33.2752,33.5863,33.0068,33.2408,33.4863,33.5082,32.8778,33.1785,33.5875,33.4343,33.6105,33.7757,33.6040,33.5275,33.3919,33.2844,33.4974,32.9935,33.0827,33.2905,33.0113,32.8937,32.9983,33.2137,33.4711,32.8808,33.0021,33.2519,33.0369,33.0621,33.1994,33.3963,33.1660,33.2178,32.9273,33.4187,33.5615,33.4516,33.1315,33.5758,33.4489,33.8960,33.1028,33.4922,33.5793,33.6107,32.9773,33.3382,33.4438,33.1989,33.1814,33.1883,33.3531,33.3880,33.2213,32.9432,33.1659,33.8742,32.9747,33.0012,33.3351,33.6114,33.1878,33.2593,33.4754,33.7841,33.0450,33.3176,33.5496,33.6062,33.1170,33.4579,33.4286,33.1036,33.6979,33.6864,33.5147,33.2789,33.2994,33.3669,33.3562,33.3557,33.4724,33.0744,33.1323,33.1121,33.2108,33.4191,33.0807,32.7641,33.2384,33.3142,33.3863,33.1351,33.2888,33.4538,33.2175,33.2216,33.1804,33.4929,33.1001,33.8967,33.7671,33.8467,33.6959,33.6903,33.7974,33.5942,34.0054,33.8947,33.4555,32.9192,33.5418,33.4558,33.2389,33.0955,33.4269,33.5052,33.2838,33.0666,33.2253,33.4747,32.8567,33.2245,33.2994,33.7196,33.0877,33.5128,33.2832,33.3986,33.4440,33.5427,33.3035,33.1472,33.0362,33.7645,33.9587,33.0640,33.6191,33.2757,33.2284,32.8733,33.0923,33.8391,33.4889,33.3069,33.8405,33.4600,33.0340,33.0540,33.2679,33.4086,33.4644,33.1561,33.5900,33.4033,33.3761,33.2495,33.1938,33.2290,33.4731,33.1718,33.0888,33.5908,33.4236,33.4921,33.7224,33.7919,33.4915,34.0246,33.5180,33.3449,33.8087,33.4775,33.3768,33.1998,34.0105,33.7418,33.3469,33.3637,33.2003,33.2747,33.2458,33.4763,33.6329,33.6331,33.1065,33.1745,33.2061,33.5453,33.1838,33.2842,33.6524,33.6342,33.4045,33.3303,33.4014,34.0236,33.3375,33.3017,33.5390,33.4437,33.9861,33.6178,33.7880,33.5289,33.8062,33.7856,33.8017,33.2817,33.8450,33.4605,33.6440,32.9864,33.3977,33.3617,33.2574,33.6178,33.2839,33.4012,33.1304,33.2191,33.3313,33.6883,33.6084,33.3267,33.5807,33.7705,33.7050,33.4448,33.4880,33.7835,33.8682,33.9536,33.9301,33.7475,34.1734,34.0709,33.3655,33.2113,34.0236,33.9279,33.6748,33.3897,33.8746,33.7669,33.2053,33.3003,33.7378,33.5631,33.2194,33.6236,33.8166,33.6458,33.3036,33.2607,33.6639,33.8289,33.3478,33.5152,34.1498,34.0400,33.6828,34.1167,34.1245,33.5406,33.8940,33.8105,33.7130,33.2838,33.9108,33.6287,33.9503,33.0076,33.6450,33.4014,33.5824,33.3975,33.8484,33.8099,32.9609,33.3420,33.6086,33.4684,33.8397,33.7573,33.7097,33.4265,33.7192,33.5724,33.6044,34.0668,33.9905,33.7389,33.7427,34.3134,33.9516,
22:6:18:5:32:24:838,0.1000,197.0000,32.4000,A,27.6920,97.2561,27.6400,99691,136.9349,0,0.0000,0.0000,0.0000,0.0000,0.0000,0.0000,0,0.0000,0.0000,0.0000,0.0000,0.0000,0.0000,0,0,0,0,0,0,0,0.00,0.00,0.00,0,
22:6:18:5:32:24:954,0.1000,210.0000,32.3000,A,27.6985,97.2557,27.6300,99696,136.5132,0,0.0000,0.0000,0.0000,0.0000,0.0000,0.0000,0,0.0000,0.0000,0.0000,0.0000,0.0000,0.0000,0,0,0,0,0,0,0,0.00,0.00,0.00,0,
22:6:18:5:32:25:62,0.1000,210.0000,32.3000,A,27.7082,97.2585,27.6400,99692,136.8506,0,0.0000,0.0000,0.0000,0.0000,0.0000,0.0000,0,0.0000,0.0000,0.0000,0.0000,0.0000,0.0000,0,0,0,0,0,0,0,0.00,0.00,0.00,0,
22:6:18:5:32:25:178,0.1000,210.0000,32.3000,A,27.7058,97.2584,27.6400,99692,136.8506,0,0.0000,0.0000,0.0000,0.0000,0.0000,0.0000,0,0.0000,0.0000,0.0000,0.0000,0.0000,0.0000,0,0,0,0,0,0,0,0.00,0.00,0.00,0,
22:6:18:5:32:25:282,0.1000,210.0000,32.3000,A,27.7176,97.2491,27.6500,99696,136.5132,0,0.0000,0.0000,0.0000,0.0000,0.0000,0.0000,0,0.0000,0.0000,0.0000,0.0000,0.0000,0.0000,0,0,0,0,0,0,0,0.00,0.00,0.00,0,
22:6:18:5:32:25:402,0.1000,203.0000,32.3000,A,27.7117,97.2570,27.6400,99693,136.7662,0,0.0000,0.0000,0.0000,0.0000,0.0000,0.0000,0,0.0000,0.0000,0.0000,0.0000,0.0000,0.0000,0,0,0,0,0,0,0,0.00,0.00,0.00,0,
22:6:18:5:32:25:506,0.1000,203.0000,32.3000,A,27.7208,97.2494,27.6500,99693,136.7662,0,0.0000,0.0000,0.0000,0.0000,0.0000,0.0000,0,0.0000,0.0000,0.0000,0.0000,0.0000,0.0000,0,0,0,0,0,0,0,0.00,0.00,0.00,0,
22:6:18:5:32:25:626,0.1000,185.0000,32.3000,A,27.7155,97.2316,27.6500,99694,136.6819,0,0.0000,0.0000,0.0000,0.0000,0.0000,0.0000,0,0.0000,0.0000,0.0000,0.0000,0.0000,0.0000,0,0,0,0,0,0,0,0.00,0.00,0.00,0,
