Timestamp,Wind speed,Wind angle,Acoustic temperature windsensor,Temperature validity,Temperature_aht10,Relative humidity_aht10,Temperature_ms5611,Pressure_ms5611,Absolute_altitude_ms5611,timestamp_pix_attitude,Roll,Pitch,Yaw,Roll speed,Pitch speed,Yaw speed,timestamp_pix_loc_pos,x,y,z,vx,vy,vz,timestamp_pix_gps,pix_lat,pix_lon,pix_alt,pix_gps_vx,pix_gps_vy,pix_gps_vz,latitude,longitude,altitude_gps,relative_altitude_gps,Pixel_0,Pixel_1,Pixel_2,Pixel_3,Pixel_4,Pixel_5,Pixel_6,Pixel_7,Pixel_8,Pixel_9,Pixel_10,Pixel_11,Pixel_12,Pixel_13,Pixel_14,Pixel_15,Pixel_16,Pixel_17,Pixel_18,Pixel_19,Pixel_20,Pixel_21,Pixel_22,Pixel_23,Pixel_24,Pixel_25,Pixel_26,Pixel_27,Pixel_28,Pixel_29,Pixel_30,Pixel_31,Pixel_32,Pixel_33,Pixel_34,Pixel_35,Pixel_36,Pixel_37,Pixel_38,Pixel_39,Pixel_40,Pixel_41,Pixel_42,Pixel_43,Pixel_44,Pixel_45,Pixel_46,Pixel_47,Pixel_48,Pixel_49,Pixel_50,Pixel_51,Pixel_52,Pixel_53,Pixel_54,Pixel_55,Pixel_56,Pixel_57,Pixel_58,Pixel_59,Pixel_60,Pixel_61,Pixel_62,Pixel_63,Pixel_64,Pixel_65,Pixel_66,Pixel_67,Pixel_68,Pixel_69,Pixel_70,Pixel_71,Pixel_72,Pixel_73,Pixel_74,Pixel_75,Pixel_76,Pixel_77,Pixel_78,Pixel_79,Pixel_80,Pixel_81,Pixel_82,Pixel_83,Pixel_84,Pixel_85,Pixel_86,Pixel_87,Pixel_88,Pixel_89,Pixel_90,Pixel_91,Pixel_92,Pixel_93,Pixel_94,Pixel_95,Pixel_96,Pixel_97,Pixel_98,Pixel_99,Pixel_100,Pixel_101,Pixel_102,Pixel_103,Pixel_104,Pixel_105,Pixel_106,Pixel_107,Pixel_108,Pixel_109,Pixel_110,Pixel_111,Pixel_112,Pixel_113,Pixel_114,Pixel_115,Pixel_116,Pixel_117,Pixel_118,Pixel_119,Pixel_120,Pixel_121,Pixel_122,Pixel_123,Pixel_124,Pixel_125,Pixel_126,Pixel_127,Pixel_128,Pixel_129,Pixel_130,Pixel_131,Pixel_132,Pixel_133,Pixel_134,Pixel_135,Pixel_136,Pixel_137,Pixel_138,Pixel_139,Pixel_140,Pixel_141,Pixel_142,Pixel_143,Pixel_144,Pixel_145,Pixel_146,Pixel_147,Pixel_148,Pixel_149,Pixel_150,Pixel_151,Pixel_152,Pixel_153,Pixel_154,Pixel_155,Pixel_156,Pixel_157,Pixel_158,Pixel_159,Pixel_160,Pixel_161,Pixel_162,Pixel_163,Pixel_164,Pixel_165,Pixel_166,Pixel_167,Pixel_168,Pixel_169,Pixel_170,Pixel_171,Pixel_172,Pixel_173,Pixel_174,Pixel_175,Pixel_176,Pixel_177,Pixel_178,Pixel_179,Pixel_180,Pixel_181,Pixel_182,Pixel_183,Pixel_184,Pixel_185,Pixel_186,Pixel_187,Pixel_188,Pixel_189,Pixel_190,Pixel_191,Pixel_192,Pixel_193,Pixel_194,Pixel_195,Pixel_196,Pixel_197,Pixel_198,Pixel_199,Pixel_200,Pixel_201,Pixel_202,Pixel_203,Pixel_204,Pixel_205,Pixel_206,Pixel_207,Pixel_208,Pixel_209,Pixel_210,Pixel_211,Pixel_212,Pixel_213,Pixel_214,Pixel_215,Pixel_216,Pixel_217,Pixel_218,Pixel_219,Pixel_220,Pixel_221,Pixel_222,Pixel_223,Pixel_224,Pixel_225,Pixel_226,Pixel_227,Pixel_228,Pixel_229,Pixel_230,Pixel_231,Pixel_232,Pixel_233,Pixel_234,Pixel_235,Pixel_236,Pixel_237,Pixel_238,Pixel_239,Pixel_240,Pixel_241,Pixel_242,Pixel_243,Pixel_244,Pixel_245,Pixel_246,Pixel_247,Pixel_248,Pixel_249,Pixel_250,Pixel_251,Pixel_252,Pixel_253,Pixel_254,Pixel_255,Pixel_256,Pixel_257,Pixel_258,Pixel_259,Pixel_260,Pixel_261,Pixel_262,Pixel_263,Pixel_264,Pixel_265,Pixel_266,Pixel_267,Pixel_268,Pixel_269,Pixel_270,Pixel_271,Pixel_272,Pixel_273,Pixel_274,Pixel_275,Pixel_276,Pixel_277,Pixel_278,Pixel_279,Pixel_280,Pixel_281,Pixel_282,Pixel_283,Pixel_284,Pixel_285,Pixel_286,Pixel_287,Pixel_288,Pixel_289,Pixel_290,Pixel_291,Pixel_292,Pixel_293,Pixel_294,Pixel_295,Pixel_296,Pixel_297,Pixel_298,Pixel_299,Pixel_300,Pixel_301,Pixel_302,Pixel_303,Pixel_304,Pixel_305,Pixel_306,Pixel_307,Pixel_308,Pixel_309,Pixel_310,Pixel_311,Pixel_312,Pixel_313,Pixel_314,Pixel_315,Pixel_316,Pixel_317,Pixel_318,Pixel_319,Pixel_320,Pixel_321,Pixel_322,Pixel_323,Pixel_324,Pixel_325,Pixel_326,Pixel_327,Pixel_328,Pixel_329,Pixel_330,Pixel_331,Pixel_332,Pixel_333,Pixel_334,Pixel_335,Pixel_336,Pixel_337,Pixel_338,Pixel_339,Pixel_340,Pixel_341,Pixel_342,Pixel_343,Pixel_344,Pixel_345,Pixel_346,Pixel_347,Pixel_348,Pixel_349,Pixel_350,Pixel_351,Pixel_352,Pixel_353,Pixel_354,Pixel_355,Pixel_356,Pixel_357,Pixel_358,Pixel_359,Pixel_360,Pixel_361,Pixel_362,Pixel_363,Pixel_364,Pixel_365,Pixel_366,Pixel_367,Pixel_368,Pixel_369,Pixel_370,Pixel_371,Pixel_372,Pixel_373,Pixel_374,Pixel_375,Pixel_376,Pixel_377,Pixel_378,Pixel_379,Pixel_380,Pixel_381,Pixel_382,Pixel_383,Pixel_384,Pixel_385,Pixel_386,Pixel_387,Pixel_388,Pixel_389,Pixel_390,Pixel_391,Pixel_392,Pixel_393,Pixel_394,Pixel_395,Pixel_396,Pixel_397,Pixel_398,Pixel_399,Pixel_400,Pixel_401,Pixel_402,Pixel_403,Pixel_404,Pixel_405,Pixel_406,Pixel_407,Pixel_408,Pixel_409,Pixel_410,Pixel_411,Pixel_412,Pixel_413,Pixel_414,Pixel_415,Pixel_416,Pixel_417,Pixel_418,Pixel_419,Pixel_420,Pixel_421,Pixel_422,Pixel_423,Pixel_424,Pixel_425,Pixel_426,Pixel_427,Pixel_428,Pixel_429,Pixel_430,Pixel_431,Pixel_432,Pixel_433,Pixel_434,Pixel_435,Pixel_436,Pixel_437,Pixel_438,Pixel_439,Pixel_440,Pixel_441,Pixel_442,Pixel_443,Pixel_444,Pixel_445,Pixel_446,Pixel_447,Pixel_448,Pixel_449,Pixel_450,Pixel_451,Pixel_452,Pixel_453,Pixel_454,Pixel_455,Pixel_456,Pixel_457,Pixel_458,Pixel_459,Pixel_460,Pixel_461,Pixel_462,Pixel_463,Pixel_464,Pixel_465,Pixel_466,Pixel_467,Pixel_468,Pixel_469,Pixel_470,Pixel_471,Pixel_472,Pixel_473,Pixel_474,Pixel_475,Pixel_476,Pixel_477,Pixel_478,Pixel_479,Pixel_480,Pixel_481,Pixel_482,Pixel_483,Pixel_484,Pixel_485,Pixel_486,Pixel_487,Pixel_488,Pixel_489,Pixel_490,Pixel_491,Pixel_492,Pixel_493,Pixel_494,Pixel_495,Pixel_496,Pixel_497,Pixel_498,Pixel_499,Pixel_500,Pixel_501,Pixel_502,Pixel_503,Pixel_504,Pixel_505,Pixel_506,Pixel_507,Pixel_508,Pixel_509,Pixel_510,Pixel_511,Pixel_512,Pixel_513,Pixel_514,Pixel_515,Pixel_516,Pixel_517,Pixel_518,Pixel_519,Pixel_520,Pixel_521,Pixel_522,Pixel_523,Pixel_524,Pixel_525,Pixel_526,Pixel_527,Pixel_528,Pixel_529,Pixel_530,Pixel_531,Pixel_532,Pixel_533,Pixel_534,Pixel_535,Pixel_536,Pixel_537,Pixel_538,Pixel_539,Pixel_540,Pixel_541,Pixel_542,Pixel_543,Pixel_544,Pixel_545,Pixel_546,Pixel_547,Pixel_548,Pixel_549,Pixel_550,Pixel_551,Pixel_552,Pixel_553,Pixel_554,Pixel_555,Pixel_556,Pixel_557,Pixel_558,Pixel_559,Pixel_560,Pixel_561,Pixel_562,Pixel_563,Pixel_564,Pixel_565,Pixel_566,Pixel_567,Pixel_568,Pixel_569,Pixel_570,Pixel_571,Pixel_572,Pixel_573,Pixel_574,Pixel_575,Pixel_576,Pixel_577,Pixel_578,Pixel_579,Pixel_580,Pixel_581,Pixel_582,Pixel_583,Pixel_584,Pixel_585,Pixel_586,Pixel_587,Pixel_588,Pixel_589,Pixel_590,Pixel_591,Pixel_592,Pixel_593,Pixel_594,Pixel_595,Pixel_596,Pixel_597,Pixel_598,Pixel_599,Pixel_600,Pixel_601,Pixel_602,Pixel_603,Pixel_604,Pixel_605,Pixel_606,Pixel_607,Pixel_608,Pixel_609,Pixel_610,Pixel_611,Pixel_612,Pixel_613,Pixel_614,Pixel_615,Pixel_616,Pixel_617,Pixel_618,Pixel_619,Pixel_620,Pixel_621,Pixel_622,Pixel_623,Pixel_624,Pixel_625,Pixel_626,Pixel_627,Pixel_628,Pixel_629,Pixel_630,Pixel_631,Pixel_632,Pixel_633,Pixel_634,Pixel_635,Pixel_636,Pixel_637,Pixel_638,Pixel_639,Pixel_640,Pixel_641,Pixel_642,Pixel_643,Pixel_644,Pixel_645,Pixel_646,Pixel_647,Pixel_648,Pixel_649,Pixel_650,Pixel_651,Pixel_652,Pixel_653,Pixel_654,Pixel_655,Pixel_656,Pixel_657,Pixel_658,Pixel_659,Pixel_660,Pixel_661,Pixel_662,Pixel_663,Pixel_664,Pixel_665,Pixel_666,Pixel_667,Pixel_668,Pixel_669,Pixel_670,Pixel_671,Pixel_672,Pixel_673,Pixel_674,Pixel_675,Pixel_676,Pixel_677,Pixel_678,Pixel_679,Pixel_680,Pixel_681,Pixel_682,Pixel_683,Pixel_684,Pixel_685,Pixel_686,Pixel_687,Pixel_688,Pixel_689,Pixel_690,Pixel_691,Pixel_692,Pixel_693,Pixel_694,Pixel_695,Pixel_696,Pixel_697,Pixel_698,Pixel_699,Pixel_700,Pixel_701,Pixel_702,Pixel_703,Pixel_704,Pixel_705,Pixel_706,Pixel_707,Pixel_708,Pixel_709,Pixel_710,Pixel_711,Pixel_712,Pixel_713,Pixel_714,Pixel_715,Pixel_716,Pixel_717,Pixel_718,Pixel_719,Pixel_720,Pixel_721,Pixel_722,Pixel_723,Pixel_724,Pixel_725,Pixel_726,Pixel_727,Pixel_728,Pixel_729,Pixel_730,Pixel_731,Pixel_732,Pixel_733,Pixel_734,Pixel_735,Pixel_736,Pixel_737,Pixel_738,Pixel_739,Pixel_740,Pixel_741,Pixel_742,Pixel_743,Pixel_744,Pixel_745,Pixel_746,Pixel_747,Pixel_748,Pixel_749,Pixel_750,Pixel_751,Pixel_752,Pixel_753,Pixel_754,Pixel_755,Pixel_756,Pixel_757,Pixel_758,Pixel_759,Pixel_760,Pixel_761,Pixel_762,Pixel_763,Pixel_764,Pixel_765,Pixel_766,Pixel_767,
22:6:18:5:23:16:557,0.0000,0.0000,0.0000,,0.0000,0.0000,27.4500,99692,136.8506,0,0.0000,0.0000,0.0000,0.0000,0.0000,0.0000,0,0.0000,0.0000,0.0000,0.0000,0.0000,0.0000,0,0,0,0,0,0,0,0.00,0.00,0.00,0,
22:6:18:5:23:16:650,0.0000,0.0000,0.0000,,0.0000,0.0000,27.4700,99691,136.9349,0,0.0000,0.0000,0.0000,0.0000,0.0000,0.0000,0,0.0000,0.0000,0.0000,0.0000,0.0000,0.0000,0,0,0,0,0,0,0,0.00,0.00,0.00,0,
22:6:18:5:23:16:759,0.0000,0.0000,0.0000,,0.0000,0.0000,27.4800,99692,136.8506,0,0.0000,0.0000,0.0000,0.0000,0.0000,0.0000,0,0.0000,0.0000,0.0000,0.0000,0.0000,0.0000,0,0,0,0,0,0,0,0.00,0.00,0.00,0,
22:6:18:5:23:16:851,0.0000,0.0000,0.0000,,0.0000,0.0000,27.4900,99691,136.9349,0,0.0000,0.0000,0.0000,0.0000,0.0000,0.0000,0,0.0000,0.0000,0.0000,0.0000,0.0000,0.0000,0,0,0,0,0,0,0,0.00,0.00,0.00,0,
22:6:18:5:23:16:943,0.0000,0.0000,0.0000,,0.0000,0.0000,27.5000,99692,136.8506,0,0.0000,0.0000,0.0000,0.0000,0.0000,0.0000,0,0.0000,0.0000,0.0000,0.0000,0.0000,0.0000,0,0,0,0,0,0,0,0.00,0.00,0.00,0,
22:6:18:5:23:17:52,0.0000,0.0000,0.0000,,0.0000,0.0000,27.5000,99692,136.8506,0,0.0000,0.0000,0.0000,0.0000,0.0000,0.0000,0,0.0000,0.0000,0.0000,0.0000,0.0000,0.0000,0,0,0,0,0,0,0,0.00,0.00,0.00,0,
22:6:18:5:23:17:144,0.0000,0.0000,0.0000,,0.0000,0.0000,27.5100,99695,136.5975,0,0.0000,0.0000,0.0000,0.0000,0.0000,0.0000,0,0.0000,0.0000,0.0000,0.0000,0.0000,0.0000,0,0,0,0,0,0,0,0.00,0.00,0.00,0,
22:6:18:5:23:17:253,0.0000,358.0000,0.0000,,0.0000,0.0000,27.5100,99694,136.6819,0,0.0000,0.0000,0.0000,0.0000,0.0000,0.0000,0,0.0000,0.0000,0.0000,0.0000,0.0000,0.0000,0,0,0,0,0,0,0,0.00,0.00,0.00,0,
22:6:18:5:23:17:346,0.0000,358.0000,0.0000,,0.0000,0.0000,27.5100,99695,136.5975,0,0.0000,0.0000,0.0000,0.0000,0.0000,0.0000,0,0.0000,0.0000,0.0000,0.0000,0.0000,0.0000,0,0,0,0,0,0,0,0.00,0.00,0.00,0,
22:6:18:5:23:17:439,0.0000,358.0000,0.0000,,0.0000,0.0000,27.5200,99695,136.5975,0,0.0000,0.0000,0.0000,0.0000,0.0000,0.0000,0,0.0000,0.0000,0.0000,0.0000,0.0000,0.0000,0,0,0,0,0,0,0,0.00,0.00,0.00,0,
22:6:18:5:23:17:548,0.2000,116.0000,36.4000,A,0.0000,0.0000,27.5100,99694,136.6819,0,0.0000,0.0000,0.0000,0.0000,0.0000,0.0000,0,0.0000,0.0000,0.0000,0.0000,0.0000,0.0000,0,0,0,0,0,0,0,0.00,0.00,0.00,0,531.4143,27.0980,537.3193,28.3302,539.3726,28.0701,541.8867,28.3239,543.2023,28.6745,543.6724,28.7183,543.0234,28.3020,545.7875,28.5385,543.8481,28.3273,543.6074,28.3788,542.5807,28.3606,541.5273,28.4219,539.4594,27.5785,537.8555,27.5971,532.8164,27.1101,529.9786,27.6885,27.0103,537.4875,28.0652,539.8143,27.6053,541.5781,28.4601,543.1306,28.3733,543.6932,28.4273,544.5690,28.3616,542.8989,28.7775,543.3414,28.5150,543.9651,28.4299,543.3797,28.3602,540.6611,28.8286,539.4290,28.2027,537.2285,28.9322,534.8243,27.8019,531.2447,27.6305,525.1748,533.2414,27.4215,539.1773,27.9097,539.6467,28.2809,544.7037,28.7030,544.4423,28.4776,546.2164,28.6787,544.2358,28.7984,544.4309,28.6860,545.2324,28.6736,544.8201,28.7096,543.6368,28.5212,541.6671,28.5867,541.2799,28.0202,537.7940,28.0751,535.1624,27.6453,532.4489,27.2514,27.5414,538.7003,28.0688,541.5454,28.0126,543.3184,28.6220,544.2765,28.5356,545.1151,28.7561,545.6893,28.6806,545.8028,28.5867,544.1631,28.6624,543.6694,28.5834,543.6013,28.8762,542.1541,28.2646,541.2195,28.7316,539.0930,28.4865,536.9402,28.2367,533.8421,27.8870,527.9518,536.3082,27.9104,540.1517,27.9284,541.9774,28.2882,544.1019,28.4941,545.4418,28.7987,545.8322,28.8311,545.7629,28.7828,546.2314,28.8231,545.1833,28.6358,546.0093,28.5119,544.7520,28.3218,542.8712,28.5573,541.5443,28.9155,539.1069,28.4746,536.4656,28.2584,534.0886,27.7394,28.0123,538.2501,28.0597,542.3240,28.5779,543.9202,28.6124,545.0830,28.3314,545.7657,28.5734,544.9393,28.8304,544.7982,28.7398,545.0612,28.9787,544.5896,28.5757,544.1003,28.5152,542.8537,28.9473,542.1926,28.5448,540.1734,28.4687,538.0991,28.4634,535.0128,27.8852,529.4471,536.5134,27.6848,541.3915,28.7194,541.8922,28.2793,545.0881,28.6515,544.8327,28.6074,546.3183,29.1247,545.4810,28.5987,546.6965,28.8045,546.7062,28.6210,546.1895,28.8356,544.9799,28.8126,543.2463,28.5628,542.1953,28.3626,540.3068,28.0803,538.6527,28.2618,533.8257,28.1670,28.0586,540.4263,28.1142,541.3248,28.0320,544.4065,28.7941,544.1677,28.6859,544.4969,28.9136,545.3024,28.9956,545.1747,29.2039,545.3470,28.6550,544.5475,29.0560,544.3925,28.6865,543.5408,28.6032,542.4584,28.7166,540.5417,28.4811,539.2353,28.2540,535.9987,28.3291,530.8965,536.8719,28.0984,541.6083,28.5172,542.1663,28.2768,543.8804,28.6528,544.8090,28.4437,546.6674,28.9585,545.7559,28.7512,546.9549,29.1152,546.4499,28.6070,545.2319,28.9762,543.9071,28.6389,543.5767,29.0525,542.1728,28.3793,540.8746,28.4343,537.0448,28.2495,536.2940,27.9718,28.0654,538.8395,28.1159,541.3088,28.4277,542.8307,28.6256,544.1747,28.3832,544.4963,28.7478,545.1636,28.9988,544.9660,28.7435,545.2286,28.6669,544.5718,28.7403,544.2280,28.5308,543.3011,28.9355,542.3232,28.7288,540.9562,28.4796,539.3210,28.4561,536.4482,27.9350,531.7842,536.5638,28.0987,541.8188,28.5266,542.9780,28.6184,543.6501,28.8144,545.4142,28.7614,545.9408,28.9683,546.2863,28.7548,544.9837,29.2723,545.4149,28.9367,544.9830,28.6729,543.9312,28.8150,543.4678,28.8676,542.2624,28.8846,540.3306,28.7960,538.4808,28.6322,535.8574,27.7722,28.0847,538.4377,28.3445,541.3281,28.2534,542.6602,28.6287,543.6160,28.7012,543.9683,28.7628,544.5806,28.5263,544.7939,29.0569,544.9389,28.6629,544.2978,28.9053,544.1705,28.8425,543.1545,28.7777,542.4260,28.5650,540.4282,28.8392,538.9084,27.9289,536.4955,28.1669,531.2765,533.8345,27.6997,538.9957,28.3334,541.6539,28.2909,542.7686,28.6545,543.9612,28.7730,544.1140,29.1246,544.5989,28.7530,544.6429,28.6442,545.4304,28.4775,544.2288,29.1570,544.1261,28.8179,542.9438,28.5635,541.6367,28.3916,540.0659,28.6265,538.2496,28.6406,533.9504,28.5806,27.7376,537.1017,28.3737,540.3076,28.4523,541.9053,28.4993,543.0424,28.7369,543.3266,29.1080,544.2367,28.8762,544.1156,28.7645,544.1343,28.2303,543.7798,28.9223,543.2249,28.7209,542.7377,29.1194,541.5369,28.5766,540.0537,28.7041,538.6251,28.4887,535.9348,28.1994,531.0522,533.9161,28.1447,537.5952,28.7193,539.7480,28.9846,541.6453,28.8301,541.7416,28.8001,543.1084,28.4988,543.3964,28.6151,543.8017,29.1227,544.8610,28.6266,543.2426,28.8562,543.4764,28.8272,542.0558,28.9052,540.4934,28.7341,538.8950,28.8174,536.7733,27.9178,534.9300,28.3955,27.7825,535.7963,28.2271,538.8039,28.3343,540.4684,28.5344,541.6223,28.9342,542.3326,28.9790,543.1423,28.7563,543.2268,28.9539,542.8907,28.7352,542.6591,29.1170,542.4277,28.7423,541.6190,28.8453,540.7316,28.6175,539.2007,28.3866,536.0711,28.5212,535.2526,28.6168,529.8214,531.8093,28.1283,534.1357,28.5710,538.6422,28.6751,539.7859,29.2127,541.8815,28.8189,543.0115,29.0161,543.0483,29.1033,543.3890,28.8567,542.5180,28.8152,542.0115,29.0347,541.0884,28.8541,540.5569,28.7572,538.6923,28.2379,537.0136,28.6614,533.7302,28.4718,532.3613,28.6180,28.0076,534.3635,28.4599,537.1907,28.3693,539.0616,28.7485,540.3058,28.6479,540.8111,28.6973,541.2003,28.7823,541.9105,28.9938,541.5606,28.9022,541.4512,28.9980,541.4446,28.9464,540.2051,28.7148,539.4590,28.6382,535.9209,28.5896,535.8533,28.5519,533.4332,28.4576,528.1688,526.9772,28.3899,533.0192,28.4216,535.4514,28.7214,537.7164,28.9184,539.2360,28.8521,540.0621,29.2198,540.6638,28.6760,540.6686,29.2103,541.5203,28.6892,540.3068,29.0822,540.4480,28.8818,538.8818,28.9825,536.7972,28.6126,535.6739,28.6895,533.4008,28.3017,530.1810,28.6403,27.6342,531.2421,28.3187,534.5594,28.4364,536.6461,28.6471,538.1791,28.7215,538.7877,28.7533,539.9019,29.0001,540.0679,29.3746,540.0147,28.9703,539.5233,29.0501,539.3359,28.8394,538.7245,28.7659,537.8385,28.8556,534.0876,29.1875,532.3314,28.7892,531.2206,28.5135,523.4857,522.1329,27.7889,529.2822,28.4561,532.2490,28.2004,534.9676,29.1488,536.5768,28.7243,537.8334,29.4381,538.2746,28.7139,538.3901,29.0922,537.9456,28.3973,538.4501,29.2888,536.4622,28.5885,536.4778,29.0084,536.3920,28.8247,533.1464,28.5348,530.2717,28.1274,527.3068,29.1427,27.2991,527.8998,27.7814,531.2920,28.3317,531.6552,28.5122,535.5436,28.4402,536.4283,28.9995,537.3758,28.5785,537.5950,28.9537,537.8260,28.6976,535.8533,29.3007,537.1776,28.7348,536.1774,28.8319,535.1069,28.5927,531.5318,28.8945,531.2527,28.2666,528.1022,28.5700,519.9548,521.0892,27.7908,525.4612,28.5008,529.7468,28.4302,531.2811,29.0408,533.7894,28.4223,534.2193,29.3545,536.2122,28.4084,535.5569,29.1426,537.6001,28.7649,535.7607,29.3468,534.7669,28.6177,533.7507,29.2481,532.8196,28.3065,528.5981,28.5936,526.1313,28.3587,524.0753,28.5208,27.4322,519.9388,28.1501,522.0535,28.2406,524.6630,28.3181,526.6133,28.1988,528.3533,28.8045,531.2055,28.8620,530.2098,29.1201,532.5939,29.0044,532.6480,29.2906,532.1473,28.5170,531.1941,28.9781,527.6663,28.3447,527.2770,29.0731,524.2427,28.4159,521.7719,28.5279,511.5123,
22:6:18:5:23:17:708,0.2000,116.0000,36.4000,A,0.0000,0.0000,27.5100,99689,137.1037,0,0.0000,0.0000,0.0000,0.0000,0.0000,0.0000,0,0.0000,0.0000,0.0000,0.0000,0.0000,0.0000,0,0,0,0,0,0,0,0.00,0.00,0.00,0,
22:6:18:5:23:17:814,0.1000,272.0000,35.3000,A,0.0000,0.0000,27.5100,99693,136.7662,0,0.0000,0.0000,0.0000,0.0000,0.0000,0.0000,0,0.0000,0.0000,0.0000,0.0000,0.0000,0.0000,0,0,0,0,0,0,0,0.00,0.00,0.00,0,
22:6:18:5:23:17:911,0.1000,272.0000,35.3000,A,0.0000,0.0000,27.5100,99693,136.7662,0,0.0000,0.0000,0.0000,0.0000,0.0000,0.0000,0,0.0000,0.0000,0.0000,0.0000,0.0000,0.0000,0,0,0,0,0,0,0,0.00,0.00,0.00,0,
22:6:18:5:23:18:17,0.1000,282.0000,34.8000,A,0.0000,0.0000,27.5200,99691,136.9349,0,0.0000,0.0000,0.0000,0.0000,0.0000,0.0000,0,0.0000,0.0000,0.0000,0.0000,0.0000,0.0000,0,0,0,0,0,0,0,0.00,0.00,0.00,0,
22:6:18:5:23:18:114,0.1000,282.0000,34.8000,A,0.0000,0.0000,27.5200,99695,136.5975,0,0.0000,0.0000,0.0000,0.0000,0.0000,0.0000,0,0.0000,0.0000,0.0000,0.0000,0.0000,0.0000,0,0,0,0,0,0,0,0.00,0.00,0.00,0,
22:6:18:5:23:18:220,0.1000,254.0000,34.2000,A,0.0000,0.0000,27.5200,99694,136.6819,0,0.0000,0.0000,0.0000,0.0000,0.0000,0.0000,0,0.0000,0.0000,0.0000,0.0000,0.0000,0.0000,0,0,0,0,0,0,0,0.00,0.00,0.00,0,
22:6:18:5:23:18:313,0.1000,254.0000,34.2000,A,0.0000,0.0000,27.5300,99690,137.0193,0,0.0000,0.0000,0.0000,0.0000,0.0000,0.0000,0,0.0000,0.0000,0.0000,0.0000,0.0000,0.0000,0,0,0,0,0,0,0,0.00,0.00,0.00,0,
22:6:18:5:23:18:423,0.1000,289.0000,33.6000,A,0.0000,0.0000,27.5300,99693,136.7662,0,0.0000,0.0000,0.0000,0.0000,0.0000,0.0000,0,0.0000,0.0000,0.0000,0.0000,0.0000,0.0000,0,0,0,0,0,0,0,0.00,0.00,0.00,0,
22:6:18:5:23:18:516,0.1000,289.0000,33.6000,A,0.0000,0.0000,27.5300,99691,136.9349,0,0.0000,0.0000,0.0000,0.0000,0.0000,0.0000,0,0.0000,0.0000,0.0000,0.0000,0.0000,0.0000,0,0,0,0,0,0,0,0.00,0.00,0.00,0,28.7982,29.1846,28.9470,29.6152,29.1150,29.0578,29.2530,29.6687,29.2037,29.5776,29.3769,30.3456,29.7171,29.1771,29.4994,30.1294,29.5044,29.5548,28.9979,30.0005,29.3683,29.4343,29.0454,29.5458,29.4687,28.9628,28.9302,29.2748,29.0138,28.6386,28.5799,29.3181,28.8788,28.7906,29.3406,29.4201,29.3960,29.3438,29.5929,29.2892,29.6449,29.2526,29.8592,29.4089,29.7580,29.2413,29.8015,29.7628,29.8913,29.2281,29.4826,29.6106,29.2380,29.4811,30.0931,29.5439,29.7093,29.6151,29.4960,29.0760,29.2691,28.9329,29.4484,29.0574,29.0098,28.7059,28.6876,29.5329,29.2739,29.6050,29.1891,29.4092,29.6886,29.6924,29.4761,29.8637,29.6270,29.6249,29.2924,29.8538,29.7794,29.8414,29.6425,29.5459,29.6550,29.5376,29.5524,29.8078,29.7600,29.1253,29.3070,29.6400,29.1717,29.2476,28.5600,28.7885,29.3028,28.7752,29.7013,29.1378,29.1381,29.2705,30.0775,29.5993,29.5639,29.5491,29.7640,29.8581,29.6602,29.4958,29.9088,29.8559,29.9882,29.7035,29.9142,29.7186,29.8720,29.5847,30.0050,29.6291,29.2431,28.9711,29.4157,29.4201,29.2078,29.2946,29.5986,29.2348,28.9426,29.1244,29.7077,29.2815,29.5920,29.3693,29.5212,29.5439,29.6111,29.4584,29.4359,29.8265,29.8923,29.9166,29.5744,29.9535,29.8890,29.5971,29.2525,29.8177,29.9307,29.3084,29.3189,30.0964,29.6918,29.5961,29.4515,29.5570,29.3301,29.0117,29.1992,29.8493,28.8114,29.1950,29.4402,29.6997,29.1022,29.4225,29.8173,29.5570,29.6696,29.6737,30.0430,29.8440,30.1064,29.9743,30.0147,29.6431,29.9373,29.6456,29.7069,29.6753,29.8214,29.8757,29.9370,29.7618,29.7358,29.2959,29.5452,29.7310,29.1914,29.2631,29.1055,28.9831,29.1500,29.0656,28.8564,29.6449,29.7341,29.8354,29.4776,29.8327,29.7505,29.5755,29.5693,30.0735,29.8728,29.5387,30.0195,30.0805,29.6763,30.0507,29.7128,30.2715,29.8725,29.7693,29.6430,29.7282,30.1352,29.3766,29.5712,29.5029,29.6414,29.1775,29.1710,29.3650,28.8355,28.9549,29.4208,29.2983,29.4373,29.5550,29.6334,29.5346,29.6459,29.8117,29.8691,29.7872,29.4613,29.7683,29.9817,29.9436,29.9050,29.9541,30.1510,29.9670,29.9445,29.6692,30.0865,29.7310,29.8609,29.6236,29.8639,29.5103,29.3386,29.6068,29.6924,29.1660,29.3399,29.4508,29.2304,29.9746,29.3394,29.6373,29.6381,30.1379,29.8941,29.7447,29.7014,30.3809,30.0020,29.9805,29.9964,30.1932,29.8081,29.8458,29.7165,30.3787,29.8668,29.7236,29.7661,30.0116,29.6386,29.8666,29.5531,29.4809,29.6403,29.5245,29.1344,29.5340,29.2280,29.1706,29.9541,29.4690,29.6110,29.7389,29.7840,29.5132,29.8137,29.8188,29.8473,29.7834,29.9253,29.9089,29.9782,29.7510,30.1903,29.9225,30.0000,29.7884,30.0870,29.8056,30.0461,30.1909,29.7111,29.5887,29.6821,29.3221,29.7004,29.2149,29.4779,29.3410,29.3131,29.6374,29.2218,29.7784,29.6646,29.8074,29.4605,29.6324,29.5552,29.7047,29.7132,30.2261,29.9741,29.9901,29.6888,30.0443,30.1060,29.5497,30.0096,30.3866,30.1683,30.0753,29.6066,30.1558,29.7878,29.6941,29.5423,29.6337,29.4356,29.6920,29.1422,29.5189,29.2336,29.1782,29.6145,29.2801,29.7733,29.7449,29.6088,29.6978,29.8103,29.6454,30.0158,29.9478,29.9130,29.6073,30.2704,29.4565,29.8745,30.0769,30.1342,29.6325,29.9253,29.9819,30.2173,29.3789,30.0278,29.7615,30.1749,29.6629,29.8714,29.3914,29.8795,29.5502,29.7770,29.2369,29.4460,29.9495,29.8823,29.6288,29.6469,29.9590,30.0618,30.0395,29.8964,30.0611,29.9979,29.6670,29.9947,30.3401,29.9684,29.6883,29.8656,30.2388,29.7134,29.9019,29.7696,30.5052,29.7972,30.0182,29.9007,29.9922,29.6052,29.6826,29.3508,29.5139,29.2954,29.4040,29.8207,29.4827,29.8246,29.4041,29.9835,29.6970,29.8438,29.8252,30.0448,29.7980,30.4019,29.9193,30.2795,29.9331,29.8975,29.7658,29.8427,29.8085,30.1122,29.5031,29.9057,29.7281,29.8683,29.7658,30.2311,29.6745,29.8814,29.3985,29.7041,29.5538,29.3918,29.4581,29.6572,29.9632,29.9069,29.6371,29.6637,29.8051,29.9440,30.0627,29.9042,30.3317,30.0202,30.1429,29.7040,30.5002,29.9862,30.1441,29.7362,30.4011,29.8863,29.7483,29.7992,30.3509,29.6629,29.5525,29.5829,30.3508,29.6436,29.8710,28.9613,30.1331,29.1452,29.6188,29.6728,29.5211,30.0358,29.7751,29.8469,29.5725,29.7287,29.8456,30.0688,29.7990,29.9764,29.7905,30.1681,29.9602,30.1088,29.9504,30.1950,30.1280,30.1403,29.8338,30.1329,29.9063,30.2544,29.4675,30.0958,29.5394,29.7411,29.2353,29.5474,29.7835,29.8185,29.4744,29.3407,29.8420,29.7724,30.0283,29.8864,30.0220,29.9576,30.0986,29.4701,30.2839,30.6497,29.8702,29.7429,30.2613,30.2021,29.9063,29.7733,29.9647,30.2362,29.7956,29.6747,30.0563,29.6980,29.5767,29.2806,30.0473,29.6981,29.7294,29.4144,29.7635,29.3855,29.2678,29.9231,29.5703,30.1031,29.8228,30.0774,29.5971,30.0907,30.0613,29.9807,29.8842,29.7108,29.6808,30.0622,29.8525,30.1474,29.6990,29.7750,29.8525,29.7244,29.8938,30.0148,29.9465,29.7763,29.6972,29.7983,29.5767,29.9792,29.2833,29.7968,29.4245,29.5284,29.7483,29.5928,30.0770,29.6764,29.9436,29.7764,30.0888,29.7050,29.9819,29.8415,30.1809,30.1222,30.0695,29.9812,30.1526,30.0976,30.0943,29.8233,30.0458,29.9946,30.1562,29.5619,30.1467,29.9278,29.6215,30.0262,29.9361,29.7492,29.4127,29.4710,29.6223,29.4916,29.5453,29.6381,30.0102,29.4845,29.5584,30.0026,29.8447,29.8546,29.7859,30.0403,29.7658,29.6281,29.8831,30.3227,30.0650,30.2208,30.0543,30.1590,30.2735,29.8010,29.9391,30.5922,29.6734,30.0239,29.9205,30.2281,29.4709,29.5045,29.7254,29.8870,29.3017,29.4135,29.8171,29.4839,29.9893,29.7515,29.6428,29.8577,30.7017,29.9524,29.8892,29.7496,30.2551,30.0282,30.3161,29.8876,30.0573,30.2032,29.6855,29.8977,30.2637,29.9236,29.9020,29.8021,30.3544,29.8052,29.8710,29.5662,30.0035,29.4501,29.8706,29.5471,30.1617,28.9757,29.4282,29.7429,29.3410,29.7611,29.6704,29.9093,29.9363,29.6121,30.0471,30.1525,29.5160,29.8607,29.9758,30.0880,30.3093,29.8388,29.9990,30.1079,30.1731,29.7252,30.0385,30.1879,30.1076,29.6160,29.8411,30.1694,29.9110,29.7842,29.6178,30.0061,29.3811,29.6925,29.7133,29.5847,29.6805,30.0547,29.9391,29.6125,30.1121,29.7062,30.3444,29.8740,30.3819,30.1361,30.0798,30.1611,30.2960,30.1039,30.0930,29.8117,30.5211,30.1569,29.9820,30.2596,30.3052,29.9233,29.7645,30.0747,29.9273,29.7559,30.1700,30.1082,30.0354,28.7225,28.9597,30.0098,28.9164,29.5772,29.6657,30.1768,29.7950,29.9618,29.9105,30.3734,30.0489,29.8727,30.0097,30.4698,30.1424,30.0035,29.9674,30.4653,30.3442,30.0510,30.2015,30.0295,30.1301,29.6039,29.8119,30.0048,29.9174,29.7946,29.5790,29.5720,29.8019,
22:6:18:5:23:18:692,0.1000,273.0000,33.4000,A,0.0000,0.0000,27.5100,99694,136.6819,0,0.0000,0.0000,0.0000,0.0000,0.0000,0.0000,0,0.0000,0.0000,0.0000,0.0000,0.0000,0.0000,0,0,0,0,0,0,0,0.00,0.00,0.00,0,
22:6:18:5:23:18:785,0.1000,273.0000,33.4000,A,0.0000,0.0000,27.5200,99693,136.7662,0,0.0000,0.0000,0.0000,0.0000,0.0000,0.0000,0,0.0000,0.0000,0.0000,0.0000,0.0000,0.0000,0,0,0,0,0,0,0,0.00,0.00,0.00,0,
22:6:18:5:23:18:878,0.1000,273.0000,33.4000,A,0.0000,0.0000,27.5300,99689,137.1037,0,0.0000,0.0000,0.0000,0.0000,0.0000,0.0000,0,0.0000,0.0000,0.0000,0.0000,0.0000,0.0000,0,0,0,0,0,0,0,0.00,0.00,0.00,0,
22:6:18:5:23:18:987,0.1000,265.0000,33.2000,A,0.0000,0.0000,27.5300,99691,136.9349,0,0.0000,0.0000,0.0000,0.0000,0.0000,0.0000,0,0.0000,0.0000,0.0000,0.0000,0.0000,0.0000,0,0,0,0,0,0,0,0.00,0.00,0.00,0,
22:6:18:5:23:19:80,0.1000,265.0000,33.2000,A,0.0000,0.0000,27.5300,99690,137.0193,0,0.0000,0.0000,0.0000,0.0000,0.0000,0.0000,0,0.0000,0.0000,0.0000,0.0000,0.0000,0.0000,0,0,0,0,0,0,0,0.00,0.00,0.00,0,
22:6:18:5:23:19:189,0.0000,309.0000,33.1000,A,0.0000,0.0000,27.5300,99696,136.5132,0,0.0000,0.0000,0.0000,0.0000,0.0000,0.0000,0,0.0000,0.0000,0.0000,0.0000,0.0000,0.0000,0,0,0,0,0,0,0,0.00,0.00,0.00,0,
22:6:18:5:23:19:282,0.0000,309.0000,33.1000,A,0.0000,0.0000,27.5400,99697,136.4288,0,0.0000,0.0000,0.0000,0.0000,0.0000,0.0000,0,0.0000,0.0000,0.0000,0.0000,0.0000,0.0000,0,0,0,0,0,0,0,0.00,0.00,0.00,0,
22:6:18:5:23:19:375,0.0000,309.0000,33.1000,A,0.0000,0.0000,27.5400,99693,136.7662,0,0.0000,0.0000,0.0000,0.0000,0.0000,0.0000,0,0.0000,0.0000,0.0000,0.0000,0.0000,0.0000,0,0,0,0,0,0,0,0.00,0.00,0.00,0,
22:6:18:5:23:19:485,0.1000,258.0000,33.1000,A,0.0000,0.0000,27.5400,99689,137.1037,0,0.0000,0.0000,0.0000,0.0000,0.0000,0.0000,0,0.0000,0.0000,0.0000,0.0000,0.0000,0.0000,0,0,0,0,0,0,0,0.00,0.00,0.00,0,
22:6:18:5:23:19:578,0.1000,258.0000,33.1000,A,0.0000,0.0000,27.5300,99693,136.7662,0,0.0000,0.0000,0.0000,0.0000,0.0000,0.0000,0,0.0000,0.0000,0.0000,0.0000,0.0000,0.0000,0,0,0,0,0,0,0,0.00,0.00,0.00,0,29.8657,29.6029,29.7076,29.5649,30.2231,29.6530,29.7223,30.0431,30.2223,29.9418,30.5649,30.1531,30.3264,29.8965,29.9231,30.1260,30.1054,29.7318,30.5355,30.1771,29.8067,29.4275,30.0677,29.7239,29.7334,29.9595,29.6375,30.1048,29.7485,29.2777,29.1355,29.2574,29.3048,29.3252,29.7451,29.7106,29.9822,29.4113,30.3588,30.1373,30.1945,29.8748,30.0359,29.8393,30.2890,29.8424,29.8031,30.0073,30.0678,30.1718,29.8408,29.8573,30.3206,30.0892,30.0844,30.3745,30.0808,29.6832,29.8845,29.7828,29.6681,29.8919,29.6306,29.8483,29.3115,29.7866,29.6224,29.4995,29.9336,30.1704,30.0180,30.1429,30.4652,30.5740,30.4157,30.0394,30.0312,29.9693,30.0425,30.3679,30.0166,30.1873,29.8808,30.2372,30.5792,30.0602,29.9782,29.6278,30.1946,29.8753,29.7698,30.2218,29.8604,29.8406,29.9880,29.4332,29.4839,29.7275,29.8800,29.8244,30.0927,29.5300,30.0681,30.0315,29.9162,29.7910,29.9403,30.4338,30.3325,29.8952,30.2524,30.2552,30.3317,30.1047,30.0903,30.2943,30.0494,29.9926,30.1824,30.5737,29.9644,29.4145,29.9843,30.0820,30.0013,29.3628,29.3348,29.7543,29.6688,29.9382,29.7753,29.8579,30.2307,30.1021,30.3051,29.8997,30.1915,30.1443,30.1709,30.1709,30.4471,30.0919,29.9684,30.2918,30.2825,30.2583,29.9781,30.3223,30.1638,30.1515,29.8977,29.9262,30.1090,30.3048,29.8965,29.9228,29.7891,29.7957,29.9153,29.5987,29.6401,29.8864,30.0271,29.7670,30.0293,30.2180,29.8183,30.1538,30.0149,30.0773,30.0543,30.2461,30.4429,30.2031,30.3513,30.3562,30.5965,30.0333,30.3723,30.0700,30.1627,30.1080,30.1141,30.3437,30.2586,30.0634,30.2777,30.1650,29.9486,29.7253,29.5000,29.9095,30.2662,29.6513,29.7079,30.2090,30.1624,30.0111,30.2421,30.1794,29.9813,30.2401,30.2864,30.0885,30.2580,30.0293,30.2454,30.2554,30.2170,30.3850,30.4165,30.2863,30.0981,30.1064,30.2140,30.2429,30.2031,30.0706,29.9939,30.0436,30.0833,30.1209,29.4453,29.9656,29.6423,29.6290,29.7923,29.9413,29.6154,30.1407,30.3277,30.2817,30.1455,30.3602,30.0459,30.3329,30.2698,29.9919,30.4719,30.3291,30.2378,30.3372,30.1700,30.1937,30.4361,30.0569,30.0974,30.2995,30.0392,30.0328,30.2174,29.9394,30.0761,29.6749,29.6705,30.0609,30.0183,30.0267,29.8669,29.9643,30.0949,30.1569,30.0450,30.4790,30.4414,30.4104,30.2454,30.3968,30.2255,30.1554,30.3766,30.5224,30.0290,30.1759,30.2617,30.2410,29.9347,30.0549,30.1573,30.3503,30.3731,30.0443,29.9736,30.0174,29.8920,30.2635,30.0053,30.3171,29.4084,29.6347,29.9451,30.2711,30.1324,30.1483,29.9616,30.0756,30.3086,30.2104,30.0241,30.4832,30.4116,30.2821,30.3092,30.7359,30.2149,30.4499,30.1765,30.4776,30.2639,30.4923,30.2231,30.4194,30.2209,30.1520,30.3843,30.2788,30.2427,29.8392,30.0536,30.2027,29.5815,30.2085,30.2274,30.6854,30.2470,30.1554,29.8632,30.3086,30.1040,30.0384,30.2554,30.2437,30.3499,30.1650,30.0633,30.2192,30.1737,30.3426,30.5418,30.2510,30.2361,30.2517,30.1609,30.3315,30.3464,30.3656,29.9518,29.9843,30.3991,30.0531,29.9996,30.0970,29.8123,29.6414,29.7940,29.7148,30.1220,29.9843,30.2835,30.2634,30.3058,30.1845,30.1927,30.4864,30.5502,30.2893,30.5982,30.4544,30.3527,30.6019,30.1569,30.3225,30.2570,30.2070,30.2334,30.2580,30.3691,29.9934,30.3528,30.0735,30.0510,29.8211,29.8660,29.8157,30.4445,29.8079,30.2568,30.3078,30.2985,30.1423,30.0490,30.4626,30.2883,30.2146,30.2809,30.5504,30.3703,30.2994,30.3666,30.2068,30.6404,30.1662,30.3968,30.2597,30.5550,30.0786,30.3175,30.1955,30.3557,30.0326,30.3126,30.1704,30.0264,30.3953,29.8075,29.8916,29.6775,29.8626,30.3691,30.0956,30.1774,30.1411,30.4932,30.0929,30.4975,30.0515,30.5364,30.6507,30.5790,30.1387,30.3050,30.4613,30.3755,30.2838,30.3277,30.4963,30.2896,30.1881,30.4016,30.2819,30.3705,30.1590,30.4103,30.2602,30.2377,30.1761,30.0781,30.5994,29.6608,30.0220,30.2792,30.3212,30.3181,30.3160,30.2286,30.4746,30.1730,30.3970,30.4414,30.2020,30.5439,30.4701,30.2281,30.3686,30.2060,30.0166,30.2706,30.5772,30.1099,30.3863,30.5153,30.2047,30.5549,30.2310,30.3443,30.3566,30.0670,30.0506,30.2048,29.9188,29.7302,29.6869,30.4053,30.4977,30.0443,30.3445,30.3564,30.4648,30.3892,30.2297,30.5589,30.6327,30.4587,30.3160,30.4969,30.6402,30.1349,30.1693,30.3723,30.3494,30.3181,30.0548,30.4735,30.4592,30.7609,30.0364,30.1033,30.2986,30.0992,29.6616,30.3137,30.4436,29.6844,29.8506,30.1612,30.0197,30.1907,30.3756,30.4595,30.1988,30.0253,30.9160,30.3452,30.3008,30.4111,30.6617,30.5797,30.4375,30.4254,30.2392,30.1565,30.2976,30.4602,30.2887,30.2337,30.0700,30.4243,30.2615,29.8796,30.4019,30.3094,29.9096,29.8799,30.1446,29.9759,29.5341,29.5416,30.3836,30.2836,29.8906,30.2566,30.3209,29.9478,29.9677,30.3205,30.2714,30.3550,30.2137,30.5457,30.6976,30.4808,30.0794,30.2672,30.6976,30.2170,30.2766,30.1943,30.3411,30.2832,30.1012,30.3305,30.1730,30.3416,29.7207,30.1768,30.2897,29.8081,30.1280,30.2414,30.4421,30.1005,30.6542,30.1888,30.4357,30.1011,30.1590,30.0715,30.5198,30.3479,30.4008,30.5301,30.6460,30.4798,30.2713,30.6899,30.3858,30.3858,30.4935,30.3022,30.4942,30.3344,30.3140,30.0943,30.6616,29.8175,30.1678,29.9482,30.0135,29.6770,29.8146,29.8206,30.0782,30.2034,30.1617,30.1840,30.5929,30.1984,30.3376,30.3814,30.4835,30.1268,30.2624,30.5011,30.6080,30.2430,30.2777,30.1778,30.3412,30.1433,30.1667,30.4384,30.2465,30.5415,30.3302,30.7648,30.2739,30.2514,29.7937,30.2739,30.4175,29.6959,29.5822,30.1487,30.3650,30.3623,30.1883,29.9258,30.3541,30.1890,30.4038,30.3183,30.2653,30.4157,30.4932,30.1195,30.5604,30.4348,30.1870,30.2972,30.1110,30.4918,30.4109,30.5564,30.3623,30.5652,30.2294,30.3797,30.1837,30.2908,30.0521,30.0422,29.9112,29.3805,29.7060,29.9267,30.2027,30.1267,30.1079,30.0907,30.3571,30.1331,30.4516,30.1668,30.4224,30.0416,30.3653,30.4315,30.5398,30.1836,30.2292,30.4532,30.7337,30.0744,30.1065,30.3692,31.0393,30.4927,30.2683,30.3520,30.7341,30.1620,29.8847,30.4045,29.8891,29.7614,30.1143,30.2873,30.4764,30.3184,30.5042,30.4344,30.2911,30.3078,30.5227,30.6471,30.7353,30.3738,30.5933,30.5709,30.6408,30.3412,30.2713,30.2213,30.6992,30.2253,30.5059,30.5076,30.3029,30.5367,30.1310,29.9490,30.3055,30.4310,29.9387,30.3979,30.4480,29.1422,29.9165,29.9858,30.0255,29.9610,30.1227,30.3626,30.0487,30.1460,30.3331,30.3804,30.6454,30.3990,30.4165,30.4817,30.2106,30.1860,30.2030,30.4775,30.7542,30.2350,30.6143,30.5735,30.3807,29.9723,30.0672,30.3863,30.1843,30.1852,29.6478,30.4304,30.3292,
22:6:18:5:23:19:748,0.0000,334.0000,33.1000,A,0.0000,0.0000,27.5200,99695,136.5975,0,0.0000,0.0000,0.0000,0.0000,0.0000,0.0000,0,0.0000,0.0000,0.0000,0.0000,0.0000,0.0000,0,0,0,0,0,0,0,0.00,0.00,0.00,0,
22:6:18:5:23:19:845,0.0000,334.0000,33.1000,A,0.0000,0.0000,27.5300,99692,136.8506,0,0.0000,0.0000,0.0000,0.0000,0.0000,0.0000,0,0.0000,0.0000,0.0000,0.0000,0.0000,0.0000,0,0,0,0,0,0,0,0.00,0.00,0.00,0,
22:6:18:5:23:19:951,0.0000,25.0000,33.3000,A,0.0000,0.0000,27.5300,99694,136.6819,0,0.0000,0.0000,0.0000,0.0000,0.0000,0.0000,0,0.0000,0.0000,0.0000,0.0000,0.0000,0.0000,0,0,0,0,0,0,0,0.00,0.00,0.00,0,
22:6:18:5:23:20:48,0.0000,25.0000,33.3000,A,0.0000,0.0000,27.5400,99691,136.9349,0,0.0000,0.0000,0.0000,0.0000,0.0000,0.0000,0,0.0000,0.0000,0.0000,0.0000,0.0000,0.0000,0,0,0,0,0,0,0,0.00,0.00,0.00,0,
22:6:18:5:23:20:154,0.0000,39.0000,33.3000,A,0.0000,0.0000,27.5400,99693,136.7662,0,0.0000,0.0000,0.0000,0.0000,0.0000,0.0000,0,0.0000,0.0000,0.0000,0.0000,0.0000,0.0000,0,0,0,0,0,0,0,0.00,0.00,0.00,0,
22:6:18:5:23:20:247,0.0000,39.0000,33.3000,A,0.0000,0.0000,27.5400,99692,136.8506,0,0.0000,0.0000,0.0000,0.0000,0.0000,0.0000,0,0.0000,0.0000,0.0000,0.0000,0.0000,0.0000,0,0,0,0,0,0,0,0.00,0.00,0.00,0,
22:6:18:5:23:20:356,0.0000,343.0000,33.4000,A,0.0000,0.0000,27.5400,99693,136.7662,0,0.0000,0.0000,0.0000,0.0000,0.0000,0.0000,0,0.0000,0.0000,0.0000,0.0000,0.0000,0.0000,0,0,0,0,0,0,0,0.00,0.00,0.00,0,
22:6:18:5:23:20:449,0.0000,343.0000,33.4000,A,0.0000,0.0000,27.5400,99693,136.7662,0,0.0000,0.0000,0.0000,0.0000,0.0000,0.0000,0,0.0000,0.0000,0.0000,0.0000,0.0000,0.0000,0,0,0,0,0,0,0,0.00,0.00,0.00,0,
22:6:18:5:23:20:559,0.0000,309.0000,33.4000,A,0.0000,0.0000,27.5400,99694,136.6819,0,0.0000,0.0000,0.0000,0.0000,0.0000,0.0000,0,0.0000,0.0000,0.0000,0.0000,0.0000,0.0000,0,0,0,0,0,0,0,0.00,0.00,0.00,0,30.0282,30.3723,30.5557,29.8441,30.1754,30.1217,30.2812,30.4911,30.1911,30.5567,30.5368,30.2052,30.1245,30.4883,30.4355,30.1780,30.6174,30.4979,30.1449,30.2293,30.3347,30.2165,30.4162,30.1652,30.2856,30.4185,30.0098,29.9415,29.9106,30.0126,29.7833,29.5578,30.3277,29.2542,30.4699,30.3153,30.2383,30.1830,30.6071,30.1021,30.8027,30.2182,30.8163,30.3599,30.6944,30.1795,30.5540,30.5195,30.8156,30.1562,30.2533,30.3743,30.3735,30.0702,30.3229,30.7249,30.5180,30.2424,30.5611,30.3690,30.1572,29.8343,30.1578,29.7747,30.1699,30.7330,30.4274,30.3885,30.4858,30.0278,30.3650,30.5648,30.2691,30.8017,30.5725,30.6067,30.3572,30.8633,30.7092,30.5885,30.3436,30.4082,30.5491,30.2892,30.7372,30.6288,30.3157,30.2153,30.1706,30.1176,30.3232,30.2749,30.2274,30.3044,30.3746,30.1735,30.4489,30.3278,30.1441,30.3948,30.7239,30.2633,30.4927,30.7349,30.6666,30.1240,30.5065,30.9292,31.0423,30.3846,30.6378,30.7448,30.7174,30.2642,30.6464,30.6223,30.6070,30.1527,30.4109,30.5590,30.9167,29.9499,30.0377,30.0465,30.0548,29.9325,30.4975,30.1443,29.8299,30.4118,30.3433,30.3078,30.3895,30.8912,30.6411,30.4889,30.3492,30.8722,30.3284,30.5598,30.6045,30.7960,30.6136,30.5064,30.1150,30.7932,30.6261,30.7021,30.4869,30.5352,30.3955,30.4975,30.2682,30.5337,30.2444,30.3472,30.1448,30.2489,30.2917,30.0858,30.3376,29.6332,30.0803,30.3188,30.0825,30.3769,30.3973,30.6636,30.7401,30.4033,30.4354,30.9042,30.4955,30.5229,30.5638,30.1930,30.9696,30.3520,30.2624,30.5550,30.8697,30.2677,30.1670,30.3326,30.6554,30.0499,29.9620,30.8726,30.1938,30.2803,29.9796,29.8606,30.4266,30.3126,30.6445,30.2611,29.9612,30.7600,30.7461,30.4023,30.6271,30.4545,30.9279,30.1402,30.5740,30.7087,30.7189,30.4674,30.3743,30.9127,30.5735,30.6585,30.5710,30.6401,30.7063,30.6314,30.6932,30.6370,30.5067,30.2767,30.2432,30.5534,30.6290,30.0192,30.5238,29.7896,30.2289,30.4830,30.3800,30.4715,30.3806,30.7786,31.0011,30.6788,30.7409,30.9673,30.7934,30.6173,30.5245,30.8045,31.0684,30.3387,30.8506,30.8282,30.8025,30.2164,30.4820,30.7915,30.4216,30.3636,30.6204,30.6396,30.8685,30.5868,30.1275,30.2250,30.3814,30.4760,30.4031,30.0164,30.5957,30.5515,30.2034,30.6965,30.4396,30.4622,30.5608,30.4485,30.2273,30.6671,30.5335,30.8823,30.3395,30.5368,30.5780,30.4492,30.2494,30.4169,30.4769,30.4026,30.1995,30.5944,30.4839,30.4267,30.4183,30.6876,30.1659,29.9702,30.4674,30.1906,29.9982,30.6138,30.5270,30.4783,30.5166,30.2349,30.8365,30.3694,30.5497,30.7991,30.7728,30.5933,30.8237,30.5896,31.0242,30.3027,30.7023,30.7911,31.0900,30.6515,30.7544,31.0599,30.9333,30.3123,30.6115,30.6163,30.8378,30.5542,30.3045,30.1687,30.5380,30.4572,30.3859,30.3733,30.4054,30.3795,30.3554,30.5268,30.7402,30.7214,30.5703,30.7686,30.5072,30.6792,30.6795,30.8928,30.4827,31.1603,30.6993,30.6144,30.7036,30.6193,30.4807,31.0304,30.5052,30.7458,30.4516,30.7225,30.5588,30.4681,30.1604,29.9525,30.6567,30.3925,30.2194,30.6045,30.5145,30.3155,30.3364,30.7530,30.5173,30.1870,30.7158,30.4885,30.7559,30.2951,31.1039,30.4587,30.8560,30.7606,30.5170,30.4816,30.6187,30.6806,30.7675,30.5791,30.7473,30.8075,30.7431,30.2346,30.6365,30.3433,30.5020,30.3725,30.4069,30.4479,30.4164,30.7233,30.4573,30.8661,30.5407,30.6783,30.4464,30.5837,30.7546,30.7589,30.6801,30.6547,30.8275,30.7200,30.7976,30.9683,30.7086,30.6219,30.7127,30.5955,30.7945,30.7340,30.3516,30.5740,30.6433,30.5687,30.5380,30.4483,30.3557,30.1407,30.7250,30.4134,30.6066,30.6177,30.0572,30.3010,30.5463,30.4161,30.7085,30.3694,30.5893,30.9656,30.9353,30.4494,30.6597,30.7732,30.7283,30.4430,30.6874,30.8099,30.6508,30.5014,30.6134,30.6033,31.2297,30.3197,30.8058,30.5932,30.6434,30.5146,30.3243,30.1782,30.0228,30.2668,30.8066,30.3732,30.8194,30.8684,30.5525,30.5264,30.4926,30.6071,30.7555,30.4062,31.0045,30.6739,30.6892,30.5736,30.6674,30.8237,30.5839,30.6294,30.4237,31.0501,30.6738,30.9022,30.3856,30.6157,30.6764,30.5816,30.4045,30.6391,30.1708,30.3679,29.9850,30.2335,30.2754,30.6584,30.7818,30.5048,30.5746,30.6246,30.4424,30.5471,30.9235,30.9443,30.6635,30.3231,30.8523,31.1041,30.9467,30.3290,30.7338,30.5091,30.8356,30.5207,31.0108,30.4580,30.9777,30.3637,30.8447,30.2889,30.8599,30.1811,30.3680,30.6077,29.8471,30.2988,30.1355,30.4442,30.6994,30.5985,30.7864,30.7450,30.6659,30.6481,30.6639,30.6713,30.7223,30.7136,30.7374,30.6458,30.8939,30.6033,30.6295,30.8162,30.7748,30.8128,30.5559,30.4498,30.9113,30.4823,30.3923,30.4547,30.6511,30.5132,30.2398,30.3967,30.2334,30.2888,30.3450,30.7303,30.8606,30.2225,30.6455,30.6445,30.8042,30.7716,30.6958,30.7497,30.8711,30.5280,30.5988,30.5472,31.3087,30.3955,30.6333,30.8572,30.7381,30.4371,30.5749,30.5018,30.5000,30.4311,30.5597,30.3352,31.2980,30.2517,30.6251,30.4544,30.3921,30.3809,30.7877,30.6815,30.4388,30.7066,30.6920,30.8264,30.5878,31.0222,30.7153,30.7340,30.6644,30.6074,31.0082,30.5402,30.6384,30.7909,30.6896,30.9245,30.7061,30.8650,30.4619,30.7153,30.4949,31.0475,30.7876,30.5329,30.3532,30.6021,30.3144,30.6896,29.9439,29.9786,30.2636,30.8012,30.7913,30.5011,30.5809,30.7538,30.7403,30.8196,30.5966,30.6438,30.8147,30.7333,30.8735,30.9260,30.7657,30.5937,30.7099,31.1495,30.8413,30.6462,30.4922,30.5755,30.9318,30.1525,30.9962,30.4377,31.0536,30.1489,30.5315,30.5844,29.8618,30.6694,30.5093,30.8100,30.3436,30.6066,30.7929,31.1060,30.6854,30.7920,30.8105,30.8184,30.7348,30.8660,30.9322,30.9374,30.5949,30.7229,30.9520,30.6589,30.8183,30.7932,30.8873,30.7558,30.7253,30.9947,30.3554,30.6116,30.8368,30.6978,30.4179,31.0512,30.2986,30.2883,30.7790,30.5635,30.9055,30.2720,30.4997,31.0457,30.5253,30.6133,30.5547,30.7505,30.7379,30.6869,30.9751,31.0252,31.0561,30.5532,30.6714,30.5669,30.9616,30.7654,30.4235,30.8565,31.2367,30.4324,30.7801,30.8972,30.6040,30.4451,30.8855,30.4940,30.1498,30.3870,30.8712,31.1415,30.4808,30.7495,30.5962,30.7117,30.4690,31.1018,30.9833,30.9630,30.7034,30.6459,30.7313,31.0264,30.6701,30.9925,31.0612,31.0923,30.7295,30.7308,30.8480,31.0803,30.3351,30.7398,31.0787,30.9469,30.5944,30.6121,30.7824,30.5028,30.1034,29.6418,30.2551,30.8117,30.9957,30.4827,30.7950,30.9499,30.5565,30.6746,30.7886,31.1592,30.7957,30.9178,30.8783,30.8764,30.9163,30.5334,31.0435,31.0876,30.8044,30.2610,30.8080,31.0890,30.9428,30.4188,30.8321,30.5483,31.0523,30.2315,30.9309,30.9555,
22:6:18:5:23:20:716,0.0000,309.0000,33.4000,A,0.0000,0.0000,27.5300,99696,136.5132,0,0.0000,0.0000,0.0000,0.0000,0.0000,0.0000,0,0.0000,0.0000,0.0000,0.0000,0.0000,0.0000,0,0,0,0,0,0,0,0.00,0.00,0.00,0,
22:6:18:5:23:20:822,0.0000,288.0000,33.4000,A,0.0000,0.0000,27.5400,99688,137.1880,0,0.0000,0.0000,0.0000,0.0000,0.0000,0.0000,0,0.0000,0.0000,0.0000,0.0000,0.0000,0.0000,0,0,0,0,0,0,0,0.00,0.00,0.00,0,
22:6:18:5:23:20:919,0.0000,288.0000,33.4000,A,0.0000,0.0000,27.5400,99693,136.7662,0,0.0000,0.0000,0.0000,0.0000,0.0000,0.0000,0,0.0000,0.0000,0.0000,0.0000,0.0000,0.0000,0,0,0,0,0,0,0,0.00,0.00,0.00,0,
22:6:18:5:23:21:25,0.0000,309.0000,33.4000,A,0.0000,0.0000,27.5400,99692,136.8506,0,0.0000,0.0000,0.0000,0.0000,0.0000,0.0000,0,0.0000,0.0000,0.0000,0.0000,0.0000,0.0000,0,0,0,0,0,0,0,0.00,0.00,0.00,0,
22:6:18:5:23:21:121,0.0000,309.0000,33.4000,A,0.0000,0.0000,27.5500,99692,136.8506,0,0.0000,0.0000,0.0000,0.0000,0.0000,0.0000,0,0.0000,0.0000,0.0000,0.0000,0.0000,0.0000,0,0,0,0,0,0,0,0.00,0.00,0.00,0,
22:6:18:5:23:21:227,0.0000,289.0000,33.4000,A,0.0000,0.0000,27.5500,99693,136.7662,0,0.0000,0.0000,0.0000,0.0000,0.0000,0.0000,0,0.0000,0.0000,0.0000,0.0000,0.0000,0.0000,0,0,0,0,0,0,0,0.00,0.00,0.00,0,
22:6:18:5:23:21:320,0.0000,289.0000,33.4000,A,0.0000,0.0000,27.5500,99692,136.8506,0,0.0000,0.0000,0.0000,0.0000,0.0000,0.0000,0,0.0000,0.0000,0.0000,0.0000,0.0000,0.0000,0,0,0,0,0,0,0,0.00,0.00,0.00,0,
22:6:18:5:23:21:430,0.0000,252.0000,33.3000,A,0.0000,0.0000,27.5500,99695,136.5975,0,0.0000,0.0000,0.0000,0.0000,0.0000,0.0000,0,0.0000,0.0000,0.0000,0.0000,0.0000,0.0000,0,0,0,0,0,0,0,0.00,0.00,0.00,0,
22:6:18:5:23:21:523,0.0000,252.0000,33.3000,A,0.0000,0.0000,27.5500,99693,136.7662,0,0.0000,0.0000,0.0000,0.0000,0.0000,0.0000,0,0.0000,0.0000,0.0000,0.0000,0.0000,0.0000,0,0,0,0,0,0,0,0.00,0.00,0.00,0,
22:6:18:5:23:21:633,0.0000,278.0000,33.3000,A,0.0000,0.0000,27.5500,99692,136.8506,0,0.0000,0.0000,0.0000,0.0000,0.0000,0.0000,0,0.0000,0.0000,0.0000,0.0000,0.0000,0.0000,0,0,0,0,0,0,0,0.00,0.00,0.00,0,29.8177,30.0382,30.5930,30.6642,30.4195,30.6781,30.5171,30.0381,30.4169,30.5105,30.5732,30.8984,30.7009,30.6299,30.4716,30.6783,30.4770,30.4618,31.0937,30.5544,30.1868,30.7254,30.2632,30.6955,30.1266,30.5622,30.2587,30.3023,29.7271,30.1587,29.8216,30.4414,30.2324,29.2918,29.9434,30.5737,30.5845,30.2199,30.7496,30.3332,30.5754,30.2547,30.5951,30.7567,31.0120,30.5693,30.8694,30.7319,30.9569,30.5414,30.3960,30.4109,30.5163,30.1073,30.6505,31.1403,31.0437,29.8830,30.7054,30.4068,30.0850,29.8728,30.0683,30.2933,29.9763,30.4305,30.0349,30.1128,29.9338,30.5577,30.4013,30.5216,30.6590,30.7672,30.7820,30.4047,30.3935,30.8356,30.4067,30.5611,30.3797,31.0543,30.9241,30.4310,30.6029,30.7706,30.7080,30.3579,30.2072,30.4507,30.5563,30.0185,30.0592,30.4494,30.6367,30.3216,29.9121,29.9259,30.0774,30.8404,30.6747,30.2999,30.8200,30.7713,30.8083,30.3342,30.4771,30.7968,30.6912,30.2555,30.4473,30.6162,30.6926,30.4670,30.6202,30.8272,31.2512,30.5281,30.3782,30.5959,30.5203,29.8005,30.1818,30.4784,30.8086,30.1729,29.9797,30.4073,30.0855,30.5554,30.5839,30.0525,30.4261,30.8486,30.8553,30.8084,30.3852,30.3374,31.1924,30.7006,30.4785,30.6112,30.4872,30.3217,30.6387,30.6125,30.6621,30.5154,30.5230,30.6765,30.6010,30.4668,30.3048,30.6761,31.0295,30.3061,30.1821,30.3942,30.1145,30.2333,30.4821,30.0853,30.4272,30.3555,30.4121,30.5944,30.7139,31.0499,30.5458,30.6068,30.4127,31.1064,30.9562,30.5593,30.7055,30.7118,31.1107,29.9092,30.5668,30.9161,30.8483,30.3044,30.4772,30.8813,30.7978,30.4352,30.2901,30.3637,30.7201,30.5136,29.6995,30.5388,30.4640,30.2526,30.2932,30.5961,30.5374,30.7271,30.9550,30.3722,30.6632,30.5952,31.1248,30.7597,30.7680,30.8490,31.2275,30.6081,30.2528,31.0532,30.6095,30.7994,30.7642,30.7813,30.4088,30.7737,30.2325,30.6081,30.7196,30.2403,30.2802,30.5087,31.0724,30.3744,30.4629,30.2286,30.1818,30.3293,30.6996,30.5079,30.6946,30.8149,30.8220,30.5555,30.8826,30.5279,30.7784,30.8085,30.9788,30.6825,30.7437,30.5325,30.8355,30.7063,30.9443,30.0933,30.7896,30.9938,30.5647,30.5704,30.5887,30.8558,30.0887,30.2505,30.4731,30.4688,30.2162,30.4199,30.4397,30.7155,30.4614,30.8632,30.5775,31.0025,30.4757,30.9282,30.7547,30.7475,30.5747,30.8074,30.7253,30.7148,30.6807,30.8315,30.7723,31.0573,30.4414,30.4033,30.9954,30.7063,30.7340,30.7371,30.5206,30.3921,30.2729,30.4609,30.6019,30.5168,30.4117,30.4245,30.5142,30.6506,30.8405,30.3446,30.6591,30.7633,30.9781,30.5672,30.5343,30.8354,30.7606,30.4773,30.6579,31.0824,30.8637,30.4922,30.8439,30.8275,31.0774,30.6880,30.7373,30.9365,30.9118,30.5137,30.5805,30.8298,30.9815,30.2236,30.6457,30.2070,30.1784,30.5992,30.7950,30.5155,30.6126,30.5204,30.5581,30.6674,30.4575,30.7044,30.9209,30.4372,30.6967,30.9732,30.8679,30.7229,30.3676,30.8427,30.5809,30.7558,30.5853,30.6036,30.5170,30.8487,30.8670,30.7247,30.6580,30.6948,30.0600,30.6124,30.5898,30.2968,30.8016,30.4298,30.5490,30.8228,30.4885,30.1809,30.1486,30.6245,31.1337,30.5368,30.8577,30.9941,30.8976,30.4845,31.0946,30.8034,30.8475,30.7970,30.9652,30.9819,30.9146,30.5602,30.7495,30.7769,30.8903,30.5183,30.8860,30.7833,30.7806,30.2011,30.2601,30.6067,30.8423,30.7849,30.8224,30.6831,30.3200,30.8393,30.4107,30.6552,30.6412,30.8826,30.9483,31.2120,31.0194,30.7951,30.8636,30.7070,30.5321,30.6603,31.0519,31.0724,30.5947,30.8916,30.8308,31.0375,30.7140,30.7168,31.0222,30.7121,30.3994,30.7696,30.5859,30.4822,30.2765,30.4509,30.7508,30.8349,30.8934,30.5043,30.8546,30.9419,31.0088,30.4059,30.7316,31.0020,30.9260,30.6370,30.8017,30.9623,30.7204,30.4795,30.8294,31.3081,31.1002,30.5380,30.5972,30.9620,30.7280,30.6808,30.6082,30.4585,30.7877,30.3758,30.4702,30.8012,30.0605,30.7930,30.8437,30.8774,30.8562,30.6762,30.9183,30.8313,30.5292,31.0634,31.1030,30.5470,30.4348,30.6627,30.7255,30.8672,30.4000,30.9643,30.7749,30.7712,30.6152,31.0392,30.8715,30.7227,30.2577,30.9242,30.8855,30.7252,30.2648,30.4271,30.4031,30.5143,30.5312,30.4626,30.4205,30.8762,30.7557,30.3750,30.5532,31.3158,30.7457,30.2682,30.7547,30.8283,31.1088,30.5119,30.8436,31.1406,31.2405,30.3657,30.8763,30.8523,30.6691,30.7100,30.5090,30.8173,30.7946,30.5669,30.6462,30.8420,30.6520,30.0407,30.7080,31.0385,29.6822,30.4414,30.7339,30.5871,30.3875,30.9104,30.6555,30.7227,30.2209,30.7898,31.0208,30.9717,30.7587,30.8544,30.9268,30.7876,30.7754,30.7450,30.9792,30.8031,30.5000,30.7980,30.9179,30.9186,30.6210,30.6256,30.7805,30.4231,30.3282,30.8406,30.6722,30.3451,30.1784,29.7352,30.4907,30.9526,30.8316,30.4301,30.4545,30.8445,31.1075,30.4873,30.6782,30.7865,30.7069,30.4103,30.7418,31.0486,31.1418,30.2766,30.7763,30.7391,31.1922,30.9445,30.5559,30.8644,30.6438,30.4688,30.7049,30.5482,30.9028,30.4731,30.5753,30.6912,30.6400,30.7244,30.8254,30.8247,29.9434,31.0261,30.9002,30.7999,30.9505,30.8407,30.7520,30.8761,30.3859,31.2107,30.8854,30.9982,30.6749,30.7776,30.7263,31.0668,30.7428,30.8482,30.8330,30.6913,30.3632,30.5108,31.1784,30.6773,30.2041,30.9370,30.9610,30.6298,30.5149,30.0169,30.4104,30.8390,30.7600,30.1831,30.5557,30.7910,31.0471,30.3749,31.0630,31.1652,30.8006,30.3045,30.6982,31.1205,31.0652,30.7858,31.0123,31.3478,30.9859,30.5244,30.4704,30.9474,30.9079,30.5312,30.9648,30.8407,30.8266,30.7584,30.8814,30.4156,30.1135,31.0192,30.9421,30.7582,30.2009,30.5675,30.8303,31.0745,30.3868,30.5993,30.6816,30.9610,30.7718,30.8485,30.9691,30.7556,30.6319,31.1862,30.8242,30.9664,30.6895,30.7718,30.9245,30.8995,30.2446,30.9611,30.7641,31.1297,30.4912,30.8436,30.6684,30.3334,30.4494,30.1188,30.7279,30.9952,30.6918,30.3103,30.6456,31.0833,30.8397,30.8185,30.7006,30.7879,31.0428,30.5640,31.1193,31.2242,30.8738,30.5908,30.8168,30.7684,30.9411,30.3062,30.9121,31.0665,30.8663,30.6493,30.9269,31.3105,30.5582,30.2864,30.6090,31.1849,29.9665,30.5327,30.9100,30.8788,30.1286,30.7015,31.1953,30.8556,30.8604,31.0699,30.8455,30.9314,30.9096,30.7890,30.9390,31.0032,30.7072,30.9689,31.0985,30.8955,30.5956,31.0461,30.8856,30.6820,30.3730,30.7000,31.1170,31.0926,30.4315,30.5530,30.8214,30.8787,30.4824,29.9034,30.4076,30.6455,30.3639,30.7147,30.9446,31.1718,31.0585,30.7133,31.1125,31.1975,30.7720,30.6196,31.0256,30.9145,30.8943,30.5716,30.8504,30.9554,30.9521,30.8161,30.7766,31.3080,30.9081,30.4577,31.1759,30.7851,30.7975,30.2713,30.8609,30.9966,
22:6:18:5:23:21:790,0.0000,278.0000,33.3000,A,0.0000,0.0000,27.5400,99692,136.8506,0,0.0000,0.0000,0.0000,0.0000,0.0000,0.0000,0,0.0000,0.0000,0.0000,0.0000,0.0000,0.0000,0,0,0,0,0,0,0,0.00,0.00,0.00,0,
22:6:18:5:23:21:896,0.0000,281.0000,33.3000,A,0.0000,0.0000,27.5400,99695,136.5975,0,0.0000,0.0000,0.0000,0.0000,0.0000,0.0000,0,0.0000,0.0000,0.0000,0.0000,0.0000,0.0000,0,0,0,0,0,0,0,0.00,0.00,0.00,0,
22:6:18:5:23:21:993,0.0000,281.0000,33.3000,A,0.0000,0.0000,27.5500,99684,137.5255,0,0.0000,0.0000,0.0000,0.0000,0.0000,0.0000,0,0.0000,0.0000,0.0000,0.0000,0.0000,0.0000,0,0,0,0,0,0,0,0.00,0.00,0.00,0,
22:6:18:5:23:22:99,0.0000,305.0000,33.3000,A,0.0000,0.0000,27.5500,99693,136.7662,0,0.0000,0.0000,0.0000,0.0000,0.0000,0.0000,0,0.0000,0.0000,0.0000,0.0000,0.0000,0.0000,0,0,0,0,0,0,0,0.00,0.00,0.00,0,
22:6:18:5:23:22:196,0.0000,305.0000,33.3000,A,0.0000,0.0000,27.5500,99692,136.8506,0,0.0000,0.0000,0.0000,0.0000,0.0000,0.0000,0,0.0000,0.0000,0.0000,0.0000,0.0000,0.0000,0,0,0,0,0,0,0,0.00,0.00,0.00,0,
22:6:18:5:23:22:302,0.0000,320.0000,33.3000,A,0.0000,0.0000,27.5500,99694,136.6819,0,0.0000,0.0000,0.0000,0.0000,0.0000,0.0000,0,0.0000,0.0000,0.0000,0.0000,0.0000,0.0000,0,0,0,0,0,0,0,0.00,0.00,0.00,0,
22:6:18:5:23:22:395,0.0000,320.0000,33.3000,A,0.0000,0.0000,27.5500,99692,136.8506,0,0.0000,0.0000,0.0000,0.0000,0.0000,0.0000,0,0.0000,0.0000,0.0000,0.0000,0.0000,0.0000,0,0,0,0,0,0,0,0.00,0.00,0.00,0,
22:6:18:5:23:22:505,0.0000,302.0000,33.3000,A,0.0000,0.0000,27.5600,99692,136.8506,0,0.0000,0.0000,0.0000,0.0000,0.0000,0.0000,0,0.0000,0.0000,0.0000,0.0000,0.0000,0.0000,0,0,0,0,0,0,0,0.00,0.00,0.00,0,
22:6:18:5:23:22:598,0.0000,302.0000,33.3000,A,0.0000,0.0000,27.5600,99691,136.9349,0,0.0000,0.0000,0.0000,0.0000,0.0000,0.0000,0,0.0000,0.0000,0.0000,0.0000,0.0000,0.0000,0,0,0,0,0,0,0,0.00,0.00,0.00,0,30.6868,30.5313,30.4879,30.2289,30.5428,30.9010,30.8386,31.2392,31.1051,31.0873,30.6955,31.0978,30.8236,30.4667,30.5933,30.6945,30.7762,30.4781,30.8519,30.7531,31.0447,30.7417,30.3861,30.9047,30.8364,31.1844,30.5934,30.7491,30.5147,29.9482,30.1885,30.4573,30.4903,30.8056,30.8532,31.1383,30.3991,30.5461,30.9610,30.8438,30.9617,30.3777,30.9746,30.6993,30.6771,30.6926,30.8860,30.8550,30.9738,30.6642,30.7708,30.8899,30.8924,30.4109,30.8519,31.0752,30.8698,30.0081,30.5150,30.5321,30.5357,30.2207,31.0257,29.9419,31.0236,30.4467,30.3732,30.7542,30.6461,30.7677,30.7121,30.7224,31.1334,30.9591,30.9034,30.9350,31.0171,30.8519,30.8677,30.7459,30.8392,30.9031,30.8767,30.9590,31.0661,30.9583,30.4754,30.7290,30.6960,30.6556,30.4842,30.8359,30.1838,30.2605,30.3128,30.3375,30.3839,30.9261,30.7243,30.5549,30.4990,30.8034,30.8367,30.7128,30.8252,30.6302,30.8351,30.9191,31.0364,30.8727,30.9623,30.9042,30.7096,30.9216,30.8043,30.7819,31.2682,30.8205,30.9201,30.7196,30.8963,30.2979,30.7792,30.6031,30.6226,30.2985,30.8797,30.5341,30.8613,30.7813,30.7068,30.4660,31.3043,30.6811,30.9773,30.8247,30.8474,30.8607,30.8182,30.7169,30.9242,30.7904,31.0949,30.9881,30.9230,30.9504,30.7839,30.8592,30.9746,30.8582,30.5547,30.8279,31.2945,30.8684,30.4050,30.6927,30.8880,30.2108,30.6681,31.1098,30.7125,30.8286,30.6468,30.4787,30.7999,30.7171,30.9050,30.9973,31.2327,30.8961,31.2472,31.0631,30.9731,31.1629,31.0410,30.8346,31.4471,30.9883,31.0695,31.0389,31.1912,30.9194,30.4939,31.0046,30.9861,30.9062,31.2245,30.8525,30.9274,30.4434,30.3535,30.6651,30.5880,30.6733,30.4161,31.1895,31.0184,30.7435,30.7311,30.7301,30.7854,30.9357,30.9243,30.9351,31.0478,31.0217,30.7184,30.7843,31.1588,31.0696,30.8895,31.1347,30.8864,31.1174,31.0316,30.9576,30.8525,30.4532,30.6667,30.6166,30.5900,30.7143,30.7913,30.3904,30.2733,30.5525,30.7711,30.6435,30.7164,30.6306,31.0535,30.7692,30.3568,30.9973,31.0592,30.8093,30.6385,30.7763,30.8393,30.8052,31.0714,30.9695,30.8523,30.8293,31.1176,31.0124,30.8064,30.9514,31.0734,30.8638,31.1286,30.4421,30.8451,30.5625,30.8905,30.5950,30.9462,30.4362,30.7505,30.7317,30.9254,30.8796,30.7000,31.0188,31.2341,30.7821,31.1915,31.3951,30.8521,30.9766,30.6910,31.1926,30.9548,30.8479,31.0524,30.9181,31.0299,30.8833,30.6357,31.2051,30.8570,30.7535,30.9934,30.9415,30.9435,30.8480,30.7258,30.5328,30.6286,30.7449,30.5308,30.5918,30.8575,30.8081,30.6759,30.8863,30.9949,30.8513,30.8653,30.8008,30.9315,31.0563,31.1355,30.9009,31.1824,31.2250,31.1747,31.4127,31.0944,30.8112,30.7540,31.0597,31.2572,30.6375,30.9448,31.1297,30.9985,30.7165,31.2505,30.3331,30.8972,30.6155,30.5452,30.8958,30.9057,30.7086,30.6806,30.6837,31.0571,30.7208,31.0425,31.0830,30.8186,30.9896,30.6854,31.2041,30.9424,31.1650,31.0117,31.2370,31.0165,30.9347,31.1224,31.1876,30.9899,30.7412,30.4417,30.8819,30.3627,30.9893,30.5182,30.7074,30.6216,30.5542,31.1197,30.5832,30.8439,30.8171,30.8255,30.7476,30.6765,30.9721,31.0307,30.9607,31.2197,30.9128,31.1114,31.2335,30.8644,31.0716,31.1348,30.9504,30.9315,30.9968,31.2457,30.9002,31.2312,30.8053,31.0708,30.5669,30.7976,30.6852,30.6642,30.5370,30.5695,30.6062,30.7615,30.6993,31.1366,31.1904,31.0315,31.1619,30.9218,31.0570,31.0704,30.9157,31.2927,30.9629,31.1369,31.1831,31.2561,30.9763,31.0206,31.2429,31.1787,30.7537,30.9533,31.0539,30.8371,30.8955,30.9743,30.9006,31.2235,30.9626,30.7106,31.0815,30.8877,30.5756,30.9510,30.5979,30.9103,30.6278,31.0364,31.0649,31.0258,30.6872,31.2178,30.9686,31.0944,31.0615,30.9690,31.2375,31.0367,30.9014,30.9992,30.8153,31.1172,30.6614,30.9311,31.2459,31.2283,30.9663,31.3073,30.9261,30.8047,30.8532,30.6786,31.1210,30.7832,30.8095,31.1503,31.0744,31.3199,31.1918,30.7119,31.0113,30.9725,31.0800,30.9144,31.0186,31.1631,31.1339,30.8479,31.1887,31.1282,30.8302,31.0518,31.0953,31.0474,31.0557,30.6715,31.0608,31.0377,30.9406,30.8367,30.9133,30.7424,30.7998,30.5274,30.9241,30.5481,30.7785,30.6207,30.8197,30.9430,30.9981,30.8994,31.1124,31.2411,30.8646,31.2381,30.7989,31.1258,30.9387,31.1622,30.9592,30.8041,31.0907,31.0468,30.8224,31.1494,31.1377,31.1710,31.1017,31.3014,30.6911,31.0060,30.7957,30.6689,30.1661,30.9183,30.7724,30.8181,30.8517,30.8586,31.1584,31.0336,31.0969,31.2807,31.3946,30.8252,30.8063,30.9829,31.1465,31.0339,30.8708,31.0489,31.1151,31.2074,30.7615,30.6319,31.2840,31.3995,30.9714,31.2030,30.9349,31.0717,31.1446,30.7290,30.9654,30.9931,30.6743,30.4026,30.7574,30.6000,30.6482,30.8798,31.4457,31.0224,30.7244,30.9735,30.9681,31.1246,30.7717,30.6950,30.9100,30.7239,30.9963,31.2148,31.0174,31.1588,30.8668,31.2604,31.0174,31.2093,30.9117,31.0616,30.8258,30.6608,30.7610,30.8966,30.6731,30.9198,30.7814,30.9847,30.6199,30.7662,30.9399,30.7579,30.8410,31.3066,31.2192,31.0236,31.1537,31.2361,31.1806,31.0360,31.2151,30.8242,30.9199,31.1677,30.6989,31.4229,30.9495,30.8494,31.2446,31.1873,30.8647,31.1229,31.3783,30.9929,31.0376,30.7718,31.2370,30.8879,30.7636,30.6809,30.8526,30.1101,30.7426,31.1991,30.7776,30.9544,31.3704,31.2551,31.0843,31.2259,31.3006,30.9187,30.8048,31.2912,30.8940,31.0337,31.0867,31.3932,30.7548,31.1878,31.3103,30.8424,30.8076,30.8209,31.0716,30.9249,31.1658,31.1587,31.1485,30.8436,30.6942,31.1000,30.9597,30.4530,30.6243,31.0673,30.9701,30.8666,30.5838,30.9544,31.4390,31.0140,30.7835,30.8053,30.9773,31.2129,30.8649,31.0924,31.4195,30.9188,30.7213,30.9476,31.1470,31.3104,31.1170,31.2186,31.2551,31.2301,30.9775,31.2580,31.3320,31.1910,30.8599,30.5823,31.2161,30.2517,30.6615,30.9432,30.7276,30.7088,31.3514,31.0157,31.0328,31.1927,31.2775,31.2156,30.9123,31.3788,31.1683,31.2987,31.0247,30.8908,30.8772,31.1610,31.0566,30.9582,30.9276,31.0998,31.5347,31.2278,31.1317,30.9438,30.8733,30.7684,30.8074,31.2630,30.4454,30.7602,30.5490,30.6161,31.5052,31.0331,31.2932,31.1333,31.0551,30.9847,31.2614,30.6185,31.2971,31.5384,30.6380,31.0629,31.3516,31.5034,31.1519,31.0530,31.4215,31.2329,31.2338,31.3676,31.2405,31.0411,30.9011,31.0497,31.8871,30.9601,30.9807,31.3871,31.1200,30.4994,30.6934,31.0594,30.5681,30.5768,31.0350,30.9614,31.2990,31.0755,31.0162,31.3051,31.3231,30.7890,31.2505,31.3829,31.0400,31.0797,30.8639,31.5467,31.2511,31.1400,30.9419,31.3306,31.4349,31.4712,30.9560,31.5806,30.7152,30.8146,30.8137,31.3204,30.9004,
22:6:18:5:23:22:769,0.0000,273.0000,33.3000,A,0.0000,0.0000,27.5400,99691,136.9349,0,0.0000,0.0000,0.0000,0.0000,0.0000,0.0000,0,0.0000,0.0000,0.0000,0.0000,0.0000,0.0000,0,0,0,0,0,0,0,0.00,0.00,0.00,0,
22:6:18:5:23:22:862,0.0000,273.0000,33.3000,A,0.0000,0.0000,27.5500,99691,136.9349,0,0.0000,0.0000,0.0000,0.0000,0.0000,0.0000,0,0.0000,0.0000,0.0000,0.0000,0.0000,0.0000,0,0,0,0,0,0,0,0.00,0.00,0.00,0,
22:6:18:5:23:22:955,0.0000,273.0000,33.3000,A,0.0000,0.0000,27.5500,99694,136.6819,0,0.0000,0.0000,0.0000,0.0000,0.0000,0.0000,0,0.0000,0.0000,0.0000,0.0000,0.0000,0.0000,0,0,0,0,0,0,0,0.00,0.00,0.00,0,
22:6:18:5:23:23:64,0.0000,13.0000,33.4000,A,0.0000,0.0000,27.5600,99693,136.7662,0,0.0000,0.0000,0.0000,0.0000,0.0000,0.0000,0,0.0000,0.0000,0.0000,0.0000,0.0000,0.0000,0,0,0,0,0,0,0,0.00,0.00,0.00,0,
22:6:18:5:23:23:157,0.0000,13.0000,33.4000,A,0.0000,0.0000,27.5600,99692,136.8506,0,0.0000,0.0000,0.0000,0.0000,0.0000,0.0000,0,0.0000,0.0000,0.0000,0.0000,0.0000,0.0000,0,0,0,0,0,0,0,0.00,0.00,0.00,0,
22:6:18:5:23:23:266,0.0000,165.0000,33.3000,A,0.0000,0.0000,27.5600,99694,136.6819,0,0.0000,0.0000,0.0000,0.0000,0.0000,0.0000,0,0.0000,0.0000,0.0000,0.0000,0.0000,0.0000,0,0,0,0,0,0,0,0.00,0.00,0.00,0,
22:6:18:5:23:23:359,0.0000,165.0000,33.3000,A,0.0000,0.0000,27.5600,99695,136.5975,0,0.0000,0.0000,0.0000,0.0000,0.0000,0.0000,0,0.0000,0.0000,0.0000,0.0000,0.0000,0.0000,0,0,0,0,0,0,0,0.00,0.00,0.00,0,
22:6:18:5:23:23:452,0.0000,165.0000,33.3000,A,0.0000,0.0000,27.5700,99688,137.1880,0,0.0000,0.0000,0.0000,0.0000,0.0000,0.0000,0,0.0000,0.0000,0.0000,0.0000,0.0000,0.0000,0,0,0,0,0,0,0,0.00,0.00,0.00,0,
22:6:18:5:23:23:562,0.1000,161.0000,33.2000,A,0.0000,0.0000,27.5600,99696,136.5132,0,0.0000,0.0000,0.0000,0.0000,0.0000,0.0000,0,0.0000,0.0000,0.0000,0.0000,0.0000,0.0000,0,0,0,0,0,0,0,0.00,0.00,0.00,0,
