Timestamp,Wind speed,Wind angle,Acoustic temperature windsensor,Temperature validity,Temperature_aht10,Relative humidity_aht10,Temperature_ms5611,Pressure_ms5611,Absolute_altitude_ms5611,Roll,Pitch,Yaw,Roll speed,Pitch speed,Yaw speed,x,y,z,vx,vy,vz,pix_lat,pix_lon,pix_alt,pix_gps_vx,pix_gps_vy,pix_gps_vz,latitude,longitude,altitude_gps,Pixel_0,Pixel_1,Pixel_2,Pixel_3,Pixel_4,Pixel_5,Pixel_6,Pixel_7,Pixel_8,Pixel_9,Pixel_10,Pixel_11,Pixel_12,Pixel_13,Pixel_14,Pixel_15,Pixel_16,Pixel_17,Pixel_18,Pixel_19,Pixel_20,Pixel_21,Pixel_22,Pixel_23,Pixel_24,Pixel_25,Pixel_26,Pixel_27,Pixel_28,Pixel_29,Pixel_30,Pixel_31,Pixel_32,Pixel_33,Pixel_34,Pixel_35,Pixel_36,Pixel_37,Pixel_38,Pixel_39,Pixel_40,Pixel_41,Pixel_42,Pixel_43,Pixel_44,Pixel_45,Pixel_46,Pixel_47,Pixel_48,Pixel_49,Pixel_50,Pixel_51,Pixel_52,Pixel_53,Pixel_54,Pixel_55,Pixel_56,Pixel_57,Pixel_58,Pixel_59,Pixel_60,Pixel_61,Pixel_62,Pixel_63,Pixel_64,Pixel_65,Pixel_66,Pixel_67,Pixel_68,Pixel_69,Pixel_70,Pixel_71,Pixel_72,Pixel_73,Pixel_74,Pixel_75,Pixel_76,Pixel_77,Pixel_78,Pixel_79,Pixel_80,Pixel_81,Pixel_82,Pixel_83,Pixel_84,Pixel_85,Pixel_86,Pixel_87,Pixel_88,Pixel_89,Pixel_90,Pixel_91,Pixel_92,Pixel_93,Pixel_94,Pixel_95,Pixel_96,Pixel_97,Pixel_98,Pixel_99,Pixel_100,Pixel_101,Pixel_102,Pixel_103,Pixel_104,Pixel_105,Pixel_106,Pixel_107,Pixel_108,Pixel_109,Pixel_110,Pixel_111,Pixel_112,Pixel_113,Pixel_114,Pixel_115,Pixel_116,Pixel_117,Pixel_118,Pixel_119,Pixel_120,Pixel_121,Pixel_122,Pixel_123,Pixel_124,Pixel_125,Pixel_126,Pixel_127,Pixel_128,Pixel_129,Pixel_130,Pixel_131,Pixel_132,Pixel_133,Pixel_134,Pixel_135,Pixel_136,Pixel_137,Pixel_138,Pixel_139,Pixel_140,Pixel_141,Pixel_142,Pixel_143,Pixel_144,Pixel_145,Pixel_146,Pixel_147,Pixel_148,Pixel_149,Pixel_150,Pixel_151,Pixel_152,Pixel_153,Pixel_154,Pixel_155,Pixel_156,Pixel_157,Pixel_158,Pixel_159,Pixel_160,Pixel_161,Pixel_162,Pixel_163,Pixel_164,Pixel_165,Pixel_166,Pixel_167,Pixel_168,Pixel_169,Pixel_170,Pixel_171,Pixel_172,Pixel_173,Pixel_174,Pixel_175,Pixel_176,Pixel_177,Pixel_178,Pixel_179,Pixel_180,Pixel_181,Pixel_182,Pixel_183,Pixel_184,Pixel_185,Pixel_186,Pixel_187,Pixel_188,Pixel_189,Pixel_190,Pixel_191,Pixel_192,Pixel_193,Pixel_194,Pixel_195,Pixel_196,Pixel_197,Pixel_198,Pixel_199,Pixel_200,Pixel_201,Pixel_202,Pixel_203,Pixel_204,Pixel_205,Pixel_206,Pixel_207,Pixel_208,Pixel_209,Pixel_210,Pixel_211,Pixel_212,Pixel_213,Pixel_214,Pixel_215,Pixel_216,Pixel_217,Pixel_218,Pixel_219,Pixel_220,Pixel_221,Pixel_222,Pixel_223,Pixel_224,Pixel_225,Pixel_226,Pixel_227,Pixel_228,Pixel_229,Pixel_230,Pixel_231,Pixel_232,Pixel_233,Pixel_234,Pixel_235,Pixel_236,Pixel_237,Pixel_238,Pixel_239,Pixel_240,Pixel_241,Pixel_242,Pixel_243,Pixel_244,Pixel_245,Pixel_246,Pixel_247,Pixel_248,Pixel_249,Pixel_250,Pixel_251,Pixel_252,Pixel_253,Pixel_254,Pixel_255,Pixel_256,Pixel_257,Pixel_258,Pixel_259,Pixel_260,Pixel_261,Pixel_262,Pixel_263,Pixel_264,Pixel_265,Pixel_266,Pixel_267,Pixel_268,Pixel_269,Pixel_270,Pixel_271,Pixel_272,Pixel_273,Pixel_274,Pixel_275,Pixel_276,Pixel_277,Pixel_278,Pixel_279,Pixel_280,Pixel_281,Pixel_282,Pixel_283,Pixel_284,Pixel_285,Pixel_286,Pixel_287,Pixel_288,Pixel_289,Pixel_290,Pixel_291,Pixel_292,Pixel_293,Pixel_294,Pixel_295,Pixel_296,Pixel_297,Pixel_298,Pixel_299,Pixel_300,Pixel_301,Pixel_302,Pixel_303,Pixel_304,Pixel_305,Pixel_306,Pixel_307,Pixel_308,Pixel_309,Pixel_310,Pixel_311,Pixel_312,Pixel_313,Pixel_314,Pixel_315,Pixel_316,Pixel_317,Pixel_318,Pixel_319,Pixel_320,Pixel_321,Pixel_322,Pixel_323,Pixel_324,Pixel_325,Pixel_326,Pixel_327,Pixel_328,Pixel_329,Pixel_330,Pixel_331,Pixel_332,Pixel_333,Pixel_334,Pixel_335,Pixel_336,Pixel_337,Pixel_338,Pixel_339,Pixel_340,Pixel_341,Pixel_342,Pixel_343,Pixel_344,Pixel_345,Pixel_346,Pixel_347,Pixel_348,Pixel_349,Pixel_350,Pixel_351,Pixel_352,Pixel_353,Pixel_354,Pixel_355,Pixel_356,Pixel_357,Pixel_358,Pixel_359,Pixel_360,Pixel_361,Pixel_362,Pixel_363,Pixel_364,Pixel_365,Pixel_366,Pixel_367,Pixel_368,Pixel_369,Pixel_370,Pixel_371,Pixel_372,Pixel_373,Pixel_374,Pixel_375,Pixel_376,Pixel_377,Pixel_378,Pixel_379,Pixel_380,Pixel_381,Pixel_382,Pixel_383,Pixel_384,Pixel_385,Pixel_386,Pixel_387,Pixel_388,Pixel_389,Pixel_390,Pixel_391,Pixel_392,Pixel_393,Pixel_394,Pixel_395,Pixel_396,Pixel_397,Pixel_398,Pixel_399,Pixel_400,Pixel_401,Pixel_402,Pixel_403,Pixel_404,Pixel_405,Pixel_406,Pixel_407,Pixel_408,Pixel_409,Pixel_410,Pixel_411,Pixel_412,Pixel_413,Pixel_414,Pixel_415,Pixel_416,Pixel_417,Pixel_418,Pixel_419,Pixel_420,Pixel_421,Pixel_422,Pixel_423,Pixel_424,Pixel_425,Pixel_426,Pixel_427,Pixel_428,Pixel_429,Pixel_430,Pixel_431,Pixel_432,Pixel_433,Pixel_434,Pixel_435,Pixel_436,Pixel_437,Pixel_438,Pixel_439,Pixel_440,Pixel_441,Pixel_442,Pixel_443,Pixel_444,Pixel_445,Pixel_446,Pixel_447,Pixel_448,Pixel_449,Pixel_450,Pixel_451,Pixel_452,Pixel_453,Pixel_454,Pixel_455,Pixel_456,Pixel_457,Pixel_458,Pixel_459,Pixel_460,Pixel_461,Pixel_462,Pixel_463,Pixel_464,Pixel_465,Pixel_466,Pixel_467,Pixel_468,Pixel_469,Pixel_470,Pixel_471,Pixel_472,Pixel_473,Pixel_474,Pixel_475,Pixel_476,Pixel_477,Pixel_478,Pixel_479,Pixel_480,Pixel_481,Pixel_482,Pixel_483,Pixel_484,Pixel_485,Pixel_486,Pixel_487,Pixel_488,Pixel_489,Pixel_490,Pixel_491,Pixel_492,Pixel_493,Pixel_494,Pixel_495,Pixel_496,Pixel_497,Pixel_498,Pixel_499,Pixel_500,Pixel_501,Pixel_502,Pixel_503,Pixel_504,Pixel_505,Pixel_506,Pixel_507,Pixel_508,Pixel_509,Pixel_510,Pixel_511,Pixel_512,Pixel_513,Pixel_514,Pixel_515,Pixel_516,Pixel_517,Pixel_518,Pixel_519,Pixel_520,Pixel_521,Pixel_522,Pixel_523,Pixel_524,Pixel_525,Pixel_526,Pixel_527,Pixel_528,Pixel_529,Pixel_530,Pixel_531,Pixel_532,Pixel_533,Pixel_534,Pixel_535,Pixel_536,Pixel_537,Pixel_538,Pixel_539,Pixel_540,Pixel_541,Pixel_542,Pixel_543,Pixel_544,Pixel_545,Pixel_546,Pixel_547,Pixel_548,Pixel_549,Pixel_550,Pixel_551,Pixel_552,Pixel_553,Pixel_554,Pixel_555,Pixel_556,Pixel_557,Pixel_558,Pixel_559,Pixel_560,Pixel_561,Pixel_562,Pixel_563,Pixel_564,Pixel_565,Pixel_566,Pixel_567,Pixel_568,Pixel_569,Pixel_570,Pixel_571,Pixel_572,Pixel_573,Pixel_574,Pixel_575,Pixel_576,Pixel_577,Pixel_578,Pixel_579,Pixel_580,Pixel_581,Pixel_582,Pixel_583,Pixel_584,Pixel_585,Pixel_586,Pixel_587,Pixel_588,Pixel_589,Pixel_590,Pixel_591,Pixel_592,Pixel_593,Pixel_594,Pixel_595,Pixel_596,Pixel_597,Pixel_598,Pixel_599,Pixel_600,Pixel_601,Pixel_602,Pixel_603,Pixel_604,Pixel_605,Pixel_606,Pixel_607,Pixel_608,Pixel_609,Pixel_610,Pixel_611,Pixel_612,Pixel_613,Pixel_614,Pixel_615,Pixel_616,Pixel_617,Pixel_618,Pixel_619,Pixel_620,Pixel_621,Pixel_622,Pixel_623,Pixel_624,Pixel_625,Pixel_626,Pixel_627,Pixel_628,Pixel_629,Pixel_630,Pixel_631,Pixel_632,Pixel_633,Pixel_634,Pixel_635,Pixel_636,Pixel_637,Pixel_638,Pixel_639,Pixel_640,Pixel_641,Pixel_642,Pixel_643,Pixel_644,Pixel_645,Pixel_646,Pixel_647,Pixel_648,Pixel_649,Pixel_650,Pixel_651,Pixel_652,Pixel_653,Pixel_654,Pixel_655,Pixel_656,Pixel_657,Pixel_658,Pixel_659,Pixel_660,Pixel_661,Pixel_662,Pixel_663,Pixel_664,Pixel_665,Pixel_666,Pixel_667,Pixel_668,Pixel_669,Pixel_670,Pixel_671,Pixel_672,Pixel_673,Pixel_674,Pixel_675,Pixel_676,Pixel_677,Pixel_678,Pixel_679,Pixel_680,Pixel_681,Pixel_682,Pixel_683,Pixel_684,Pixel_685,Pixel_686,Pixel_687,Pixel_688,Pixel_689,Pixel_690,Pixel_691,Pixel_692,Pixel_693,Pixel_694,Pixel_695,Pixel_696,Pixel_697,Pixel_698,Pixel_699,Pixel_700,Pixel_701,Pixel_702,Pixel_703,Pixel_704,Pixel_705,Pixel_706,Pixel_707,Pixel_708,Pixel_709,Pixel_710,Pixel_711,Pixel_712,Pixel_713,Pixel_714,Pixel_715,Pixel_716,Pixel_717,Pixel_718,Pixel_719,Pixel_720,Pixel_721,Pixel_722,Pixel_723,Pixel_724,Pixel_725,Pixel_726,Pixel_727,Pixel_728,Pixel_729,Pixel_730,Pixel_731,Pixel_732,Pixel_733,Pixel_734,Pixel_735,Pixel_736,Pixel_737,Pixel_738,Pixel_739,Pixel_740,Pixel_741,Pixel_742,Pixel_743,Pixel_744,Pixel_745,Pixel_746,Pixel_747,Pixel_748,Pixel_749,Pixel_750,Pixel_751,Pixel_752,Pixel_753,Pixel_754,Pixel_755,Pixel_756,Pixel_757,Pixel_758,Pixel_759,Pixel_760,Pixel_761,Pixel_762,Pixel_763,Pixel_764,Pixel_765,Pixel_766,Pixel_767,
22:6:8:8:53:3:391,0.0000,0.0000,0.0000,,31.7795,65.3812,31.5600,100492,69.5831,0.0000,0.0000,0.0000,0.0000,0.0000,0.0000,0.0000,0.0000,0.0000,0.0000,0.0000,0.0000,0,0,0,0,0,0,0.0000000,0.0000000,0.0000000,
22:6:8:8:53:3:494,0.0000,0.0000,0.0000,,31.8302,65.4110,31.5800,100496,69.2478,0.0000,0.0000,0.0000,0.0000,0.0000,0.0000,0.0000,0.0000,0.0000,0.0000,0.0000,0.0000,0,0,0,0,0,0,0.0000000,0.0000000,0.0000000,
22:6:8:8:53:3:613,0.0000,0.0000,0.0000,,31.8588,65.4147,31.5900,100493,69.4993,0.0000,0.0000,0.0000,0.0000,0.0000,0.0000,0.0000,0.0000,0.0000,0.0000,0.0000,0.0000,0,0,0,0,0,0,0.0000000,0.0000000,0.0000000,
22:6:8:8:53:3:715,0.0000,0.0000,0.0000,,31.8859,65.4235,31.6000,100493,69.4993,0.0000,0.0000,0.0000,0.0000,0.0000,0.0000,0.0000,0.0000,0.0000,0.0000,0.0000,0.0000,0,0,0,0,0,0,0.0000000,0.0000000,0.0000000,
22:6:8:8:53:3:830,0.0000,0.0000,0.0000,,31.9014,65.4182,31.6100,100497,69.1640,0.0000,0.0000,0.0000,0.0000,0.0000,0.0000,0.0000,0.0000,0.0000,0.0000,0.0000,0.0000,0,0,0,0,0,0,0.0000000,0.0000000,0.0000000,
22:6:8:8:53:3:936,0.0000,0.0000,0.0000,,31.9199,65.4521,31.6100,100496,69.2478,0.0000,0.0000,0.0000,0.0000,0.0000,0.0000,0.0000,0.0000,0.0000,0.0000,0.0000,0.0000,0,0,0,0,0,0,0.0000000,0.0000000,0.0000000,
22:6:8:8:53:4:51,0.0000,0.0000,0.0000,,31.9298,65.4451,31.6100,100497,69.1640,0.0000,0.0000,0.0000,0.0000,0.0000,0.0000,0.0000,0.0000,0.0000,0.0000,0.0000,0.0000,0,0,0,0,0,0,0.0000000,0.0000000,0.0000000,
22:6:8:8:53:4:157,0.0000,0.0000,0.0000,,31.9410,65.4366,31.6100,100493,69.4993,0.0000,0.0000,0.0000,0.0000,0.0000,0.0000,0.0000,0.0000,0.0000,0.0000,0.0000,0.0000,0,0,0,0,0,0,0.0000000,0.0000000,0.0000000,
22:6:8:8:53:4:272,0.0000,0.0000,0.0000,,31.9458,65.4509,31.6100,100497,69.1640,0.0000,0.0000,0.0000,0.0000,0.0000,0.0000,0.0000,0.0000,0.0000,0.0000,0.0000,0.0000,0,0,0,0,0,0,0.0000000,0.0000000,0.0000000,
22:6:8:8:53:4:374,0.0000,0.0000,0.0000,,31.9590,65.4389,31.6200,100497,69.1640,0.0000,0.0000,0.0000,0.0000,0.0000,0.0000,0.0000,0.0000,0.0000,0.0000,0.0000,0.0000,0,0,0,0,0,0,0.0000000,0.0000000,0.0000000,34.9242,34.2801,34.5178,34.4562,34.4502,34.1746,34.5769,34.1687,34.5247,33.9590,34.1423,34.1920,33.8044,33.9849,33.7364,34.0171,34.1382,33.6591,33.9623,34.0459,34.3436,33.8753,34.0010,34.2973,34.4311,34.1338,34.2737,33.9794,34.3974,34.2643,34.4589,34.2619,34.5220,34.5978,34.4414,34.3139,34.5650,34.2711,34.3195,33.8464,34.0784,34.0315,34.0763,33.8349,34.0532,33.7215,33.8915,33.8854,34.0230,33.5168,34.2831,33.6931,34.0809,33.7756,34.2900,34.1543,34.3317,34.5916,34.4364,34.2577,34.2248,34.3406,34.3531,34.7217,34.6200,34.9568,33.8219,34.2019,34.0467,34.1448,33.9255,33.9927,34.1237,33.9765,33.9049,33.9791,33.9632,33.9264,33.9573,33.9899,33.9335,33.8626,33.7753,33.5055,33.9719,33.8553,34.1886,34.2449,34.1938,34.1446,34.2785,34.2180,34.5422,34.4232,34.3991,34.4386,34.2419,34.3406,34.3888,34.2674,34.3149,34.0292,34.2704,34.0164,34.2188,33.8332,33.8752,33.8261,33.8566,33.6646,34.0767,33.7201,33.8537,34.0590,34.0448,33.8908,34.2352,33.7629,33.9425,34.1164,34.2409,33.9783,34.3776,34.0155,34.5832,34.0848,34.3032,34.2075,34.1009,34.0966,34.4243,34.0145,34.1805,33.9757,34.1287,34.1453,33.7570,33.9499,33.5953,33.7954,33.9288,33.7833,33.9162,33.8043,33.7795,33.8082,33.7566,33.6613,33.9466,33.8251,33.4867,33.8660,34.0162,33.8936,34.2468,34.0060,34.5008,34.0298,34.5723,34.3918,34.4128,34.3625,33.7477,34.2452,33.9401,34.2040,34.0760,34.1749,34.0073,33.6573,34.0338,34.0229,34.0326,33.7153,33.9077,33.5465,34.0132,33.5648,33.5815,33.5652,33.7201,33.9188,33.7692,34.0935,34.2511,34.1426,34.1551,34.0124,34.4072,34.4537,34.2591,34.1871,34.7215,34.2167,33.9998,34.3836,34.1825,33.6068,33.9305,33.7809,33.7901,33.9339,33.7545,33.6326,33.7839,33.7743,33.7501,33.7918,33.5954,33.7956,33.7603,33.9844,34.2598,33.6665,33.9843,33.7395,34.3332,33.5340,33.8689,33.9724,34.2542,34.0179,34.1673,34.1449,34.2589,34.0966,34.2012,33.7134,33.9149,34.0193,34.1144,34.0395,34.0295,33.7235,33.9190,33.7042,33.8906,33.8724,33.7455,33.7039,34.0206,34.0415,34.0665,33.8884,33.9015,33.5923,33.9310,33.7593,33.9462,33.8028,33.8114,33.9847,34.3673,34.2408,34.4449,34.3671,34.5011,34.0079,34.1838,33.9947,34.0055,33.9452,33.6322,33.7919,33.9542,33.7740,33.7501,33.9465,34.0879,33.7779,33.7474,33.8076,33.9168,33.7885,33.6271,33.5090,33.8240,33.8244,33.6601,33.7504,34.0068,33.9183,33.8553,33.6049,34.4748,33.6292,34.1073,34.5268,34.2127,34.1522,33.7842,34.0999,33.9792,34.0718,33.9547,33.7187,34.0540,33.5558,33.7656,34.0244,33.7533,33.5816,33.7705,33.7244,33.8890,33.8938,33.9125,34.0518,34.0609,34.0764,33.9462,33.7800,34.4487,33.6410,34.1548,33.8133,34.3743,34.0482,34.4397,34.1522,34.3052,34.3911,33.9937,34.2135,34.1520,33.9371,33.8069,33.9483,33.9333,33.9318,33.9249,33.6734,34.0717,34.0843,33.8056,33.8013,33.7948,33.8347,33.6455,33.8616,33.9756,34.0179,33.8204,33.6944,34.0099,33.7621,34.0471,33.9715,34.0838,34.0071,34.3169,33.9309,33.8654,33.9684,33.8611,34.0975,33.9765,33.9049,33.7965,34.2203,34.0729,33.7468,33.9393,33.8845,33.7517,33.5817,33.7854,33.7264,33.7375,33.7503,34.0831,33.7449,33.9062,33.9212,33.9485,33.7716,33.8051,33.8212,34.0003,34.1803,34.2079,34.2340,34.3043,34.3635,34.3779,34.0013,33.8841,33.9954,34.0133,34.1232,33.9934,33.7977,33.9727,34.0999,33.6579,33.8038,34.1156,33.4831,33.6636,33.6541,33.9424,33.6979,33.8181,33.8781,33.9715,33.7215,33.6800,34.0720,33.8599,34.0925,34.0524,34.3162,33.9135,34.1949,34.3640,34.3226,34.3274,34.2005,34.2565,33.9462,34.0096,33.6039,34.0022,33.7462,33.6455,33.9143,33.8134,33.5826,33.9537,33.9073,33.5035,33.9033,33.9172,33.9206,33.6457,34.0774,33.7957,33.9392,33.9739,33.9593,33.9570,33.9981,34.2396,34.3552,34.2281,33.9038,34.3347,34.1784,34.7610,34.2617,34.1007,34.1930,34.2317,34.1388,34.0222,34.1321,33.7071,33.9994,33.5324,33.6691,33.8440,33.6515,33.9836,33.8220,33.6536,33.5181,33.6864,34.1999,33.9841,33.7386,34.0128,34.0884,34.2103,33.9393,34.0782,33.9938,34.6482,34.1991,34.3368,34.5375,34.3863,34.2351,34.1187,33.8093,34.2437,33.9727,34.0408,33.7851,33.8389,33.9407,34.0049,33.7774,33.8448,33.7761,33.9913,33.7862,33.8436,33.9492,33.9902,33.4912,34.1254,33.9720,33.8921,33.9778,34.1918,33.6801,34.2762,34.0931,34.2677,34.0919,34.3693,34.4011,34.4161,34.4288,33.9966,34.0846,34.0838,34.1718,34.0640,33.8894,34.0197,34.0164,33.8325,33.7202,33.9985,33.9751,33.8386,33.8896,34.0096,34.0220,33.8646,34.0689,34.0439,33.9093,34.0486,34.1042,34.2545,33.7880,34.1218,34.1861,34.1965,33.4912,34.2051,34.3695,34.0276,34.4580,33.9892,34.0209,34.1225,34.1692,34.2557,33.6592,33.8841,33.8169,33.8796,34.2865,33.8941,33.8062,34.0321,33.8166,33.9738,33.6628,33.8701,33.9703,33.8974,34.1575,34.0892,34.0101,34.1905,34.2732,34.3130,33.9115,34.3103,34.1299,34.4195,34.4412,34.3300,34.7330,34.2023,34.3154,34.5109,34.2524,33.9388,34.0863,34.0817,34.0517,34.2242,34.0720,34.2086,33.8930,33.5742,34.0779,34.0303,33.7515,33.7428,34.1009,34.0542,33.9346,33.7525,34.3599,34.2983,34.1602,34.1512,34.2191,34.3776,34.4423,34.4515,34.6110,34.3281,34.5418,34.0534,34.2729,34.0319,34.0512,34.0355,34.5319,33.9679,34.0314,34.1005,33.9981,33.7671,33.6983,34.2323,34.0057,34.2068,33.8701,33.9156,34.1780,33.9446,34.0358,33.9798,34.0426,34.0801,34.1500,34.3826,34.1719,34.3753,34.1747,34.8965,34.1555,34.6488,34.3910,34.4792,34.5697,34.0531,34.2951,34.1704,34.3077,34.1410,34.0898,34.1132,34.2721,34.1109,33.9263,33.9415,33.9504,34.1130,33.7780,33.9354,34.3009,34.3107,33.9672,34.3100,34.0184,34.3051,34.1991,34.5687,34.4451,34.2636,34.4986,34.5189,34.7525,34.4757,34.4249,34.1414,34.5411,34.4856,34.3670,34.0432,34.0872,34.0303,34.2481,33.8903,34.0597,33.9955,34.2257,34.1372,34.3770,34.0993,34.2785,34.1890,34.3947,34.3366,34.0935,34.0477,34.2787,34.3792,34.3784,34.2768,34.5516,34.4562,34.2425,34.7987,34.8658,34.6647,34.6848,34.5663,34.8490,34.4659,34.3707,34.2472,34.1952,34.3710,33.9737,34.1921,34.5124,34.1459,33.7875,33.8240,34.4843,34.1115,34.4689,34.4952,34.3471,34.5156,34.5065,34.3719,34.4070,34.5698,34.0638,34.1155,34.7258,34.5500,34.1601,34.8109,35.0515,34.7201,34.4106,34.6371,35.0112,34.0908,34.5509,34.4924,34.6958,34.0031,34.4754,34.0382,34.2182,34.2896,34.2689,34.1808,34.5269,34.2570,34.1936,34.1795,34.2000,33.9897,34.2238,34.3786,34.4910,34.3283,34.4821,34.6675,34.5519,34.8690,34.8037,35.2581,35.3173,
22:6:8:8:53:4:550,0.0000,0.0000,0.0000,,31.9347,65.4412,31.6100,100495,69.3316,0.0000,0.0000,0.0000,0.0000,0.0000,0.0000,0.0000,0.0000,0.0000,0.0000,0.0000,0.0000,0,0,0,0,0,0,0.0000000,0.0000000,0.0000000,
22:6:8:8:53:4:653,0.0000,0.0000,0.0000,,31.9523,65.4584,31.6100,100496,69.2478,0.0000,0.0000,0.0000,0.0000,0.0000,0.0000,0.0000,0.0000,0.0000,0.0000,0.0000,0.0000,0,0,0,0,0,0,0.0000000,0.0000000,0.0000000,
22:6:8:8:53:4:772,0.0000,0.0000,0.0000,,31.9590,65.4697,31.6200,100497,69.1640,0.0000,0.0000,0.0000,0.0000,0.0000,0.0000,0.0000,0.0000,0.0000,0.0000,0.0000,0.0000,0,0,0,0,0,0,0.0000000,0.0000000,0.0000000,
22:6:8:8:53:4:875,0.0000,0.0000,0.0000,,31.9700,65.4683,31.6200,100494,69.4154,0.0000,0.0000,0.0000,0.0000,0.0000,0.0000,0.0000,0.0000,0.0000,0.0000,0.0000,0.0000,0,0,0,0,0,0,0.0000000,0.0000000,0.0000000,
22:6:8:8:53:4:990,0.0000,0.0000,0.0000,,31.9706,65.4550,31.6200,100498,69.0802,0.0000,0.0000,0.0000,0.0000,0.0000,0.0000,0.0000,0.0000,0.0000,0.0000,0.0000,0.0000,0,0,0,0,0,0,0.0000000,0.0000000,0.0000000,
22:6:8:8:53:5:96,0.0000,0.0000,0.0000,,31.9792,65.4596,31.6200,100494,69.4154,0.0000,0.0000,0.0000,0.0000,0.0000,0.0000,0.0000,0.0000,0.0000,0.0000,0.0000,0.0000,0,0,0,0,0,0,0.0000000,0.0000000,0.0000000,
22:6:8:8:53:5:211,0.0000,0.0000,0.0000,,31.9782,65.4654,31.6300,100494,69.4154,0.0000,0.0000,0.0000,0.0000,0.0000,0.0000,0.0000,0.0000,0.0000,0.0000,0.0000,0.0000,0,0,0,0,0,0,0.0000000,0.0000000,0.0000000,
22:6:8:8:53:5:317,0.0000,0.0000,0.0000,,31.9853,65.4704,31.6300,100497,69.1640,0.0000,0.0000,0.0000,0.0000,0.0000,0.0000,0.0000,0.0000,0.0000,0.0000,0.0000,0.0000,0,0,0,0,0,0,0.0000000,0.0000000,0.0000000,35.1871,34.7721,34.7627,34.7015,34.4700,33.7870,34.4003,33.8002,33.9845,33.7956,34.1617,34.5772,34.1797,34.0069,33.9311,34.2167,34.1575,34.3852,34.3426,34.2493,33.8175,33.8980,33.8330,34.3209,34.4508,33.9570,33.8766,34.4294,34.4179,34.0665,34.2428,34.5294,34.5481,34.3907,34.6872,34.3336,34.1910,34.0905,34.3444,34.2493,34.2847,33.6873,34.4595,34.0326,34.2506,33.7409,34.0877,34.0789,34.0457,33.7090,33.9532,34.4177,34.2817,33.7952,34.1317,34.5486,34.1663,34.0264,34.4620,34.6935,34.0361,34.3612,34.3804,34.5082,34.6403,34.5417,34.0538,34.4304,34.2598,34.1669,34.1317,34.0151,33.7931,33.9983,34.2676,33.8314,33.9824,33.7812,33.9765,34.0122,33.7854,33.8846,33.7945,33.8670,33.9912,34.0477,33.8561,34.0927,34.2133,33.7945,34.1050,34.4397,34.3602,34.2458,34.4195,34.4652,34.7141,34.1444,34.6211,34.4887,34.3389,33.8601,34.2947,34.2150,34.0698,33.5083,33.8989,34.0126,33.8793,33.8472,34.2646,33.9031,34.0411,33.9141,34.0684,34.0771,33.9258,33.7823,33.9666,34.1359,34.4415,33.8143,34.0205,34.0355,34.0067,34.3042,34.9808,34.0074,34.3354,34.1195,34.4440,34.2331,34.3869,33.8151,33.9717,33.9907,33.9446,33.9715,34.1077,34.1506,33.9479,33.9662,33.9352,33.5034,33.7985,33.8298,33.7757,33.8460,33.8023,34.0110,33.8416,33.7176,34.3788,34.0908,34.2665,34.3957,34.5208,34.0538,34.5926,34.4178,34.0158,34.1788,34.1749,34.2647,34.1472,33.8651,34.4453,33.8466,34.1960,33.5102,34.2193,34.0421,34.0551,33.5749,33.9311,33.7252,34.0354,33.4258,33.7660,33.9071,34.2286,33.6130,34.2896,34.1130,33.5933,33.8184,34.1798,34.2125,34.4318,34.2812,34.2851,34.2079,34.5366,34.0395,34.0194,34.0250,34.3790,33.6284,34.1212,34.1409,33.8092,33.7944,33.9338,33.9705,33.6460,33.4843,34.0825,33.6547,33.6143,33.6594,33.9364,33.8480,33.8120,33.8473,34.0036,34.0949,33.6970,33.8960,34.0630,33.9959,34.0902,34.0416,34.5890,34.3756,34.0803,34.1162,34.4145,34.1098,33.9384,33.8684,33.9688,34.0587,33.7337,33.9011,33.7836,33.8808,33.7575,33.7376,33.9241,33.8802,33.8886,33.5928,34.0899,34.0645,33.9242,33.6116,34.1187,34.1080,33.9692,33.9905,34.3546,34.0045,34.0266,33.8914,33.8761,34.3877,34.3219,34.2261,34.3890,34.3837,34.0249,34.1360,33.9859,34.1423,33.6572,33.9568,33.7691,33.9682,33.7989,33.7991,33.7663,34.1350,33.7845,33.5034,33.9605,33.6860,33.8431,33.5391,33.8391,34.0926,34.0261,33.9407,34.2215,34.1568,33.9548,34.0204,34.5202,34.3554,34.0399,33.9779,33.9934,34.1194,34.0029,33.9228,33.8133,33.7379,33.9201,33.5749,33.9450,33.7312,33.9289,33.6007,33.9466,33.7435,33.7613,33.4577,33.7797,33.7641,33.9303,33.9430,34.1278,34.1176,34.1462,33.4974,34.1793,34.0080,34.0417,33.8863,34.2714,34.1727,34.3251,34.4134,34.0133,34.5953,34.0024,33.7882,33.6612,33.8053,33.7944,33.7969,33.9440,33.8515,33.3277,33.6476,33.6733,33.9772,33.6640,33.8562,33.8180,33.7294,33.8415,33.8836,33.6796,34.0379,33.8679,33.9471,34.2345,34.1641,33.9272,34.2092,34.7225,34.5403,34.0855,33.9882,34.2527,34.1170,34.1676,33.7550,33.8206,33.7488,33.7817,33.6107,33.8077,34.0588,34.2292,33.6008,33.8090,33.7455,33.6106,33.6183,33.8027,33.7641,33.9289,33.6291,33.9724,33.7910,34.1501,33.8408,34.3582,34.2000,33.7063,33.7213,34.5208,34.1908,34.2016,34.4093,33.9039,34.0178,33.8608,33.9787,33.8481,33.8196,33.9919,33.6501,33.9902,34.1365,33.6830,33.6551,33.8333,33.6759,33.6621,33.7194,33.6845,33.9003,33.8378,33.7433,33.6993,33.9343,33.8793,33.7929,34.0720,34.1692,34.1071,33.8680,34.1941,34.1555,34.1574,33.8368,34.1005,34.1445,34.2046,33.7883,34.0267,33.9273,33.9825,33.7770,34.1483,33.6018,33.8262,33.7767,33.9763,33.9225,33.6422,33.6432,33.8217,33.6370,33.6660,33.8064,33.9980,33.8189,34.1402,34.0177,34.2646,33.8653,34.0787,33.9239,34.3608,34.5833,34.1927,34.2843,34.4835,34.0363,33.9128,33.9954,33.8784,33.9916,33.7265,34.0211,33.7068,33.9924,33.8633,33.9744,34.0028,33.8439,33.6727,33.8392,34.0127,33.7638,33.6957,33.7606,33.8722,33.9515,34.2298,33.7976,34.6088,34.1877,34.1454,34.2227,34.3570,34.5629,34.0192,34.0663,33.9633,34.1874,33.9305,33.6619,33.9025,34.1298,34.0211,33.6475,34.1836,33.7967,33.8683,33.6446,33.8654,34.1083,33.8668,33.9686,34.0144,33.8153,33.9955,33.6889,34.2365,33.8375,33.8912,33.6999,34.4710,34.1131,34.1181,33.7605,34.5868,34.2278,34.2376,34.2569,34.2015,34.2908,33.9310,34.1939,33.7509,33.7486,34.0391,33.7203,33.6925,34.0578,33.8661,33.8444,34.0099,34.0664,34.0289,33.8895,33.7283,33.9375,33.7546,33.9315,34.2292,33.9656,34.1122,33.8108,34.4882,34.2099,34.3946,34.0595,34.4201,34.3953,34.2540,34.2847,34.2003,34.0408,33.9751,33.6836,34.1156,34.1640,33.7492,33.5174,34.0639,34.1489,33.9178,33.5192,33.9056,33.9898,33.6888,33.6823,34.2042,33.9898,33.9212,33.8664,34.1141,34.0298,34.0531,34.2932,34.1658,34.1050,34.5141,34.1502,35.0267,34.2667,33.9372,34.3632,34.0324,34.5230,34.0065,34.2749,34.1284,34.1091,33.7780,34.0738,33.9247,34.0946,33.7602,33.9151,33.9114,34.1006,34.0498,33.9280,33.9205,34.1238,33.9141,34.1151,34.2689,34.3834,33.8176,33.8460,34.3465,34.2433,33.8451,34.4665,34.4722,34.8408,34.1482,33.9713,33.6978,34.4773,34.0579,33.8955,34.2310,34.2169,33.8317,34.0511,34.4452,34.1779,33.9487,33.5638,33.9415,33.7118,33.9216,34.1969,34.0986,34.3580,34.2874,34.0556,34.1706,34.3936,34.1047,34.3381,34.5844,34.5526,34.2166,34.3831,34.7253,34.5875,34.2534,34.6177,34.6945,34.4003,34.4295,34.1376,34.3646,34.1580,33.8285,33.7797,34.1331,34.1301,33.9730,34.1074,34.1229,33.9734,33.9712,34.1195,33.9552,34.1613,34.0019,33.9901,33.9917,34.3789,34.1547,34.2227,34.4063,34.2850,34.4736,34.1342,34.7484,34.5659,34.0821,34.2409,34.5630,34.3673,33.9764,34.2064,34.4201,34.2811,33.8891,34.4338,34.0816,33.9144,33.8619,33.9283,34.4861,34.3969,34.1240,34.1391,34.2150,34.2526,34.0325,33.9497,34.4129,34.1280,34.4048,33.8691,34.4884,34.3864,34.2923,34.0685,34.8275,35.3140,34.4679,34.7092,34.3802,34.8735,34.2945,34.2042,34.4528,34.5818,34.5658,34.1708,34.2123,34.5360,33.9984,34.1422,33.6748,34.0131,33.9641,33.9962,34.5152,34.3708,34.1973,34.0196,34.3922,34.2522,34.0531,34.2708,34.5181,34.7512,34.3725,34.7947,35.0494,34.8573,34.5313,34.2153,34.8769,34.4247,34.3131,34.1914,34.5219,34.8975,34.2060,34.3223,34.4155,34.5858,34.3163,34.2896,34.3776,34.3821,33.9491,33.8837,34.5442,34.5581,34.0164,34.0742,34.5840,34.6905,34.1749,34.3198,34.8889,34.9617,34.6984,34.2131,35.5067,34.8932,
22:6:8:8:53:5:492,0.0000,0.0000,0.0000,,31.9557,65.4346,31.6200,100495,69.3316,0.0000,0.0000,0.0000,0.0000,0.0000,0.0000,0.0000,0.0000,0.0000,0.0000,0.0000,0.0000,0,0,0,0,0,0,0.0000000,0.0000000,0.0000000,
22:6:8:8:53:5:594,0.0000,0.0000,0.0000,,31.9742,65.4553,31.6200,100492,69.5831,0.0000,0.0000,0.0000,0.0000,0.0000,0.0000,0.0000,0.0000,0.0000,0.0000,0.0000,0.0000,0,0,0,0,0,0,0.0000000,0.0000000,0.0000000,
22:6:8:8:53:5:713,0.0000,0.0000,0.0000,,31.9769,65.4744,31.6300,100494,69.4154,0.0000,0.0000,0.0000,0.0000,0.0000,0.0000,0.0000,0.0000,0.0000,0.0000,0.0000,0.0000,0,0,0,0,0,0,0.0000000,0.0000000,0.0000000,
22:6:8:8:53:5:815,0.0000,0.0000,0.0000,,31.9860,65.4588,31.6300,100496,69.2478,0.0000,0.0000,0.0000,0.0000,0.0000,0.0000,0.0000,0.0000,0.0000,0.0000,0.0000,0.0000,0,0,0,0,0,0,0.0000000,0.0000000,0.0000000,
22:6:8:8:53:5:934,0.0000,0.0000,0.0000,,31.9836,65.4624,31.6300,100497,69.1640,0.0000,0.0000,0.0000,0.0000,0.0000,0.0000,0.0000,0.0000,0.0000,0.0000,0.0000,0.0000,0,0,0,0,0,0,0.0000000,0.0000000,0.0000000,
22:6:8:8:53:6:36,0.0000,0.0000,0.0000,,31.9929,65.4531,31.6300,100496,69.2478,0.0000,0.0000,0.0000,0.0000,0.0000,0.0000,0.0000,0.0000,0.0000,0.0000,0.0000,0.0000,0,0,0,0,0,0,0.0000000,0.0000000,0.0000000,
22:6:8:8:53:6:151,0.0000,0.0000,0.0000,,31.9918,65.4611,31.6300,100495,69.3316,0.0000,0.0000,0.0000,0.0000,0.0000,0.0000,0.0000,0.0000,0.0000,0.0000,0.0000,0.0000,0,0,0,0,0,0,0.0000000,0.0000000,0.0000000,
22:6:8:8:53:6:257,0.0000,0.0000,0.0000,,31.9963,65.4537,31.6300,100494,69.4154,0.0000,0.0000,0.0000,0.0000,0.0000,0.0000,0.0000,0.0000,0.0000,0.0000,0.0000,0.0000,0,0,0,0,0,0,0.0000000,0.0000000,0.0000000,
22:6:8:8:53:6:372,0.0000,0.0000,0.0000,,31.9941,65.4528,31.6300,100497,69.1640,0.0000,0.0000,0.0000,0.0000,0.0000,0.0000,0.0000,0.0000,0.0000,0.0000,0.0000,0.0000,0,0,0,0,0,0,0.0000000,0.0000000,0.0000000,34.9582,34.4162,34.7746,34.5914,34.4812,34.3080,34.0173,34.1073,34.3675,34.2768,33.9873,34.5070,33.8331,34.2949,33.9403,34.1512,34.1662,34.3206,34.1718,34.0003,34.0089,34.1911,34.2181,34.2429,34.0757,34.2708,33.8885,34.3317,34.4309,34.4051,34.4935,34.6491,34.8994,34.1769,34.5816,34.1280,34.5031,34.1025,34.2640,33.8771,34.3959,34.0618,34.2121,33.8648,34.3613,33.9264,34.3708,33.9153,34.3277,33.7200,34.0652,34.0768,34.5699,33.8071,34.4263,34.3737,34.8446,33.8440,34.3717,34.7076,34.7901,34.1593,34.9588,34.7614,33.9709,34.6541,34.2768,34.3365,34.0769,34.2774,34.1414,34.1263,33.9774,34.2827,33.9331,33.7725,33.8255,34.0579,33.8174,33.9562,33.9608,34.1624,33.9717,34.1474,34.0001,34.3288,34.0419,34.0295,34.4032,34.4669,34.5024,34.9473,34.3723,34.7633,34.8735,34.5837,34.8278,34.3736,34.3209,34.5005,34.4508,34.0596,34.4063,34.0464,34.1806,33.8627,34.0101,33.8553,33.8268,33.8572,33.8826,34.0769,34.1513,33.7601,34.1793,34.2541,34.3688,34.1280,33.7317,34.1473,34.7291,33.6428,34.3250,34.4372,34.5208,34.1198,34.6622,34.6864,34.3470,34.4393,34.4548,34.1490,34.2095,34.2904,33.9810,34.1014,33.7843,34.0816,33.7878,34.0946,34.2761,33.9149,33.9437,33.7758,33.8063,33.9403,33.9459,33.9570,33.9741,33.9579,34.0182,34.0007,34.2163,34.3768,33.9069,34.3270,34.1498,34.5613,34.1825,34.5354,34.9710,34.1915,34.0873,33.8900,34.2592,34.0551,34.3841,33.8570,34.3060,33.6864,33.8436,34.0518,34.0074,33.7444,33.8841,33.8943,34.3042,33.4359,33.8774,33.7561,34.3390,33.7865,34.2359,34.2926,34.3851,33.6581,34.2923,34.5845,34.7325,34.1025,34.3996,34.0145,34.1374,34.5497,33.8379,34.3270,34.0341,33.9116,33.9586,33.9133,33.8177,33.9044,34.1021,34.0807,33.8113,33.7500,33.7773,33.7652,33.6220,33.9272,33.6305,33.8003,33.9762,33.9580,33.8473,34.2069,33.8701,34.1770,34.2474,34.1094,33.9170,34.3430,34.1994,34.4924,34.3981,34.1286,34.1514,34.1211,34.0501,34.2189,34.0808,33.9015,34.1626,33.5942,34.0539,33.8904,34.1791,33.4390,33.8799,33.8898,34.3069,33.6029,34.0456,33.7606,34.0350,33.4640,34.0665,33.7897,34.2431,34.0023,34.1218,33.6613,34.3220,34.0900,34.3870,34.4038,34.5325,34.3373,34.2136,34.3116,33.8653,34.0768,33.9947,34.2524,33.6658,33.9054,33.6204,33.9214,33.6528,33.9089,33.7745,33.9398,33.7922,33.9198,33.6545,33.6420,33.3882,33.8034,33.8480,33.8852,34.0350,34.5431,34.0582,34.2699,34.1458,34.3176,33.9420,34.6683,34.5483,33.9903,34.1064,34.1307,34.2835,33.5962,34.0908,33.7481,34.3442,33.7451,33.9006,33.8971,34.3446,33.6106,34.0579,33.9044,34.0220,33.6198,33.8911,33.7742,33.8878,33.4942,34.0817,33.9696,34.4205,33.8351,34.1199,34.0203,34.6889,33.8999,34.3854,34.3829,34.1403,34.5243,33.8389,34.3473,33.8424,33.7281,33.6702,34.0803,33.8025,33.7505,33.7964,34.1181,33.7939,34.2150,33.5303,33.6251,33.8214,33.9667,33.6730,33.9947,34.1558,33.9946,34.0084,33.9888,33.7152,34.2212,33.7407,34.1081,34.1145,34.3229,34.1554,34.6562,34.5885,33.8069,34.1836,33.7683,34.2796,33.7658,33.9328,34.0865,34.0499,33.6211,33.7641,33.9136,34.3395,33.7625,34.2201,33.7553,34.0193,33.7796,33.7621,33.6205,34.1923,33.6397,34.0841,33.4816,34.2617,33.5286,34.3042,34.2124,34.3453,33.7349,34.6352,34.0133,34.2137,34.3277,33.9146,33.9492,33.8704,34.2548,33.6925,34.0923,33.8436,34.0743,33.9989,33.7805,33.9929,33.9155,33.9921,34.0909,33.6704,33.9788,33.8460,33.7046,33.6935,34.0077,33.7085,33.5647,33.8884,34.0663,34.0822,33.9411,33.7704,34.5068,34.0156,34.2719,34.4680,33.8501,34.0331,33.9775,33.9753,33.7995,33.9756,34.0993,33.7808,33.7876,33.9496,33.7675,34.2384,33.7869,33.7890,33.7808,33.9022,33.6536,33.7814,33.9542,34.0828,33.8172,33.7956,34.1496,34.2517,33.8693,34.2091,34.0480,34.7123,33.7630,34.4758,34.4073,33.8115,34.5850,34.1318,34.1478,34.0926,34.1058,34.0513,34.1021,33.7357,34.1316,34.0252,33.9523,33.7219,34.0843,34.0116,33.9545,33.6811,34.0989,33.8684,33.8756,33.7047,34.0237,34.2015,34.0638,34.0768,34.2384,34.1086,34.1311,34.3314,34.1606,34.1772,34.6792,34.5283,34.0800,34.2596,34.1997,34.0443,33.8390,34.1790,34.1410,34.1333,33.8149,34.2958,33.9588,33.9804,33.5041,33.8277,34.2700,34.2788,33.9794,33.9739,33.5216,34.2603,34.0027,34.3494,34.0089,34.1662,33.8768,34.4155,33.9560,34.5805,33.9505,34.7021,34.4383,33.8516,34.1740,34.0287,34.0366,33.9418,34.3046,34.0940,34.1863,33.8899,33.9904,33.7023,33.8542,33.8752,34.1070,33.8675,33.8689,33.7301,33.6918,33.8935,34.0494,33.7640,34.0433,33.9169,34.4006,34.1223,34.2559,34.3265,34.3237,34.2287,34.1739,34.2387,34.7072,34.3706,34.1051,34.1319,34.2372,34.6059,33.5272,34.2295,33.8526,34.1798,33.5291,34.3359,33.8453,34.0306,33.3770,34.1694,33.6935,34.2625,33.8480,34.1623,34.0011,34.4956,33.5668,34.3890,33.8807,34.3271,33.9761,34.2805,34.4646,34.6283,33.9841,34.7563,34.2839,34.3653,34.8689,34.2357,34.8193,33.6678,34.5616,33.8001,34.3884,33.7887,34.3455,33.9351,34.0464,33.7703,34.1790,33.9214,34.3686,34.0594,34.0397,34.0885,34.2361,33.9243,34.2271,33.9487,34.4968,34.1623,34.4646,34.0078,34.1783,34.2267,34.5811,34.6859,34.7545,34.2667,33.9870,34.1982,34.3073,34.5247,33.5569,34.5152,34.0618,34.1072,33.9046,34.3994,33.8693,34.2189,33.8838,34.0552,33.8807,34.3436,34.0556,34.2120,34.2100,34.4008,33.7528,34.4498,34.0753,34.2183,34.1839,34.6997,34.2068,34.5168,34.2110,35.2396,34.6056,34.2697,35.1358,34.3195,34.5142,33.9087,34.4304,33.8540,34.4439,33.6737,34.3902,33.8151,34.4073,33.8262,34.2193,33.8106,34.2467,33.8200,34.2315,34.1296,34.1113,34.1774,34.1029,34.0034,34.3244,33.9956,34.3366,34.0528,34.2154,34.4875,34.4446,34.9714,35.1115,34.6254,34.4628,34.6811,34.3829,34.2728,34.0398,34.0115,34.4684,34.1715,33.9495,34.1974,34.0928,34.1353,34.1001,34.2777,34.2492,34.2377,33.9926,34.1679,34.1035,34.3119,33.7994,34.1901,34.3129,34.1787,34.0608,34.4211,34.4021,34.5997,34.2805,34.9462,35.1202,34.0476,34.8240,34.3960,34.5860,34.1163,34.6973,33.9104,34.6954,34.0542,34.4574,34.3985,34.6491,34.3448,34.0891,34.1942,34.2914,34.1425,34.1092,34.0234,34.4842,34.0393,34.8119,34.2274,34.5455,34.2454,34.2028,34.3421,34.8671,34.5866,34.7085,34.8495,35.1992,34.8759,34.4530,34.9994,34.2402,34.4332,34.2092,34.2704,34.7336,34.6735,34.1645,34.3596,34.6016,34.2640,34.1385,34.4951,34.0664,34.5659,34.0644,34.3250,34.2360,34.3032,34.2604,34.3478,34.1705,34.8331,34.1539,34.8167,34.9805,35.0174,34.2332,35.4110,35.1396,
22:6:8:8:53:6:535,0.0000,0.0000,0.0000,,31.9719,65.4622,31.6300,100498,69.0802,0.0000,0.0000,0.0000,0.0000,0.0000,0.0000,0.0000,0.0000,0.0000,0.0000,0.0000,0.0000,0,0,0,0,0,0,0.0000000,0.0000000,0.0000000,
22:6:8:8:53:6:650,0.0000,0.0000,0.0000,,31.9809,65.4647,31.6300,100498,69.0802,0.0000,0.0000,0.0000,0.0000,0.0000,0.0000,0.0000,0.0000,0.0000,0.0000,0.0000,0.0000,0,0,0,0,0,0,0.0000000,0.0000000,0.0000000,
22:6:8:8:53:6:752,0.0000,0.0000,0.0000,,31.9946,65.4628,31.6300,100495,69.3316,0.0000,0.0000,0.0000,0.0000,0.0000,0.0000,0.0000,0.0000,0.0000,0.0000,0.0000,0.0000,0,0,0,0,0,0,0.0000000,0.0000000,0.0000000,
22:6:8:8:53:6:871,0.0000,0.0000,0.0000,,31.9918,65.4695,31.6300,100495,69.3316,0.0000,0.0000,0.0000,0.0000,0.0000,0.0000,0.0000,0.0000,0.0000,0.0000,0.0000,0.0000,0,0,0,0,0,0,0.0000000,0.0000000,0.0000000,
22:6:8:8:53:6:973,0.0000,0.0000,0.0000,,32.0009,65.4640,31.6400,100497,69.1640,0.0000,0.0000,0.0000,0.0000,0.0000,0.0000,0.0000,0.0000,0.0000,0.0000,0.0000,0.0000,0,0,0,0,0,0,0.0000000,0.0000000,0.0000000,
22:6:8:8:53:7:92,0.0000,0.0000,0.0000,,31.9958,65.4597,31.6300,100496,69.2478,0.0000,0.0000,0.0000,0.0000,0.0000,0.0000,0.0000,0.0000,0.0000,0.0000,0.0000,0.0000,0,0,0,0,0,0,0.0000000,0.0000000,0.0000000,
22:6:8:8:53:7:194,0.0000,0.0000,0.0000,,32.0032,65.4449,31.6400,100498,69.0802,0.0000,0.0000,0.0000,0.0000,0.0000,0.0000,0.0000,0.0000,0.0000,0.0000,0.0000,0.0000,0,0,0,0,0,0,0.0000000,0.0000000,0.0000000,
22:6:8:8:53:7:309,0.0000,0.0000,0.0000,,32.0061,65.4650,31.6400,100498,69.0802,0.0000,0.0000,0.0000,0.0000,0.0000,0.0000,0.0000,0.0000,0.0000,0.0000,0.0000,0.0000,0,0,0,0,0,0,0.0000000,0.0000000,0.0000000,
22:6:8:8:53:7:415,0.0000,0.0000,0.0000,,32.0103,65.4429,31.6400,100494,69.4154,0.0000,0.0000,0.0000,0.0000,0.0000,0.0000,0.0000,0.0000,0.0000,0.0000,0.0000,0.0000,0,0,0,0,0,0,0.0000000,0.0000000,0.0000000,35.0560,34.6405,34.4215,34.1368,34.3742,33.8886,34.3104,34.2927,34.0905,34.0821,34.2673,33.7704,33.9297,33.5746,33.6851,34.1413,34.2625,33.7831,33.9067,34.3513,33.7413,34.0003,34.1274,34.0417,34.1727,33.8602,33.9856,34.3215,33.8769,33.9493,34.3553,34.3985,34.6531,34.5019,34.7912,34.4435,34.2942,34.1996,34.2544,34.3572,34.2037,33.9771,34.2025,34.1398,33.6539,34.0237,34.3613,34.0125,33.9750,33.8169,34.2326,34.1736,34.0281,33.9048,34.2341,34.4713,34.0797,33.9424,34.5661,34.3907,34.5675,34.6932,34.2546,34.6268,34.7508,34.4246,34.5846,34.5319,34.1739,33.8842,34.2371,33.9338,34.0735,33.7508,34.0288,33.7626,33.7561,33.7147,34.2488,33.9464,34.0570,33.8194,33.8998,33.7995,33.7582,34.1493,34.1386,34.1950,33.9586,34.0847,34.2134,34.3468,34.0649,34.1484,34.7509,34.5731,34.1481,34.2552,34.5180,34.5973,34.0611,34.1563,34.0303,34.1430,33.8266,33.9593,33.8314,34.1190,33.6540,33.7903,34.0376,33.8467,33.9771,33.6927,33.8380,33.8506,33.8611,33.7234,34.0691,34.0720,34.0103,33.9248,34.3153,34.3414,34.1104,33.8197,34.4352,34.3456,34.2302,34.4294,34.1497,33.9432,33.9316,33.9163,34.0771,34.0917,33.8805,33.9047,34.0481,33.7515,33.8916,33.9053,33.7179,33.6046,33.9028,33.7710,33.8802,33.7847,34.2333,33.6197,34.1147,33.9908,33.9697,34.1929,34.1892,34.3169,34.6295,33.9616,34.4915,34.5249,34.1199,34.2894,34.0775,34.1802,33.6987,33.9728,33.6828,34.1273,33.7981,33.7830,33.8340,33.8188,33.6813,34.0006,33.8746,33.8320,33.8179,33.8490,33.7069,33.8532,33.6819,34.2082,34.0610,33.5444,34.0361,33.9282,34.1011,34.3232,34.5353,34.2011,34.3898,34.3241,34.4403,33.9415,34.1263,34.1266,34.1308,33.9019,33.8830,33.7342,33.9140,33.5727,34.0380,33.9132,34.0641,33.4290,33.8732,33.5966,33.7181,33.9176,33.8837,33.9491,33.7607,33.4708,34.1091,34.0310,34.2943,33.8285,34.1701,33.7433,34.3816,33.9586,34.2974,34.0720,34.3883,34.2258,33.9530,34.0303,33.8652,33.9757,34.0712,33.9985,33.6756,33.8498,34.2029,33.9872,33.5473,33.8442,34.1805,33.8296,33.9895,33.8561,33.8807,34.0146,33.8700,33.7194,33.8930,33.8871,33.9086,34.0999,33.9392,33.9371,34.1300,34.1884,34.1792,34.3007,34.2313,33.7396,34.1241,34.3018,34.1310,33.7281,33.7570,34.0788,33.7622,33.5724,33.5592,33.9117,33.9032,33.7474,33.7155,33.7772,33.7370,33.4506,33.9080,33.4771,33.7939,33.4866,33.7850,33.8753,33.9676,33.8790,34.1550,34.0842,34.4231,33.7569,34.4327,34.4615,33.9460,33.8941,33.9127,34.2281,33.5988,33.8623,33.5847,34.0075,33.7073,34.0020,33.7350,33.9940,33.8774,33.8587,34.0483,33.8501,33.5619,33.8685,33.7253,33.8713,33.8782,33.8978,33.9143,34.0669,33.9220,34.0953,33.9380,34.2926,34.1451,34.1801,34.3757,33.8976,34.2380,34.1274,34.3040,34.1576,33.7698,33.7183,33.6017,33.9060,34.0566,33.5844,33.7361,33.7963,33.5850,33.7479,33.7782,33.9237,33.6184,33.8049,33.6159,33.6766,33.6397,33.9848,33.7852,33.8186,33.9736,33.8871,34.0059,33.9287,34.2116,34.1345,34.2529,34.0625,34.1899,33.9050,34.1739,33.8658,33.9351,33.5242,33.7597,33.8564,33.5688,33.8734,33.7545,34.0105,33.7238,33.5560,33.9109,33.6992,33.8610,34.0275,33.7524,33.8713,33.5711,34.0482,34.0746,33.7393,33.6080,33.7885,33.9611,34.1419,33.9856,34.0111,34.0530,34.4989,34.5080,33.9319,34.3767,34.2988,34.1390,34.0792,34.2827,34.0826,33.7830,33.5933,34.0952,33.9263,33.7880,33.4540,33.9381,33.6241,33.6169,33.8205,33.9424,34.0018,33.6369,33.3841,33.6470,33.8761,33.8239,33.7342,34.0095,34.2723,34.0415,33.9721,34.1137,34.4537,34.2627,34.1402,34.2050,34.0751,33.7943,33.7321,33.9659,33.7114,33.6142,34.0411,34.0953,33.8645,33.7775,33.7341,33.7794,33.8779,33.4457,33.8991,33.7718,34.2042,33.9208,33.6101,33.7859,34.0875,34.0824,33.8066,34.0302,34.1459,34.1824,34.0362,34.4660,34.5064,34.1065,34.1973,34.2291,33.9585,34.0203,33.9309,34.1480,33.7671,33.8327,33.8093,34.1217,33.6411,33.8185,33.6226,33.9580,33.7930,33.7775,33.7903,33.8114,34.0186,33.6472,33.5583,33.8182,34.2134,34.1738,33.9003,34.0350,34.1210,33.9048,33.9742,33.8904,34.0855,34.1255,33.9893,34.0685,33.9396,34.0346,33.9367,33.8428,33.9134,33.9653,33.7560,34.2863,33.9046,33.9708,33.7524,33.9681,33.7620,33.8189,33.4791,33.9642,34.0755,33.9443,33.9491,34.0203,33.9468,33.9944,33.9747,33.8961,34.2247,34.2223,34.0491,34.3103,34.3437,34.3485,33.9692,34.1268,34.2101,34.2115,33.7881,34.1910,33.8508,33.8277,33.6626,33.7988,33.6865,33.8200,33.9452,33.9639,34.0136,34.4407,33.5272,33.8347,33.7314,34.1694,33.7217,34.1750,34.0682,34.0575,33.4136,34.4237,34.1402,34.3267,34.1638,33.9470,34.1108,33.9613,34.0097,34.3060,34.1521,33.9072,33.7941,33.7219,33.9503,34.0115,33.9457,34.1673,33.7852,34.0209,33.7813,33.8577,33.9449,33.9454,33.4826,33.8430,33.7911,33.8701,33.8205,34.2181,34.3007,34.1562,34.2399,33.9243,34.3901,33.9038,33.9018,34.3591,34.5788,34.2580,34.2696,34.5234,34.2575,34.2913,34.2017,34.2368,34.2114,34.0476,33.6933,34.0321,34.0365,33.8673,33.5575,34.1766,34.2026,34.0008,33.7211,34.0277,34.2262,34.0212,33.5842,34.2113,34.1546,34.2599,33.9496,34.6306,34.3476,34.5083,34.0076,34.5842,34.5403,33.8404,34.0863,33.9969,34.0367,33.8118,34.0073,34.1676,34.1598,33.7752,34.1615,34.0704,33.8066,33.8955,33.9815,34.0454,33.8218,34.1796,33.6922,34.0447,34.3077,33.9137,33.6931,33.9452,34.0076,33.7076,33.9466,34.5148,34.3061,34.3223,34.3102,34.6335,34.5014,34.1609,34.5186,34.4179,34.3107,34.1851,34.0599,34.1263,34.2611,34.1040,33.7157,34.0771,34.2327,33.9235,34.0509,34.0695,34.0761,34.2406,33.7435,34.2268,34.1013,34.4390,33.9298,34.4389,34.3144,34.0931,33.9742,34.3340,34.3900,34.5857,34.4344,34.6534,34.6748,33.7687,34.1526,34.0820,34.2875,33.9047,34.3205,34.0015,34.5666,33.9948,34.3797,34.1875,34.1909,33.6487,33.8809,34.2679,34.0258,33.9037,34.2508,33.9956,34.2016,33.8077,34.0618,34.3495,34.2406,34.3396,34.1604,34.7789,34.5011,34.3992,34.3801,34.5171,35.0081,34.3664,34.3832,34.7020,34.7771,34.4071,34.1179,34.5645,34.3232,34.5016,34.2739,33.9749,34.2931,33.7723,33.9133,34.1230,34.2815,34.0727,34.0992,34.4569,34.3058,34.1373,34.1231,34.5025,34.3566,34.1642,34.1926,34.6312,34.6640,34.6854,34.4953,35.1648,34.9669,33.9813,34.5540,34.3634,34.5446,34.2298,34.1194,34.2600,34.4720,33.6110,34.4387,34.0002,34.5275,34.0849,34.4048,34.3163,34.3310,34.0555,34.3283,34.3149,34.1661,34.1237,34.0193,34.3376,34.6285,34.2825,34.2538,34.6145,34.6924,34.6083,34.5382,35.1832,35.2423,
22:6:8:8:53:7:589,0.0000,0.0000,0.0000,,31.9767,65.4473,31.6200,100498,69.0802,0.0000,0.0000,0.0000,0.0000,0.0000,0.0000,0.0000,0.0000,0.0000,0.0000,0.0000,0.0000,0,0,0,0,0,0,0.0000000,0.0000000,0.0000000,
22:6:8:8:53:7:695,0.0000,0.0000,0.0000,,31.9941,65.4305,31.6300,100496,69.2478,0.0000,0.0000,0.0000,0.0000,0.0000,0.0000,0.0000,0.0000,0.0000,0.0000,0.0000,0.0000,0,0,0,0,0,0,0.0000000,0.0000000,0.0000000,
22:6:8:8:53:7:810,0.0000,0.0000,0.0000,,31.9927,65.4485,31.6300,100493,69.4993,0.0000,0.0000,0.0000,0.0000,0.0000,0.0000,0.0000,0.0000,0.0000,0.0000,0.0000,0.0000,0,0,0,0,0,0,0.0000000,0.0000000,0.0000000,
22:6:8:8:53:7:912,0.0000,0.0000,0.0000,,32.0045,65.4473,31.6400,100497,69.1640,0.0000,0.0000,0.0000,0.0000,0.0000,0.0000,0.0000,0.0000,0.0000,0.0000,0.0000,0.0000,0,0,0,0,0,0,0.0000000,0.0000000,0.0000000,
22:6:8:8:53:8:31,0.0000,0.0000,0.0000,,31.9977,65.4349,31.6300,100496,69.2478,0.0000,0.0000,0.0000,0.0000,0.0000,0.0000,0.0000,0.0000,0.0000,0.0000,0.0000,0.0000,0,0,0,0,0,0,0.0000000,0.0000000,0.0000000,
22:6:8:8:53:8:133,0.0000,0.0000,0.0000,,32.0057,65.4732,31.6400,100495,69.3316,0.0000,0.0000,0.0000,0.0000,0.0000,0.0000,0.0000,0.0000,0.0000,0.0000,0.0000,0.0000,0,0,0,0,0,0,0.0000000,0.0000000,0.0000000,
22:6:8:8:53:8:252,0.0000,0.0000,0.0000,,32.0028,65.4508,31.6400,100496,69.2478,0.0000,0.0000,0.0000,0.0000,0.0000,0.0000,0.0000,0.0000,0.0000,0.0000,0.0000,0.0000,0,0,0,0,0,0,0.0000000,0.0000000,0.0000000,
22:6:8:8:53:8:355,0.0000,0.0000,0.0000,,32.0107,65.4559,31.6400,100493,69.4993,0.0000,0.0000,0.0000,0.0000,0.0000,0.0000,0.0000,0.0000,0.0000,0.0000,0.0000,0.0000,0,0,0,0,0,0,0.0000000,0.0000000,0.0000000,
22:6:8:8:53:8:470,0.0000,0.0000,0.0000,,32.0107,65.4584,31.6400,100491,69.6669,0.0000,0.0000,0.0000,0.0000,0.0000,0.0000,0.0000,0.0000,0.0000,0.0000,0.0000,0.0000,0,0,0,0,0,0,0.0000000,0.0000000,0.0000000,35.3017,34.4046,34.4248,34.3577,34.5809,34.2969,34.3132,34.4861,34.2798,34.0809,34.2699,34.1331,34.2878,33.9293,34.0386,34.1400,34.2650,33.9581,34.0901,33.9889,34.2896,33.9990,34.3173,34.4221,34.5608,34.0591,34.1974,34.3196,34.5323,34.3928,34.5956,35.1140,34.6504,34.5058,34.5690,34.6649,34.2920,34.4029,34.4446,34.3605,34.2019,34.1617,34.2004,33.9646,33.8271,33.8522,34.0153,33.8414,33.9733,33.8201,34.2305,34.3527,34.0264,34.0854,34.5968,34.2876,34.4561,34.3369,34.5634,34.6026,34.5651,34.6978,34.4835,34.6321,34.7543,34.6426,34.3766,34.5303,34.3701,34.0749,34.4262,34.2976,34.0761,34.0981,34.2030,33.9314,34.4202,33.8806,34.2512,34.2787,34.2260,34.1515,33.9023,34.3050,34.2677,33.8078,34.1413,34.0181,34.3223,33.8967,34.2165,34.1475,34.6749,34.1466,34.7545,34.3467,34.3694,34.6901,34.5154,34.6006,34.0591,33.9714,34.2115,34.1461,33.9973,33.9624,33.9986,33.9548,33.8157,33.6296,34.3642,34.1767,34.1404,33.8603,34.1678,34.1875,34.0258,34.0615,34.0670,34.0753,34.0085,34.1120,34.3129,34.1510,34.1082,34.2228,34.8662,34.1299,34.4476,34.2210,34.5542,33.9418,34.3086,34.0975,34.0797,34.0905,33.8828,33.9036,34.2145,34.0837,34.3742,33.7428,33.8812,34.0869,33.7441,33.7700,34.0442,33.9460,33.9094,33.7829,34.2842,33.9894,34.4868,34.0173,34.3769,34.1324,34.4417,33.9599,34.9162,34.3104,33.9062,34.4962,34.2756,34.1835,33.6969,33.9760,34.0271,34.1303,33.6299,33.9517,33.9945,33.8217,33.8382,33.8444,33.8727,33.9940,33.9757,33.8519,33.8660,34.0173,34.0046,34.0493,34.0590,34.0556,34.0344,34.1035,34.0988,34.5065,34.3451,34.2052,34.3870,34.3289,34.6485,34.1400,34.5118,34.5061,34.1334,34.0731,34.0570,33.9024,33.9164,33.5718,33.8803,33.9121,34.0664,33.7394,34.0321,33.7544,34.0314,33.9166,33.8860,33.9479,34.0747,33.6292,34.1116,34.0296,34.2968,33.8272,34.3469,34.0978,34.2010,33.7694,34.3007,34.6843,34.1825,34.4268,34.1392,34.2217,33.8633,33.9788,34.2386,34.3355,33.5144,33.8527,34.2010,33.9900,34.0128,34.0008,34.0237,33.9894,33.8337,33.7030,33.8788,33.8606,34.0239,33.7225,33.7269,34.0549,34.0695,34.1033,34.2826,33.9407,34.1279,34.3768,34.1766,34.5075,34.2345,34.5215,34.1270,34.3005,34.1336,33.8968,34.0935,34.0776,33.7646,33.8948,33.8755,34.0675,33.9055,33.5945,34.1814,33.9290,33.7392,33.6031,33.7532,33.4760,33.7963,33.6392,33.7875,33.8740,34.1342,33.7136,34.3307,34.0827,34.2463,34.1228,34.2395,34.0654,34.1416,34.2857,33.9103,34.2313,34.2720,34.0338,33.7484,34.1726,34.0198,33.8451,33.8891,34.1527,34.0286,33.7106,33.8940,33.8529,33.8610,33.8714,33.8797,34.0276,33.7231,33.7479,33.9123,34.2289,34.0836,34.2609,34.1080,33.9469,34.1431,34.1840,34.5668,34.0972,34.2410,34.3199,34.3067,33.9762,33.9416,33.8877,34.2628,33.7401,33.9010,33.8961,34.0507,34.1073,34.0444,33.7470,34.0828,33.9226,33.9200,33.8040,33.9250,33.8297,34.1016,33.9838,34.1072,33.9777,33.9761,34.2101,34.0087,34.0966,34.3905,33.9543,34.4492,34.4497,33.9927,34.1024,34.3541,34.2288,33.7655,33.8663,33.7577,34.0231,33.8818,34.0312,33.5971,34.1683,33.8742,33.8624,34.0589,34.0080,34.0084,34.1810,33.9027,33.8743,34.0286,33.7402,34.2311,33.9025,33.7677,33.9538,34.1257,34.3138,34.5080,33.8374,34.8130,34.3105,34.5113,33.7372,34.1974,34.4767,34.3132,33.9119,33.7918,33.7568,33.9425,33.7497,33.9414,34.0806,33.9410,33.6039,33.9405,33.7756,33.9185,33.5216,34.0972,33.8472,34.0981,33.6904,34.2810,34.0352,33.8264,33.8942,34.3512,34.1003,34.3913,34.1457,34.4969,34.4516,34.0645,34.3354,34.3838,33.8998,33.7923,33.9002,34.2911,33.7145,33.7695,33.7313,33.9379,34.0227,34.0769,33.5870,33.7774,34.0325,33.7423,33.6055,33.6176,34.3599,34.0716,33.7656,34.0984,34.2502,34.2404,33.9706,34.1970,34.1496,34.1803,34.0402,34.0851,34.3189,34.5029,33.8168,34.2322,34.4946,34.1924,34.0950,33.9876,34.0912,33.8353,33.9647,34.1242,33.9415,34.1214,33.6217,33.9605,33.9436,34.0804,33.6396,34.2737,34.1699,33.8038,33.8612,33.8209,34.2120,34.1765,34.0632,34.5490,33.9490,33.9081,34.3249,34.2781,34.4726,34.5157,33.9933,34.2471,34.1223,34.0324,33.7751,33.8405,33.9167,34.1218,33.7592,34.2841,33.9076,33.9690,33.7556,34.2655,34.0680,34.1176,33.6320,33.9622,34.5330,33.7891,33.9524,34.1779,33.9502,34.1546,33.8139,34.4032,34.0586,33.8705,34.0532,34.4986,34.3485,34.3520,33.9679,34.1301,34.3917,34.0421,33.9561,34.3596,34.1752,34.1479,33.9795,33.9608,34.0007,34.2771,33.7918,33.8145,34.1667,34.2900,33.6809,33.9929,34.0382,34.0180,33.8765,34.0167,34.0668,34.2224,34.0787,34.2536,34.3120,34.6850,33.9812,34.7286,34.4996,34.1583,34.2078,34.3031,34.5219,34.0775,33.9662,34.0516,34.2766,34.1681,33.9491,34.0057,33.9462,33.7133,34.0902,34.0066,34.1018,34.0975,33.7947,33.8408,33.9483,34.1766,34.1348,33.8928,34.1433,33.9927,34.0787,34.2681,34.3941,34.4379,34.0873,34.3561,34.7786,34.4683,34.2681,34.5269,34.2560,34.2946,34.0250,34.0704,34.3772,34.0505,34.0138,34.0349,34.1953,34.0262,33.8627,34.0211,34.2013,34.1587,33.8744,34.3455,34.3849,34.3428,33.8999,33.8833,34.1531,34.2628,33.9482,34.2840,34.5250,34.6952,34.1940,34.5880,34.5379,34.0455,34.4847,34.3759,34.2255,33.9854,33.8355,34.1649,33.9957,33.7730,34.3238,33.9079,34.1308,34.0503,33.9850,34.0430,34.4508,34.0229,34.1569,34.0423,33.9904,34.0710,33.8546,34.1079,34.5078,34.2064,34.4546,34.5119,34.3103,34.5043,34.5023,34.8293,34.5066,34.7903,34.5169,34.4219,34.3090,34.3666,34.0585,34.4776,34.6049,34.2732,33.7145,34.2445,34.3960,34.2420,34.0496,34.2339,34.2354,34.4046,34.2204,34.2298,34.2627,34.2780,33.7650,34.4421,34.1444,34.2668,34.1489,34.7029,34.3881,34.7784,34.2380,34.4488,34.6723,33.9773,34.3626,34.4714,34.2920,34.2598,34.5056,34.3484,34.5706,34.1591,34.5491,33.8550,34.5240,33.9644,34.2020,34.1036,34.5112,34.0638,34.2546,34.1554,34.3676,34.2998,34.2295,34.5157,34.5857,33.9954,34.3411,34.4080,34.3198,34.2054,34.5793,35.1413,35.0136,34.8077,34.5969,34.7063,35.1764,34.4109,34.6857,34.7527,34.5027,34.1556,34.0987,34.6727,34.2915,34.2783,34.0778,34.4635,34.2799,34.4096,33.9323,34.2924,34.4725,34.3098,34.1216,34.6829,34.5336,34.5257,34.3736,34.6352,35.0472,34.8876,34.4932,34.9527,34.9642,34.4197,34.7762,34.3590,34.5500,34.4194,34.3151,34.4422,34.8386,34.1355,34.4433,34.3461,34.7052,33.9127,34.4093,34.3131,34.3355,34.2199,34.3327,34.6482,34.5083,34.2904,34.0240,34.3343,34.4546,34.2794,34.4424,34.8027,34.8919,34.6047,34.3398,35.3963,35.4716,
22:6:8:8:53:8:633,0.0000,0.0000,0.0000,,31.9830,65.4480,31.6300,100497,69.1640,0.0000,0.0000,0.0000,0.0000,0.0000,0.0000,0.0000,0.0000,0.0000,0.0000,0.0000,0.0000,0,0,0,0,0,0,0.0000000,0.0000000,0.0000000,
22:6:8:8:53:8:748,0.0000,0.0000,0.0000,,31.9918,65.4408,31.6300,100498,69.0802,0.0000,0.0000,0.0000,0.0000,0.0000,0.0000,0.0000,0.0000,0.0000,0.0000,0.0000,0.0000,0,0,0,0,0,0,0.0000000,0.0000000,0.0000000,
22:6:8:8:53:8:854,0.0000,0.0000,0.0000,,32.0036,65.4485,31.6300,100499,68.9964,0.0000,0.0000,0.0000,0.0000,0.0000,0.0000,0.0000,0.0000,0.0000,0.0000,0.0000,0.0000,0,0,0,0,0,0,0.0000000,0.0000000,0.0000000,
22:6:8:8:53:8:969,0.0000,0.0000,0.0000,,32.0042,65.4447,31.6300,100495,69.3316,0.0000,0.0000,0.0000,0.0000,0.0000,0.0000,0.0000,0.0000,0.0000,0.0000,0.0000,0.0000,0,0,0,0,0,0,0.0000000,0.0000000,0.0000000,
22:6:8:8:53:9:75,0.0000,0.0000,0.0000,,32.0072,65.4505,31.6400,100499,68.9964,0.0000,0.0000,0.0000,0.0000,0.0000,0.0000,0.0000,0.0000,0.0000,0.0000,0.0000,0.0000,0,0,0,0,0,0,0.0000000,0.0000000,0.0000000,
22:6:8:8:53:9:190,0.0000,0.0000,0.0000,,32.0074,65.4461,31.6400,100495,69.3316,0.0000,0.0000,0.0000,0.0000,0.0000,0.0000,0.0000,0.0000,0.0000,0.0000,0.0000,0.0000,0,0,0,0,0,0,0.0000000,0.0000000,0.0000000,
22:6:8:8:53:9:292,0.0000,0.0000,0.0000,,32.0099,65.4320,31.6400,100497,69.1640,0.0000,0.0000,0.0000,0.0000,0.0000,0.0000,0.0000,0.0000,0.0000,0.0000,0.0000,0.0000,0,0,0,0,0,0,0.0000000,0.0000000,0.0000000,
22:6:8:8:53:9:411,0.0000,0.0000,0.0000,,32.0068,65.4247,31.6400,100497,69.1640,0.0000,0.0000,0.0000,0.0000,0.0000,0.0000,0.0000,0.0000,0.0000,0.0000,0.0000,0.0000,0,0,0,0,0,0,0.0000000,0.0000000,0.0000000,35.0460,34.8637,34.6368,34.5709,34.5681,34.6961,34.3008,34.0871,34.2677,34.2569,34.6244,34.4869,33.9203,34.2751,34.2017,34.3078,34.0785,33.9491,34.0780,34.3408,34.2776,34.3516,34.3049,34.0311,34.3559,34.0500,34.1845,34.3105,34.3019,34.6057,34.8177,34.8658,34.8778,34.0374,34.7793,34.8692,34.2830,33.9901,34.4357,34.5390,34.1929,34.1493,34.3709,34.3085,34.1670,34.1887,34.0064,34.1772,33.9644,33.8077,34.0446,34.5159,34.3726,34.2495,34.2229,34.2747,34.6357,33.9329,34.5544,34.1730,33.9148,34.4664,34.7057,34.6168,34.2869,34.6336,34.3638,34.5214,34.3576,34.0660,34.4141,34.1062,34.0641,34.0892,34.1912,34.0922,33.9126,34.0383,34.0721,34.1031,34.0477,33.9760,34.0584,33.9584,34.0871,33.9691,34.4801,34.0091,34.3101,34.2604,34.3969,34.1384,34.4600,34.5410,34.9611,34.5614,34.8065,34.4615,34.5064,34.3864,34.4302,33.9589,34.3856,34.3129,33.9883,33.7785,34.1585,33.9427,33.9698,33.9446,34.0267,34.1646,33.8016,33.8481,34.1589,33.8414,34.1829,33.8817,34.2311,34.0627,34.3548,33.9154,34.3038,34.1377,34.2996,34.2089,34.8571,34.7760,34.6483,34.4189,34.5417,34.1288,34.4832,34.2706,34.2438,34.0815,33.7026,33.8947,34.2028,33.9082,33.8824,33.8953,34.0302,33.9171,34.0541,33.9206,33.8709,33.9370,33.8977,34.1019,33.9380,33.9804,34.1321,34.0082,34.5489,34.4886,34.6197,34.5404,34.6925,34.7253,34.7402,33.8724,34.0661,34.1709,34.2387,33.9636,33.8451,34.2915,34.1201,33.7739,33.9855,34.1394,33.8293,33.9914,34.1799,33.6634,33.8075,33.8398,34.0177,34.0051,34.3190,33.8746,34.0500,34.0431,34.3649,34.0907,34.2714,34.3137,34.5240,34.3842,34.1693,34.5238,34.4305,34.3305,34.1168,34.4971,34.1213,34.0642,34.2165,34.2313,34.0653,34.0455,34.0287,34.0610,33.7414,33.7305,34.0206,33.9042,33.5530,34.0648,33.8744,33.9389,33.7514,33.9383,33.7691,34.0206,33.9575,34.1569,34.1605,33.9108,34.3720,34.5089,34.4883,34.4706,34.3768,33.8207,34.3185,34.2091,34.2047,33.6257,34.0601,34.1564,33.8244,33.9988,34.0334,33.9781,33.8484,33.8351,34.0148,33.9774,33.9791,33.6909,33.8699,34.0054,34.1702,33.8680,34.2096,34.2068,34.0605,33.9226,34.4460,34.1052,34.4833,34.1789,34.5631,34.4932,34.4209,34.5126,34.3004,34.1083,33.9526,34.0572,33.9148,34.0687,34.0687,34.0471,34.0206,34.0586,33.8939,33.7376,33.8610,34.2253,34.0301,33.7473,34.0556,33.9317,33.9387,33.7836,34.4124,33.8650,34.1223,34.0327,34.1454,34.0736,34.2336,34.1136,34.6190,34.2533,33.9346,34.4662,34.4524,34.0383,34.2630,34.0215,33.9049,33.8360,33.8538,33.9928,34.0359,33.9848,34.0196,33.6985,34.0375,33.9921,33.8520,33.7077,33.8707,34.0155,34.0211,33.8886,34.2187,34.0576,34.4002,33.9234,34.2709,34.2832,34.1340,34.1706,34.5578,34.4722,34.4237,34.5043,33.9260,34.3273,33.9296,34.0489,34.0867,34.0606,34.0473,34.0432,33.8830,33.7863,34.0330,33.7381,34.0711,34.0676,33.9085,33.7950,34.0663,33.8208,34.2428,33.9748,34.0953,34.1290,33.9642,33.7142,33.9963,34.0875,34.2020,34.1238,34.2432,34.4405,34.1785,34.0893,34.1623,34.2162,34.0918,34.0230,33.9121,34.1743,33.8728,34.0190,33.8989,33.6907,33.7133,33.8503,34.0499,33.9960,33.8505,34.0183,33.5893,33.8621,33.8668,33.7279,34.2221,33.7301,34.0807,33.7792,34.4496,34.3008,33.9744,34.1790,34.2324,34.4892,34.3019,34.1149,34.3671,34.2885,33.9578,33.9030,33.9445,33.9103,33.9307,34.0548,34.0858,34.0716,33.7787,33.5950,33.9288,33.9191,33.9069,33.9592,34.0855,33.8382,33.7807,33.8348,34.2691,33.7052,33.9758,34.0461,34.3389,34.2617,34.0319,34.3115,34.4839,34.2503,34.0553,34.1307,34.1933,34.2443,33.9546,33.8876,34.2821,34.0257,34.2301,33.7190,34.0843,34.0105,33.9175,33.8748,33.6187,34.1718,33.7333,33.8899,34.0648,33.8890,33.9101,33.7532,33.9322,34.0782,34.2314,34.1180,34.1880,33.9665,34.3449,34.0267,34.4542,34.4966,34.2933,34.3761,34.2194,34.4856,34.0107,34.2511,33.9754,33.9198,33.6642,34.2679,33.9579,33.9325,33.9594,33.9142,34.0985,34.0862,33.9186,33.7804,34.1088,34.0083,33.7919,34.0038,33.8088,34.2030,34.1643,34.0542,34.7063,34.2805,34.4189,34.3158,34.2650,34.2690,34.1136,34.3576,34.0567,34.4666,34.0233,34.0922,33.9948,34.2290,33.7958,33.9030,33.9664,34.0467,33.9600,33.8939,34.1068,33.9043,34.2585,33.7690,33.9532,34.2179,34.0868,33.9398,34.0090,33.9375,34.1455,33.8009,34.2246,34.0453,34.5594,33.8639,34.6803,34.7213,34.1396,34.5428,33.9322,34.3827,34.3740,34.1161,34.1814,34.3288,33.9772,33.9706,33.7894,34.1491,33.9623,33.9352,34.2579,34.0033,34.1249,33.6719,33.9808,34.0292,34.0059,34.0232,34.3263,34.2191,34.0479,33.7369,34.2408,34.1295,34.4946,33.9720,34.5211,34.2951,34.5476,34.0002,34.4777,34.5087,34.0683,34.1214,34.0425,34.1025,34.0004,33.7772,33.6775,34.4053,34.0100,33.9249,33.9975,34.2426,34.3956,33.9362,33.9867,34.0892,34.1675,33.8112,34.0453,34.1304,34.1451,33.9002,34.2590,34.2077,34.4287,34.2542,34.9274,34.7638,34.4543,34.6523,34.3237,34.2469,34.2815,34.1914,34.0576,34.3681,34.0380,34.0048,34.0225,34.1863,33.8578,34.0065,34.0088,34.1923,34.1466,33.8654,34.3332,34.0553,34.1712,33.8909,34.0363,34.3102,34.2502,34.1077,34.2710,34.5159,34.6818,34.1848,34.3742,34.5287,34.2440,34.2737,34.5573,34.2118,34.1520,34.1733,34.1557,34.4853,34.2466,33.9931,34.0588,34.2780,33.8843,33.9722,34.0340,34.1257,34.3229,34.1440,33.8754,34.2983,34.0618,33.9991,34.2637,33.9982,34.0306,34.2733,34.5028,34.2964,34.6794,34.4881,34.8200,34.9008,34.1506,34.5078,34.6025,34.8792,34.1752,34.2299,34.2906,34.7682,34.2603,34.2043,34.2318,34.3870,34.3866,34.0406,34.2213,34.3868,34.0696,34.0522,34.2171,34.0907,34.2653,34.2455,34.5977,34.4717,34.2539,34.3158,34.6896,34.3789,34.5757,34.2288,35.0595,34.8762,34.1796,34.3479,34.0691,34.8600,34.4290,34.3109,34.5138,34.5571,34.1499,34.5358,34.0108,34.3462,33.9553,34.1888,34.4175,34.3377,34.2167,33.9222,34.4704,34.5162,34.1260,34.0523,34.3375,34.5721,34.1572,34.1507,34.7665,34.8622,34.5776,34.5646,35.1321,34.9979,34.5745,34.8028,34.6918,34.7660,34.3970,34.2973,34.5545,34.8553,34.3171,34.6102,34.4863,34.4556,34.2654,34.2344,34.2820,33.9407,34.0630,34.0888,34.2793,34.2951,34.2969,34.2826,34.4926,34.5245,34.3334,34.3645,34.6211,34.6527,34.4768,34.4840,34.9377,35.1763,34.4101,34.5438,34.7669,34.5345,34.6028,34.4903,34.2469,34.8239,33.9506,34.4288,34.1623,34.3443,34.0728,34.3951,34.6411,34.3214,34.2107,34.1538,34.6390,34.4941,34.2811,34.3499,34.5022,34.6186,34.4507,34.4274,34.6013,35.0704,34.7950,34.5282,35.1693,35.2318,
22:6:8:8:53:9:573,0.0000,0.0000,0.0000,,31.9836,65.4442,31.6300,100496,69.2478,0.0000,0.0000,0.0000,0.0000,0.0000,0.0000,0.0000,0.0000,0.0000,0.0000,0.0000,0.0000,0,0,0,0,0,0,0.0000000,0.0000000,0.0000000,
22:6:8:8:53:9:692,0.0000,0.0000,0.0000,,31.9897,65.4140,31.6300,100496,69.2478,0.0000,0.0000,0.0000,0.0000,0.0000,0.0000,0.0000,0.0000,0.0000,0.0000,0.0000,0.0000,0,0,0,0,0,0,0.0000000,0.0000000,0.0000000,
22:6:8:8:53:9:794,0.0000,0.0000,0.0000,,32.0015,65.4159,31.6300,100496,69.2478,0.0000,0.0000,0.0000,0.0000,0.0000,0.0000,0.0000,0.0000,0.0000,0.0000,0.0000,0.0000,0,0,0,0,0,0,0.0000000,0.0000000,0.0000000,
22:6:8:8:53:9:909,0.0000,0.0000,0.0000,,32.0024,65.4265,31.6400,100496,69.2478,0.0000,0.0000,0.0000,0.0000,0.0000,0.0000,0.0000,0.0000,0.0000,0.0000,0.0000,0.0000,0,0,0,0,0,0,0.0000000,0.0000000,0.0000000,
22:6:8:8:53:10:15,0.0000,0.0000,0.0000,,32.0103,65.4188,31.6400,100496,69.2478,0.0000,0.0000,0.0000,0.0000,0.0000,0.0000,0.0000,0.0000,0.0000,0.0000,0.0000,0.0000,0,0,0,0,0,0,0.0000000,0.0000000,0.0000000,
22:6:8:8:53:10:130,0.0000,0.0000,0.0000,,32.0086,65.4196,31.6400,100494,69.4154,0.0000,0.0000,0.0000,0.0000,0.0000,0.0000,0.0000,0.0000,0.0000,0.0000,0.0000,0.0000,0,0,0,0,0,0,0.0000000,0.0000000,0.0000000,
22:6:8:8:53:10:237,0.0000,0.0000,0.0000,,32.0141,65.4201,31.6400,100495,69.3316,0.0000,0.0000,0.0000,0.0000,0.0000,0.0000,0.0000,0.0000,0.0000,0.0000,0.0000,0.0000,0,0,0,0,0,0,0.0000000,0.0000000,0.0000000,
22:6:8:8:53:10:352,0.0000,0.0000,0.0000,,32.0095,65.4289,31.6400,100494,69.4154,0.0000,0.0000,0.0000,0.0000,0.0000,0.0000,0.0000,0.0000,0.0000,0.0000,0.0000,0.0000,0,0,0,0,0,0,0.0000000,0.0000000,0.0000000,
